time,targets_hit,total_targets,drone_x,drone_y,drone_z,drone_roll,drone_pitch,drone_yaw,target_x,target_y,target_z,target_yaw,distance_to_target,yaw_error,is_hitting
0.000,0,1,-0.000,-0.000,1.000,-0.000,0.000,-0.000,1.000,1.000,1.500,0.000,1.500,0.000,0
0.050,0,1,0.000,0.000,1.004,-0.012,0.012,0.001,1.000,1.000,1.500,0.000,1.499,0.001,0
0.100,0,1,0.001,0.001,1.022,-0.087,0.087,-0.003,1.000,1.000,1.500,0.000,1.492,0.003,0
0.150,0,1,0.004,0.004,1.049,-0.196,0.195,-0.017,1.000,1.000,1.500,0.000,1.479,0.017,0
0.200,0,1,0.016,0.016,1.089,-0.301,0.297,-0.034,1.000,1.000,1.500,0.000,1.451,0.034,0
0.250,0,1,0.041,0.040,1.147,-0.360,0.361,-0.034,1.000,1.000,1.500,0.000,1.402,0.034,0
0.300,0,1,0.078,0.077,1.214,-0.349,0.366,-0.009,1.000,1.000,1.500,0.000,1.335,0.009,0
0.350,0,1,0.124,0.123,1.278,-0.280,0.311,0.021,1.000,1.000,1.500,0.000,1.259,0.021,0
0.400,0,1,0.175,0.173,1.333,-0.185,0.213,0.033,1.000,1.000,1.500,0.000,1.180,0.033,0
0.450,0,1,0.228,0.226,1.374,-0.087,0.099,0.027,1.000,1.000,1.500,0.000,1.101,0.027,0
0.500,0,1,0.282,0.279,1.405,0.002,-0.005,0.012,1.000,1.000,1.500,0.000,1.022,0.012,0
0.550,0,1,0.335,0.332,1.428,0.074,-0.088,-0.001,1.000,1.000,1.500,0.000,0.945,0.001,0
0.600,0,1,0.387,0.384,1.446,0.122,-0.141,-0.006,1.000,1.000,1.500,0.000,0.870,0.006,0
0.650,0,1,0.436,0.433,1.461,0.145,-0.166,-0.005,1.000,1.000,1.500,0.000,0.801,0.005,0
0.700,0,1,0.481,0.479,1.473,0.146,-0.164,-0.001,1.000,1.000,1.500,0.000,0.736,0.001,0
0.750,0,1,0.523,0.521,1.483,0.132,-0.144,0.003,1.000,1.000,1.500,0.000,0.677,0.003,0
0.800,0,1,0.560,0.560,1.491,0.109,-0.113,0.005,1.000,1.000,1.500,0.000,0.622,0.005,0
0.850,0,1,0.596,0.597,1.497,0.084,-0.081,0.005,1.000,1.000,1.500,0.000,0.571,0.005,0
0.900,0,1,0.629,0.631,1.501,0.063,-0.054,0.004,1.000,1.000,1.500,0.000,0.523,0.004,0
0.950,0,1,0.661,0.664,1.504,0.049,-0.036,0.002,1.000,1.000,1.500,0.000,0.477,0.002,0
1.000,0,1,0.693,0.696,1.505,0.043,-0.029,0.001,1.000,1.000,1.500,0.000,0.432,0.001,0
1.050,0,1,0.723,0.727,1.504,0.044,-0.032,0.000,1.000,1.000,1.500,0.000,0.389,0.000,0
1.100,0,1,0.753,0.757,1.503,0.050,-0.042,-0.001,1.000,1.000,1.500,0.000,0.347,0.001,0
1.150,0,1,0.781,0.785,1.501,0.060,-0.055,-0.001,1.000,1.000,1.500,0.000,0.307,0.001,0
1.200,0,1,0.809,0.812,1.499,0.071,-0.069,-0.001,1.000,1.000,1.500,0.000,0.268,0.001,1
1.250,0,1,0.834,0.837,1.497,0.079,-0.081,-0.001,1.000,1.000,1.500,0.000,0.233,0.001,1
1.300,0,1,0.857,0.860,1.496,0.085,-0.088,-0.001,1.000,1.000,1.500,0.000,0.200,0.001,1
1.350,0,1,0.878,0.881,1.496,0.085,-0.090,-0.000,1.000,1.000,1.500,0.000,0.170,0.000,1
1.400,0,1,0.897,0.900,1.496,0.082,-0.086,0.000,1.000,1.000,1.500,0.000,0.144,0.000,1
1.450,0,1,0.914,0.916,1.497,0.076,-0.079,0.001,1.000,1.000,1.500,0.000,0.120,0.001,1
1.500,0,1,0.929,0.931,1.499,0.067,-0.069,0.001,1.000,1.000,1.500,0.000,0.099,0.001,1
1.550,0,1,0.942,0.944,1.500,0.058,-0.058,0.001,1.000,1.000,1.500,0.000,0.081,0.001,1
1.600,0,1,0.953,0.956,1.501,0.050,-0.048,0.001,1.000,1.000,1.500,0.000,0.064,0.001,1
1.650,0,1,0.964,0.966,1.502,0.043,-0.041,0.001,1.000,1.000,1.500,0.000,0.049,0.001,1
1.700,0,1,0.973,0.976,1.502,0.038,-0.035,0.000,1.000,1.000,1.500,0.000,0.036,0.000,1
1.750,0,1,0.982,0.984,1.502,0.034,-0.032,0.000,1.000,1.000,1.500,0.000,0.024,0.000,1
1.800,0,1,0.990,0.992,1.502,0.033,-0.031,0.000,1.000,1.000,1.500,0.000,0.013,0.000,1
1.850,0,1,0.997,0.999,1.502,0.032,-0.031,0.000,1.000,1.000,1.500,0.000,0.004,0.000,1
1.900,0,1,1.003,1.005,1.502,0.032,-0.032,-0.000,1.000,1.000,1.500,0.000,0.006,0.000,1
1.950,0,1,1.008,1.010,1.501,0.031,-0.032,-0.000,1.000,1.000,1.500,0.000,0.013,0.000,1
2.000,0,1,1.013,1.015,1.501,0.031,-0.032,0.000,1.000,1.000,1.500,0.000,0.020,0.000,1
2.050,0,1,1.017,1.018,1.501,0.029,-0.030,0.000,1.000,1.000,1.500,0.000,0.025,0.000,1
2.100,0,1,1.020,1.022,1.501,0.027,-0.028,0.000,1.000,1.000,1.500,0.000,0.029,0.000,1
2.150,0,1,1.023,1.024,1.501,0.024,-0.025,0.000,1.000,1.000,1.500,0.000,0.033,0.000,1
2.200,0,1,1.024,1.026,1.501,0.021,-0.021,0.000,1.000,1.000,1.500,0.000,0.036,0.000,1
2.250,0,1,1.026,1.027,1.501,0.017,-0.018,0.000,1.000,1.000,1.500,0.000,0.037,0.000,1
2.300,0,1,1.027,1.028,1.501,0.014,-0.014,0.000,1.000,1.000,1.500,0.000,0.039,0.000,1
2.350,0,1,1.027,1.028,1.501,0.012,-0.012,0.000,1.000,1.000,1.500,0.000,0.039,0.000,1
2.400,0,1,1.028,1.029,1.501,0.010,-0.010,0.000,1.000,1.000,1.500,0.000,0.040,0.000,1
2.450,0,1,1.028,1.029,1.500,0.008,-0.008,0.000,1.000,1.000,1.500,0.000,0.040,0.000,1
2.500,0,1,1.028,1.028,1.500,0.007,-0.007,0.000,1.000,1.000,1.500,0.000,0.040,0.000,1
2.550,0,1,1.027,1.028,1.500,0.006,-0.006,0.000,1.000,1.000,1.500,0.000,0.039,0.000,1
2.600,0,1,1.027,1.027,1.500,0.006,-0.006,0.000,1.000,1.000,1.500,0.000,0.038,0.000,1
2.650,0,1,1.026,1.027,1.500,0.005,-0.005,0.000,1.000,1.000,1.500,0.000,0.038,0.000,1
2.700,0,1,1.026,1.026,1.500,0.005,-0.005,0.000,1.000,1.000,1.500,0.000,0.036,0.000,1
2.750,0,1,1.025,1.025,1.500,0.004,-0.004,0.000,1.000,1.000,1.500,0.000,0.035,0.000,1
2.800,0,1,1.024,1.024,1.500,0.003,-0.004,0.000,1.000,1.000,1.500,0.000,0.034,0.000,1
2.850,0,1,1.023,1.023,1.500,0.002,-0.003,0.000,1.000,1.000,1.500,0.000,0.032,0.000,1
2.900,0,1,1.022,1.022,1.500,0.002,-0.002,0.000,1.000,1.000,1.500,0.000,0.031,0.000,1
2.950,0,1,1.020,1.021,1.500,0.001,-0.001,0.000,1.000,1.000,1.500,0.000,0.029,0.000,1
3.000,0,1,1.019,1.019,1.500,0.000,-0.000,0.000,1.000,1.000,1.500,0.000,0.027,0.000,1
3.050,0,1,1.018,1.018,1.500,-0.001,0.000,0.000,1.000,1.000,1.500,0.000,0.026,0.000,1
3.100,0,1,1.017,1.017,1.500,-0.001,0.001,-0.000,1.000,1.000,1.500,0.000,0.024,0.000,1
3.150,0,1,1.016,1.016,1.500,-0.001,0.001,-0.000,1.000,1.000,1.500,0.000,0.022,0.000,1
3.200,0,1,1.015,1.015,1.500,-0.002,0.001,-0.000,1.000,1.000,1.500,0.000,0.021,0.000,1
3.250,1,2,1.014,1.014,1.500,-0.002,0.002,-0.000,-1.000,1.000,1.000,0.500,2.075,0.500,0
3.300,1,2,1.012,1.012,1.500,-0.002,-0.007,0.012,-1.000,1.000,1.000,0.500,2.074,0.488,0
3.350,1,2,1.011,1.011,1.502,-0.023,-0.077,0.143,-1.000,1.000,1.000,0.500,2.073,0.357,0
3.400,1,2,1.009,1.011,1.490,-0.067,-0.159,0.342,-1.000,1.000,1.000,0.500,2.068,0.158,0
3.450,1,2,1.005,1.010,1.462,-0.117,-0.237,0.502,-1.000,1.000,1.000,0.500,2.058,0.002,0
3.500,1,2,0.997,1.009,1.428,-0.154,-0.315,0.557,-1.000,1.000,1.000,0.500,2.042,0.057,0
3.550,1,2,0.984,1.007,1.383,-0.173,-0.386,0.538,-1.000,1.000,1.000,0.500,2.020,0.038,0
3.600,1,2,0.963,1.005,1.330,-0.189,-0.437,0.509,-1.000,1.000,1.000,0.500,1.991,0.009,0
3.650,1,2,0.927,1.002,1.282,-0.212,-0.459,0.504,-1.000,1.000,1.000,0.500,1.948,0.004,0
3.700,1,2,0.873,0.997,1.243,-0.221,-0.445,0.497,-1.000,1.000,1.000,0.500,1.889,0.003,0
3.750,1,2,0.801,0.993,1.214,-0.207,-0.388,0.483,-1.000,1.000,1.000,0.500,1.814,0.017,0
3.800,1,2,0.717,0.988,1.188,-0.174,-0.292,0.473,-1.000,1.000,1.000,0.500,1.727,0.027,0
3.850,1,2,0.624,0.985,1.162,-0.129,-0.176,0.472,-1.000,1.000,1.000,0.500,1.632,0.028,0
3.900,1,2,0.526,0.983,1.135,-0.078,-0.059,0.478,-1.000,1.000,1.000,0.500,1.532,0.022,0
3.950,1,2,0.427,0.981,1.107,-0.027,0.041,0.488,-1.000,1.000,1.000,0.500,1.431,0.012,0
4.000,1,2,0.329,0.981,1.081,0.019,0.115,0.496,-1.000,1.000,1.000,0.500,1.331,0.004,0
4.050,1,2,0.234,0.982,1.058,0.055,0.159,0.501,-1.000,1.000,1.000,0.500,1.235,0.001,0
4.100,1,2,0.144,0.984,1.038,0.077,0.173,0.501,-1.000,1.000,1.000,0.500,1.145,0.001,0
4.150,1,2,0.059,0.986,1.023,0.088,0.165,0.499,-1.000,1.000,1.000,0.500,1.060,0.001,0
4.200,1,2,-0.019,0.988,1.012,0.087,0.142,0.497,-1.000,1.000,1.000,0.500,0.981,0.003,0
4.250,1,2,-0.093,0.990,1.003,0.080,0.114,0.497,-1.000,1.000,1.000,0.500,0.907,0.003,0
4.300,1,2,-0.163,0.992,0.998,0.070,0.088,0.497,-1.000,1.000,1.000,0.500,0.837,0.003,0
4.350,1,2,-0.230,0.993,0.995,0.059,0.070,0.498,-1.000,1.000,1.000,0.500,0.770,0.002,0
4.400,1,2,-0.294,0.994,0.993,0.051,0.062,0.499,-1.000,1.000,1.000,0.500,0.706,0.001,0
4.450,1,2,-0.356,0.994,0.991,0.046,0.065,0.500,-1.000,1.000,1.000,0.500,0.644,0.000,0
4.500,1,2,-0.416,0.995,0.990,0.045,0.075,0.501,-1.000,1.000,1.000,0.500,0.584,0.001,0
4.550,1,2,-0.474,0.995,0.989,0.048,0.090,0.501,-1.000,1.000,1.000,0.500,0.526,0.001,0
4.600,1,2,-0.529,0.995,0.988,0.053,0.106,0.501,-1.000,1.000,1.000,0.500,0.471,0.001,0
4.650,1,2,-0.581,0.995,0.988,0.059,0.119,0.501,-1.000,1.000,1.000,0.500,0.420,0.001,0
4.700,1,2,-0.629,0.996,0.988,0.064,0.128,0.501,-1.000,1.000,1.000,0.500,0.371,0.001,0
4.750,1,2,-0.674,0.996,0.989,0.067,0.131,0.500,-1.000,1.000,1.000,0.500,0.326,0.000,0
4.800,1,2,-0.715,0.997,0.991,0.069,0.129,0.500,-1.000,1.000,1.000,0.500,0.285,0.000,1
4.850,1,2,-0.752,0.998,0.993,0.068,0.121,0.499,-1.000,1.000,1.000,0.500,0.248,0.001,1
4.900,1,2,-0.786,0.999,0.995,0.064,0.111,0.499,-1.000,1.000,1.000,0.500,0.214,0.001,1
4.950,1,2,-0.816,0.999,0.997,0.059,0.099,0.499,-1.000,1.000,1.000,0.500,0.184,0.001,1
5.000,1,2,-0.844,1.000,0.999,0.054,0.087,0.499,-1.000,1.000,1.000,0.500,0.156,0.001,1
5.050,1,2,-0.869,1.000,1.001,0.048,0.078,0.499,-1.000,1.000,1.000,0.500,0.131,0.001,1
5.100,1,2,-0.892,1.001,1.002,0.043,0.070,0.499,-1.000,1.000,1.000,0.500,0.108,0.001,1
5.150,1,2,-0.913,1.001,1.003,0.039,0.065,0.500,-1.000,1.000,1.000,0.500,0.087,0.000,1
5.200,1,2,-0.932,1.001,1.003,0.036,0.062,0.500,-1.000,1.000,1.000,0.500,0.068,0.000,1
5.250,1,2,-0.950,1.001,1.003,0.034,0.060,0.500,-1.000,1.000,1.000,0.500,0.050,0.000,1
5.300,1,2,-0.966,1.001,1.003,0.033,0.059,0.500,-1.000,1.000,1.000,0.500,0.035,0.000,1
5.350,1,2,-0.980,1.001,1.003,0.032,0.058,0.500,-1.000,1.000,1.000,0.500,0.021,0.000,1
5.400,1,2,-0.992,1.001,1.002,0.030,0.057,0.500,-1.000,1.000,1.000,0.500,0.009,0.000,1
5.450,1,2,-1.003,1.001,1.002,0.029,0.054,0.500,-1.000,1.000,1.000,0.500,0.004,0.000,1
5.500,1,2,-1.012,1.002,1.002,0.028,0.051,0.500,-1.000,1.000,1.000,0.500,0.012,0.000,1
5.550,1,2,-1.020,1.002,1.002,0.026,0.046,0.500,-1.000,1.000,1.000,0.500,0.020,0.000,1
5.600,1,2,-1.026,1.002,1.002,0.024,0.042,0.500,-1.000,1.000,1.000,0.500,0.026,0.000,1
5.650,1,2,-1.032,1.002,1.002,0.021,0.037,0.500,-1.000,1.000,1.000,0.500,0.032,0.000,1
5.700,1,2,-1.036,1.002,1.002,0.019,0.032,0.500,-1.000,1.000,1.000,0.500,0.036,0.000,1
5.750,1,2,-1.039,1.002,1.001,0.016,0.027,0.500,-1.000,1.000,1.000,0.500,0.040,0.000,1
5.800,1,2,-1.042,1.002,1.001,0.014,0.024,0.500,-1.000,1.000,1.000,0.500,0.042,0.000,1
5.850,1,2,-1.044,1.002,1.001,0.012,0.021,0.500,-1.000,1.000,1.000,0.500,0.044,0.000,1
5.900,1,2,-1.045,1.002,1.001,0.010,0.018,0.500,-1.000,1.000,1.000,0.500,0.045,0.000,1
5.950,1,2,-1.046,1.001,1.001,0.009,0.016,0.500,-1.000,1.000,1.000,0.500,0.046,0.000,1
6.000,1,2,-1.047,1.001,1.001,0.008,0.015,0.500,-1.000,1.000,1.000,0.500,0.047,0.000,1
6.050,1,2,-1.047,1.001,1.001,0.007,0.013,0.500,-1.000,1.000,1.000,0.500,0.047,0.000,1
6.100,1,2,-1.046,1.001,1.000,0.006,0.012,0.500,-1.000,1.000,1.000,0.500,0.046,0.000,1
6.150,1,2,-1.046,1.001,1.000,0.005,0.011,0.500,-1.000,1.000,1.000,0.500,0.046,0.000,1
6.200,1,2,-1.045,1.001,1.000,0.005,0.009,0.500,-1.000,1.000,1.000,0.500,0.045,0.000,1
6.250,1,2,-1.043,1.001,1.000,0.004,0.008,0.500,-1.000,1.000,1.000,0.500,0.043,0.000,1
6.300,1,2,-1.042,1.001,1.000,0.003,0.006,0.500,-1.000,1.000,1.000,0.500,0.042,0.000,1
6.350,1,2,-1.040,1.001,1.000,0.003,0.005,0.500,-1.000,1.000,1.000,0.500,0.040,0.000,1
6.400,1,2,-1.039,1.001,1.000,0.002,0.003,0.500,-1.000,1.000,1.000,0.500,0.039,0.000,1
6.450,1,2,-1.037,1.001,1.000,0.001,0.002,0.500,-1.000,1.000,1.000,0.500,0.037,0.000,1
6.500,1,2,-1.035,1.001,1.000,0.001,0.001,0.500,-1.000,1.000,1.000,0.500,0.035,0.000,1
6.550,1,2,-1.033,1.001,1.000,0.000,0.000,0.500,-1.000,1.000,1.000,0.500,0.033,0.000,1
6.600,1,2,-1.031,1.001,1.000,-0.000,-0.000,0.500,-1.000,1.000,1.000,0.500,0.031,0.000,1
6.650,1,2,-1.029,1.001,1.000,-0.001,-0.001,0.500,-1.000,1.000,1.000,0.500,0.029,0.000,1
6.700,1,2,-1.027,1.000,1.000,-0.001,-0.001,0.500,-1.000,1.000,1.000,0.500,0.027,0.000,1
6.750,1,2,-1.025,1.000,1.000,-0.001,-0.002,0.500,-1.000,1.000,1.000,0.500,0.025,0.000,1
6.800,2,3,-1.023,1.000,1.000,-0.001,-0.002,0.500,2.000,-1.500,2.000,1.000,4.049,0.500,0
6.850,2,3,-1.021,1.000,1.000,0.033,0.009,0.525,2.000,-1.500,2.000,1.000,4.047,0.475,0
6.900,2,3,-1.018,0.999,1.006,0.216,0.032,0.661,2.000,-1.500,2.000,1.000,4.043,0.339,0
6.950,2,3,-1.007,0.990,1.035,0.483,0.045,0.818,2.000,-1.500,2.000,1.000,4.022,0.182,0
7.000,2,3,-0.979,0.968,1.080,0.730,0.033,0.936,2.000,-1.500,2.000,1.000,3.977,0.064,0
7.050,2,3,-0.928,0.930,1.132,0.892,0.010,0.981,2.000,-1.500,2.000,1.000,3.903,0.019,0
7.100,2,3,-0.847,0.873,1.190,0.928,-0.021,0.977,2.000,-1.500,2.000,1.000,3.794,0.023,0
7.150,2,3,-0.735,0.793,1.252,0.825,-0.065,0.951,2.000,-1.500,2.000,1.000,3.646,0.049,0
7.200,2,3,-0.595,0.691,1.323,0.597,-0.114,0.936,2.000,-1.500,2.000,1.000,3.463,0.064,0
7.250,2,3,-0.442,0.576,1.397,0.302,-0.157,0.957,2.000,-1.500,2.000,1.000,3.261,0.043,0
7.300,2,3,-0.286,0.453,1.470,0.010,-0.167,0.986,2.000,-1.500,2.000,1.000,3.053,0.014,0
7.350,2,3,-0.133,0.329,1.542,-0.225,-0.143,0.993,2.000,-1.500,2.000,1.000,2.847,0.007,0
7.400,2,3,0.012,0.206,1.613,-0.380,-0.098,0.981,2.000,-1.500,2.000,1.000,2.648,0.019,0
7.450,2,3,0.146,0.087,1.681,-0.453,-0.042,0.965,2.000,-1.500,2.000,1.000,2.461,0.035,0
7.500,2,3,0.271,-0.026,1.745,-0.455,0.019,0.957,2.000,-1.500,2.000,1.000,2.286,0.043,0
7.550,2,3,0.386,-0.133,1.804,-0.405,0.072,0.962,2.000,-1.500,2.000,1.000,2.124,0.038,0
7.600,2,3,0.495,-0.233,1.857,-0.326,0.108,0.975,2.000,-1.500,2.000,1.000,1.972,0.025,0
7.650,2,3,0.599,-0.327,1.903,-0.241,0.124,0.989,2.000,-1.500,2.000,1.000,1.829,0.011,0
7.700,2,3,0.700,-0.417,1.940,-0.168,0.119,0.999,2.000,-1.500,2.000,1.000,1.693,0.001,0
7.750,2,3,0.799,-0.504,1.968,-0.118,0.101,1.003,2.000,-1.500,2.000,1.000,1.561,0.003,0
7.800,2,3,0.896,-0.588,1.985,-0.097,0.076,1.004,2.000,-1.500,2.000,1.000,1.432,0.004,0
7.850,2,3,0.993,-0.670,1.993,-0.102,0.052,1.004,2.000,-1.500,2.000,1.000,1.305,0.004,0
7.900,2,3,1.087,-0.750,1.992,-0.130,0.031,1.004,2.000,-1.500,2.000,1.000,1.182,0.004,0
7.950,2,3,1.179,-0.827,1.985,-0.172,0.019,1.003,2.000,-1.500,2.000,1.000,1.061,0.003,0
8.149,2,3,1.259,-0.895,1.976,-0.212,0.014,1.002,2.000,-1.500,2.000,1.000,0.957,0.002,0
8.150,2,3,1.259,-0.895,1.976,-0.217,0.014,1.002,2.000,-1.500,2.000,1.000,0.957,0.002,0
8.200,2,3,1.352,-0.973,1.965,-0.271,0.017,0.999,2.000,-1.500,2.000,1.000,0.836,0.001,0
8.250,2,3,1.429,-1.039,1.959,-0.311,0.026,0.996,2.000,-1.500,2.000,1.000,0.735,0.004,0
8.300,2,3,1.498,-1.100,1.956,-0.333,0.037,0.994,2.000,-1.500,2.000,1.000,0.643,0.006,0
8.350,2,3,1.559,-1.153,1.959,-0.334,0.048,0.994,2.000,-1.500,2.000,1.000,0.562,0.006,0
8.400,2,3,1.613,-1.200,1.966,-0.314,0.055,0.995,2.000,-1.500,2.000,1.000,0.491,0.005,0
8.450,2,3,1.659,-1.241,1.976,-0.278,0.058,0.998,2.000,-1.500,2.000,1.000,0.428,0.002,0
8.500,2,3,1.701,-1.277,1.986,-0.232,0.055,1.000,2.000,-1.500,2.000,1.000,0.374,0.000,0
8.550,2,3,1.738,-1.308,1.996,-0.185,0.048,1.002,2.000,-1.500,2.000,1.000,0.325,0.002,0
8.600,2,3,1.771,-1.336,2.004,-0.145,0.038,1.002,2.000,-1.500,2.000,1.000,0.281,0.002,1
8.650,2,3,1.803,-1.362,2.010,-0.114,0.028,1.002,2.000,-1.500,2.000,1.000,0.241,0.002,1
8.700,2,3,1.833,-1.386,2.013,-0.096,0.019,1.002,2.000,-1.500,2.000,1.000,0.203,0.002,1
8.750,2,3,1.861,-1.408,2.013,-0.090,0.012,1.001,2.000,-1.500,2.000,1.000,0.168,0.001,1
8.800,2,3,1.887,-1.428,2.012,-0.093,0.008,1.001,2.000,-1.500,2.000,1.000,0.134,0.001,1
8.850,2,3,1.911,-1.448,2.010,-0.102,0.007,1.000,2.000,-1.500,2.000,1.000,0.103,0.000,1
8.900,2,3,1.934,-1.465,2.007,-0.112,0.008,1.000,2.000,-1.500,2.000,1.000,0.075,0.000,1
8.950,2,3,1.954,-1.482,2.005,-0.120,0.011,1.000,2.000,-1.500,2.000,1.000,0.050,0.000,1
9.000,2,3,1.972,-1.496,2.003,-0.124,0.013,0.999,2.000,-1.500,2.000,1.000,0.028,0.001,1
9.050,2,3,1.988,-1.508,2.003,-0.122,0.016,1.000,2.000,-1.500,2.000,1.000,0.015,0.000,1
9.100,2,3,2.001,-1.518,2.002,-0.115,0.017,1.000,2.000,-1.500,2.000,1.000,0.018,0.000,1
9.150,2,3,2.011,-1.526,2.003,-0.102,0.016,1.000,2.000,-1.500,2.000,1.000,0.029,0.000,1
9.200,2,3,2.020,-1.533,2.003,-0.087,0.015,1.000,2.000,-1.500,2.000,1.000,0.039,0.000,1
9.250,2,3,2.027,-1.538,2.004,-0.071,0.012,1.000,2.000,-1.500,2.000,1.000,0.047,0.000,1
9.300,2,3,2.033,-1.542,2.004,-0.057,0.009,1.000,2.000,-1.500,2.000,1.000,0.054,0.000,1
9.350,2,3,2.038,-1.545,2.004,-0.045,0.007,1.000,2.000,-1.500,2.000,1.000,0.059,0.000,1
9.400,2,3,2.042,-1.547,2.004,-0.037,0.004,1.000,2.000,-1.500,2.000,1.000,0.064,0.000,1
9.450,2,3,2.046,-1.549,2.004,-0.032,0.002,1.000,2.000,-1.500,2.000,1.000,0.067,0.000,1
9.500,2,3,2.048,-1.550,2.003,-0.029,0.001,1.000,2.000,-1.500,2.000,1.000,0.070,0.000,1
9.550,2,3,2.050,-1.551,2.003,-0.028,0.001,1.000,2.000,-1.500,2.000,1.000,0.072,0.000,1
9.600,2,3,2.052,-1.552,2.002,-0.028,0.001,1.000,2.000,-1.500,2.000,1.000,0.073,0.000,1
9.650,2,3,2.053,-1.552,2.002,-0.028,0.001,1.000,2.000,-1.500,2.000,1.000,0.074,0.000,1
9.700,2,3,2.053,-1.551,2.001,-0.027,0.001,1.000,2.000,-1.500,2.000,1.000,0.074,0.000,1
9.750,2,3,2.053,-1.550,2.001,-0.025,0.002,1.000,2.000,-1.500,2.000,1.000,0.073,0.000,1
9.800,2,3,2.052,-1.549,2.001,-0.022,0.002,1.000,2.000,-1.500,2.000,1.000,0.072,0.000,1
9.850,2,3,2.051,-1.548,2.001,-0.018,0.002,1.000,2.000,-1.500,2.000,1.000,0.070,0.000,1
9.900,2,3,2.050,-1.546,2.001,-0.014,0.001,1.000,2.000,-1.500,2.000,1.000,0.068,0.000,1
9.950,2,3,2.048,-1.544,2.000,-0.010,0.001,1.000,2.000,-1.500,2.000,1.000,0.065,0.000,1
10.000,2,3,2.046,-1.542,2.000,-0.007,0.000,1.000,2.000,-1.500,2.000,1.000,0.063,0.000,1
10.050,2,3,2.044,-1.540,2.000,-0.004,-0.000,1.000,2.000,-1.500,2.000,1.000,0.060,0.000,1
10.100,2,3,2.042,-1.538,2.000,-0.001,-0.001,1.000,2.000,-1.500,2.000,1.000,0.057,0.000,1
10.150,2,3,2.040,-1.535,2.000,0.000,-0.001,1.000,2.000,-1.500,2.000,1.000,0.054,0.000,1
10.200,2,3,2.038,-1.533,2.000,0.001,-0.001,1.000,2.000,-1.500,2.000,1.000,0.050,0.000,1
10.250,2,3,2.036,-1.531,2.000,0.002,-0.002,1.000,2.000,-1.500,2.000,1.000,0.047,0.000,1
10.300,2,3,2.034,-1.529,2.000,0.002,-0.001,1.000,2.000,-1.500,2.000,1.000,0.044,0.000,1
10.350,2,3,2.031,-1.527,2.000,0.002,-0.001,1.000,2.000,-1.500,2.000,1.000,0.041,0.000,1
10.400,2,3,2.029,-1.525,2.000,0.002,-0.001,1.000,2.000,-1.500,2.000,1.000,0.039,0.000,1
10.450,2,3,2.027,-1.523,2.000,0.002,-0.001,1.000,2.000,-1.500,2.000,1.000,0.036,0.000,1
10.500,2,3,2.025,-1.521,2.000,0.003,-0.001,1.000,2.000,-1.500,2.000,1.000,0.033,0.000,1
10.550,2,3,2.023,-1.519,2.000,0.003,-0.001,1.000,2.000,-1.500,2.000,1.000,0.030,0.000,1
10.600,3,4,2.021,-1.518,2.000,0.004,-0.001,1.000,-2.000,-1.500,1.800,1.500,4.026,0.500,0
10.650,3,4,2.019,-1.516,2.000,-0.030,-0.024,1.025,-2.000,-1.500,1.800,1.500,4.024,0.475,0
10.700,3,4,2.016,-1.515,2.000,-0.218,-0.101,1.183,-2.000,-1.500,1.800,1.500,4.021,0.317,0
10.750,3,4,2.012,-1.513,1.984,-0.490,-0.148,1.401,-2.000,-1.500,1.800,1.500,4.016,0.099,0
10.800,3,4,2.000,-1.512,1.955,-0.765,-0.166,1.554,-2.000,-1.500,1.800,1.500,4.003,0.054,0
10.850,3,4,1.968,-1.515,1.922,-0.983,-0.219,1.580,-2.000,-1.500,1.800,1.500,3.970,0.080,0
10.900,3,4,1.897,-1.523,1.889,-1.096,-0.265,1.539,-2.000,-1.500,1.800,1.500,3.899,0.039,0
10.950,3,4,1.783,-1.536,1.854,-1.062,-0.287,1.456,-2.000,-1.500,1.800,1.500,3.783,0.044,0
11.000,3,4,1.630,-1.550,1.816,-0.878,-0.247,1.359,-2.000,-1.500,1.800,1.500,3.631,0.141,0
11.050,3,4,1.449,-1.565,1.778,-0.606,-0.113,1.306,-2.000,-1.500,1.800,1.500,3.449,0.194,0
11.100,3,4,1.247,-1.577,1.746,-0.310,0.078,1.347,-2.000,-1.500,1.800,1.500,3.248,0.153,0
11.150,3,4,1.037,-1.584,1.725,-0.023,0.233,1.438,-2.000,-1.500,1.800,1.500,3.039,0.062,0
11.200,3,4,0.829,-1.584,1.710,0.209,0.300,1.492,-2.000,-1.500,1.800,1.500,2.831,0.008,0
11.250,3,4,0.629,-1.576,1.701,0.354,0.290,1.491,-2.000,-1.500,1.800,1.500,2.632,0.009,0
11.300,3,4,0.442,-1.561,1.693,0.412,0.222,1.461,-2.000,-1.500,1.800,1.500,2.446,0.039,0
11.350,3,4,0.269,-1.542,1.686,0.405,0.115,1.433,-2.000,-1.500,1.800,1.500,2.272,0.067,0
11.400,3,4,0.109,-1.521,1.683,0.356,-0.010,1.425,-2.000,-1.500,1.800,1.500,2.112,0.075,0
11.450,3,4,-0.039,-1.503,1.686,0.285,-0.120,1.439,-2.000,-1.500,1.800,1.500,1.964,0.061,0
11.500,3,4,-0.178,-1.490,1.694,0.210,-0.190,1.464,-2.000,-1.500,1.800,1.500,1.825,0.036,0
11.550,3,4,-0.310,-1.482,1.707,0.148,-0.210,1.489,-2.000,-1.500,1.800,1.500,1.693,0.011,0
11.600,3,4,-0.437,-1.480,1.720,0.110,-0.183,1.503,-2.000,-1.500,1.800,1.500,1.565,0.003,0
11.650,3,4,-0.562,-1.483,1.730,0.100,-0.124,1.509,-2.000,-1.500,1.800,1.500,1.440,0.009,0
11.700,3,4,-0.684,-1.487,1.735,0.114,-0.051,1.512,-2.000,-1.500,1.800,1.500,1.318,0.012,0
11.750,3,4,-0.802,-1.494,1.737,0.145,0.018,1.514,-2.000,-1.500,1.800,1.500,1.199,0.014,0
11.800,3,4,-0.917,-1.500,1.737,0.186,0.071,1.514,-2.000,-1.500,1.800,1.500,1.085,0.014,0
11.850,3,4,-1.027,-1.504,1.737,0.227,0.103,1.511,-2.000,-1.500,1.800,1.500,0.975,0.011,0
11.900,3,4,-1.129,-1.506,1.739,0.261,0.112,1.504,-2.000,-1.500,1.800,1.500,0.873,0.004,0
11.950,3,4,-1.224,-1.506,1.743,0.283,0.101,1.496,-2.000,-1.500,1.800,1.500,0.778,0.004,0
12.000,3,4,-1.310,-1.504,1.750,0.291,0.074,1.489,-2.000,-1.500,1.800,1.500,0.691,0.011,0
12.050,3,4,-1.388,-1.501,1.758,0.283,0.040,1.485,-2.000,-1.500,1.800,1.500,0.613,0.015,0
12.100,3,4,-1.458,-1.497,1.768,0.263,0.007,1.485,-2.000,-1.500,1.800,1.500,0.543,0.015,0
12.150,3,4,-1.522,-1.493,1.778,0.235,-0.020,1.488,-2.000,-1.500,1.800,1.500,0.479,0.012,0
12.200,3,4,-1.579,-1.491,1.788,0.203,-0.036,1.493,-2.000,-1.500,1.800,1.500,0.421,0.007,0
12.250,3,4,-1.631,-1.489,1.796,0.173,-0.040,1.498,-2.000,-1.500,1.800,1.500,0.369,0.002,0
12.300,3,4,-1.680,-1.489,1.802,0.148,-0.034,1.501,-2.000,-1.500,1.800,1.500,0.320,0.001,0
12.350,3,4,-1.725,-1.490,1.806,0.130,-0.021,1.503,-2.000,-1.500,1.800,1.500,0.275,0.003,1
12.400,3,4,-1.767,-1.491,1.808,0.120,-0.006,1.503,-2.000,-1.500,1.800,1.500,0.233,0.003,1
12.450,3,4,-1.806,-1.493,1.809,0.116,0.009,1.503,-2.000,-1.500,1.800,1.500,0.194,0.003,1
12.500,3,4,-1.843,-1.495,1.808,0.118,0.021,1.502,-2.000,-1.500,1.800,1.500,0.158,0.002,1
12.550,3,4,-1.876,-1.496,1.807,0.122,0.028,1.502,-2.000,-1.500,1.800,1.500,0.124,0.002,1
12.600,3,4,-1.906,-1.497,1.805,0.126,0.030,1.501,-2.000,-1.500,1.800,1.500,0.094,0.001,1
12.650,3,4,-1.934,-1.498,1.804,0.127,0.028,1.500,-2.000,-1.500,1.800,1.500,0.067,0.000,1
12.700,3,4,-1.957,-1.498,1.804,0.125,0.022,1.499,-2.000,-1.500,1.800,1.500,0.043,0.001,1
12.750,3,4,-1.978,-1.498,1.804,0.119,0.015,1.499,-2.000,-1.500,1.800,1.500,0.022,0.001,1
12.800,3,4,-1.996,-1.497,1.804,0.109,0.007,1.499,-2.000,-1.500,1.800,1.500,0.006,0.001,1
12.850,3,4,-2.011,-1.497,1.804,0.097,0.001,1.499,-2.000,-1.500,1.800,1.500,0.012,0.001,1
12.900,3,4,-2.024,-1.496,1.804,0.084,-0.003,1.499,-2.000,-1.500,1.800,1.500,0.024,0.001,1
12.950,3,4,-2.034,-1.496,1.805,0.072,-0.004,1.500,-2.000,-1.500,1.800,1.500,0.035,0.000,1
13.000,3,4,-2.043,-1.496,1.805,0.061,-0.004,1.500,-2.000,-1.500,1.800,1.500,0.043,0.000,1
13.050,3,4,-2.050,-1.497,1.804,0.052,-0.002,1.500,-2.000,-1.500,1.800,1.500,0.050,0.000,1
13.100,3,4,-2.056,-1.497,1.804,0.045,0.001,1.500,-2.000,-1.500,1.800,1.500,0.056,0.000,1
13.150,3,4,-2.061,-1.498,1.804,0.041,0.003,1.500,-2.000,-1.500,1.800,1.500,0.061,0.000,1
13.200,3,4,-2.065,-1.498,1.803,0.037,0.005,1.500,-2.000,-1.500,1.800,1.500,0.065,0.000,1
13.250,3,4,-2.068,-1.499,1.803,0.035,0.007,1.500,-2.000,-1.500,1.800,1.500,0.068,0.000,1
13.300,3,4,-2.070,-1.499,1.802,0.033,0.007,1.500,-2.000,-1.500,1.800,1.500,0.070,0.000,1
13.350,3,4,-2.071,-1.499,1.802,0.031,0.007,1.500,-2.000,-1.500,1.800,1.500,0.071,0.000,1
13.400,3,4,-2.072,-1.499,1.802,0.029,0.005,1.500,-2.000,-1.500,1.800,1.500,0.072,0.000,1
13.450,3,4,-2.072,-1.499,1.801,0.026,0.004,1.500,-2.000,-1.500,1.800,1.500,0.072,0.000,1
13.500,3,4,-2.071,-1.499,1.801,0.022,0.002,1.500,-2.000,-1.500,1.800,1.500,0.071,0.000,1
13.550,3,4,-2.070,-1.499,1.801,0.018,0.001,1.500,-2.000,-1.500,1.800,1.500,0.070,0.000,1
13.600,3,4,-2.068,-1.499,1.801,0.015,-0.000,1.500,-2.000,-1.500,1.800,1.500,0.068,0.000,1
13.650,3,4,-2.066,-1.499,1.801,0.011,-0.001,1.500,-2.000,-1.500,1.800,1.500,0.066,0.000,1
13.700,3,4,-2.063,-1.499,1.800,0.008,-0.001,1.500,-2.000,-1.500,1.800,1.500,0.063,0.000,1
13.750,3,4,-2.061,-1.500,1.800,0.005,-0.001,1.500,-2.000,-1.500,1.800,1.500,0.061,0.000,1
13.800,3,4,-2.058,-1.500,1.800,0.003,-0.000,1.500,-2.000,-1.500,1.800,1.500,0.058,0.000,1
13.850,3,4,-2.055,-1.500,1.800,0.002,0.000,1.500,-2.000,-1.500,1.800,1.500,0.055,0.000,1
13.900,3,4,-2.052,-1.500,1.800,0.001,0.001,1.500,-2.000,-1.500,1.800,1.500,0.052,0.000,1
13.950,3,4,-2.049,-1.500,1.800,-0.000,0.001,1.500,-2.000,-1.500,1.800,1.500,0.049,0.000,1
14.000,3,4,-2.046,-1.500,1.800,-0.001,0.001,1.500,-2.000,-1.500,1.800,1.500,0.046,0.000,1
14.050,3,4,-2.043,-1.500,1.800,-0.001,0.001,1.500,-2.000,-1.500,1.800,1.500,0.043,0.000,1
14.100,3,4,-2.040,-1.500,1.800,-0.002,0.001,1.500,-2.000,-1.500,1.800,1.500,0.040,0.000,1
14.150,3,4,-2.037,-1.500,1.800,-0.002,0.000,1.500,-2.000,-1.500,1.800,1.500,0.037,0.000,1
14.200,3,4,-2.035,-1.500,1.800,-0.003,0.000,1.500,-2.000,-1.500,1.800,1.500,0.035,0.000,1
14.250,3,4,-2.032,-1.500,1.800,-0.003,-0.000,1.500,-2.000,-1.500,1.800,1.500,0.032,0.000,1
14.300,3,4,-2.029,-1.500,1.800,-0.004,-0.000,1.500,-2.000,-1.500,1.800,1.500,0.029,0.000,1
14.350,3,4,-2.027,-1.500,1.800,-0.004,-0.001,1.500,-2.000,-1.500,1.800,1.500,0.027,0.000,1
14.400,4,5,-2.024,-1.500,1.800,-0.005,-0.001,1.500,0.000,2.500,1.000,-1.000,4.554,2.500,0
14.450,4,5,-2.022,-1.500,1.800,0.002,0.023,1.474,0.000,2.500,1.000,-1.000,4.553,2.474,0
14.500,4,5,-2.020,-1.499,1.802,-0.039,0.179,1.315,0.000,2.500,1.000,-1.000,4.552,2.315,0
14.550,4,5,-2.017,-1.493,1.805,-0.215,0.407,0.967,0.000,2.500,1.000,-1.000,4.546,1.967,0
14.600,4,5,-2.013,-1.476,1.806,-0.584,0.536,0.362,0.000,2.500,1.000,-1.000,4.529,1.362,0
14.650,4,5,-2.003,-1.441,1.803,-0.967,0.306,-0.290,0.000,2.500,1.000,-1.000,4.493,0.710,0
14.700,4,5,-1.984,-1.387,1.789,-1.052,-0.092,-0.678,0.000,2.500,1.000,-1.000,4.435,0.322,0
14.750,4,5,-1.950,-1.314,1.764,-0.937,-0.414,-0.913,0.000,2.500,1.000,-1.000,4.352,0.087,0
14.800,4,5,-1.904,-1.223,1.730,-0.765,-0.619,-1.068,0.000,2.500,1.000,-1.000,4.245,0.068,0
14.850,4,5,-1.847,-1.114,1.686,-0.614,-0.693,-1.141,0.000,2.500,1.000,-1.000,4.116,0.141,0
14.900,4,5,-1.782,-0.985,1.637,-0.525,-0.638,-1.120,0.000,2.500,1.000,-1.000,3.965,0.120,0
14.950,4,5,-1.707,-0.827,1.594,-0.450,-0.504,-1.094,0.000,2.500,1.000,-1.000,3.786,0.094,0
15.000,4,5,-1.626,-0.648,1.555,-0.352,-0.336,-1.102,0.000,2.500,1.000,-1.000,3.586,0.102,0
15.050,4,5,-1.542,-0.462,1.508,-0.246,-0.154,-1.095,0.000,2.500,1.000,-1.000,3.378,0.095,0
15.100,4,5,-1.457,-0.275,1.450,-0.140,0.012,-1.061,0.000,2.500,1.000,-1.000,3.166,0.061,0
15.150,4,5,-1.371,-0.088,1.382,-0.038,0.136,-1.029,0.000,2.500,1.000,-1.000,2.953,0.029,0
15.200,4,5,-1.283,0.096,1.311,0.052,0.209,-1.007,0.000,2.500,1.000,-1.000,2.743,0.007,0
15.250,4,5,-1.195,0.273,1.243,0.124,0.237,-1.000,0.000,2.500,1.000,-1.000,2.539,0.000,0
15.300,4,5,-1.107,0.441,1.181,0.176,0.228,-1.003,0.000,2.500,1.000,-1.000,2.345,0.003,0
15.350,4,5,-1.021,0.598,1.127,0.210,0.194,-1.010,0.000,2.500,1.000,-1.000,2.162,0.010,0
15.400,4,5,-0.938,0.746,1.082,0.228,0.148,-1.015,0.000,2.500,1.000,-1.000,1.991,0.015,0
15.450,4,5,-0.860,0.884,1.047,0.235,0.104,-1.016,0.000,2.500,1.000,-1.000,1.832,0.016,0
15.500,4,5,-0.788,1.014,1.020,0.234,0.071,-1.013,0.000,2.500,1.000,-1.000,1.682,0.013,0
15.550,4,5,-0.721,1.138,1.001,0.228,0.055,-1.007,0.000,2.500,1.000,-1.000,1.541,0.007,0
15.600,4,5,-0.659,1.256,0.987,0.219,0.057,-1.000,0.000,2.500,1.000,-1.000,1.408,0.000,0
15.650,4,5,-0.602,1.368,0.977,0.211,0.073,-0.995,0.000,2.500,1.000,-1.000,1.282,0.005,0
15.700,4,5,-0.550,1.476,0.970,0.205,0.098,-0.992,0.000,2.500,1.000,-1.000,1.163,0.008,0
15.750,4,5,-0.501,1.577,0.966,0.201,0.126,-0.991,0.000,2.500,1.000,-1.000,1.050,0.009,0
15.800,4,5,-0.455,1.673,0.964,0.199,0.149,-0.992,0.000,2.500,1.000,-1.000,0.945,0.008,0
15.850,4,5,-0.411,1.762,0.964,0.199,0.165,-0.994,0.000,2.500,1.000,-1.000,0.846,0.006,0
15.900,4,5,-0.370,1.843,0.967,0.200,0.170,-0.998,0.000,2.500,1.000,-1.000,0.755,0.002,0
15.950,4,5,-0.332,1.918,0.971,0.199,0.165,-1.001,0.000,2.500,1.000,-1.000,0.670,0.001,0
16.000,4,5,-0.295,1.987,0.976,0.197,0.152,-1.004,0.000,2.500,1.000,-1.000,0.593,0.004,0
16.050,4,5,-0.261,2.049,0.982,0.193,0.134,-1.005,0.000,2.500,1.000,-1.000,0.522,0.005,0
16.100,4,5,-0.230,2.105,0.988,0.186,0.114,-1.006,0.000,2.500,1.000,-1.000,0.457,0.006,0
16.150,4,5,-0.201,2.157,0.994,0.176,0.095,-1.006,0.000,2.500,1.000,-1.000,0.397,0.006,0
16.200,4,5,-0.174,2.204,0.998,0.166,0.080,-1.004,0.000,2.500,1.000,-1.000,0.343,0.004,0
16.250,4,5,-0.150,2.248,1.002,0.155,0.070,-1.003,0.000,2.500,1.000,-1.000,0.293,0.003,1
16.300,4,5,-0.128,2.288,1.005,0.144,0.064,-1.002,0.000,2.500,1.000,-1.000,0.247,0.002,1
16.350,4,5,-0.108,2.325,1.007,0.134,0.063,-1.000,0.000,2.500,1.000,-1.000,0.206,0.000,1
16.400,4,5,-0.090,2.359,1.008,0.126,0.065,-1.000,0.000,2.500,1.000,-1.000,0.167,0.000,1
16.450,4,5,-0.073,2.390,1.008,0.118,0.067,-0.999,0.000,2.500,1.000,-1.000,0.133,0.001,1
16.500,4,5,-0.059,2.418,1.008,0.112,0.069,-1.000,0.000,2.500,1.000,-1.000,0.101,0.000,1
16.550,4,5,-0.045,2.443,1.007,0.107,0.070,-1.000,0.000,2.500,1.000,-1.000,0.073,0.000,1
16.600,4,5,-0.034,2.465,1.007,0.102,0.068,-1.000,0.000,2.500,1.000,-1.000,0.049,0.000,1
16.650,4,5,-0.023,2.485,1.007,0.096,0.065,-1.000,0.000,2.500,1.000,-1.000,0.028,0.000,1
16.700,4,5,-0.013,2.501,1.006,0.091,0.059,-1.001,0.000,2.500,1.000,-1.000,0.015,0.001,1
16.750,4,5,-0.005,2.516,1.006,0.084,0.052,-1.001,0.000,2.500,1.000,-1.000,0.017,0.001,1
16.800,4,5,0.003,2.528,1.006,0.078,0.045,-1.001,0.000,2.500,1.000,-1.000,0.029,0.001,1
16.850,4,5,0.009,2.538,1.006,0.071,0.038,-1.001,0.000,2.500,1.000,-1.000,0.039,0.001,1
16.900,4,5,0.014,2.546,1.005,0.064,0.032,-1.001,0.000,2.500,1.000,-1.000,0.049,0.001,1
16.950,4,5,0.019,2.553,1.005,0.057,0.027,-1.001,0.000,2.500,1.000,-1.000,0.057,0.001,1
17.000,4,5,0.023,2.559,1.005,0.050,0.024,-1.000,0.000,2.500,1.000,-1.000,0.063,0.000,1
17.050,4,5,0.026,2.563,1.004,0.045,0.021,-1.000,0.000,2.500,1.000,-1.000,0.068,0.000,1
17.100,4,5,0.028,2.567,1.004,0.040,0.019,-1.000,0.000,2.500,1.000,-1.000,0.072,0.000,1
17.150,4,5,0.030,2.569,1.003,0.035,0.018,-1.000,0.000,2.500,1.000,-1.000,0.075,0.000,1
17.200,4,5,0.031,2.571,1.003,0.031,0.017,-1.000,0.000,2.500,1.000,-1.000,0.077,0.000,1
17.250,4,5,0.032,2.572,1.002,0.028,0.016,-1.000,0.000,2.500,1.000,-1.000,0.078,0.000,1
17.300,4,5,0.033,2.572,1.002,0.025,0.015,-1.000,0.000,2.500,1.000,-1.000,0.079,0.000,1
17.350,4,5,0.033,2.571,1.002,0.022,0.013,-1.000,0.000,2.500,1.000,-1.000,0.078,0.000,1
17.400,4,5,0.033,2.570,1.001,0.019,0.011,-1.000,0.000,2.500,1.000,-1.000,0.078,0.000,1
17.450,4,5,0.032,2.569,1.001,0.016,0.009,-1.000,0.000,2.500,1.000,-1.000,0.076,0.000,1
17.500,4,5,0.032,2.567,1.001,0.014,0.007,-1.000,0.000,2.500,1.000,-1.000,0.074,0.000,1
17.550,4,5,0.031,2.565,1.001,0.011,0.005,-1.000,0.000,2.500,1.000,-1.000,0.072,0.000,1
17.600,4,5,0.030,2.562,1.001,0.009,0.003,-1.000,0.000,2.500,1.000,-1.000,0.069,0.000,1
17.650,4,5,0.029,2.559,1.000,0.007,0.002,-1.000,0.000,2.500,1.000,-1.000,0.066,0.000,1
17.700,4,5,0.028,2.557,1.000,0.005,0.001,-1.000,0.000,2.500,1.000,-1.000,0.063,0.000,1
17.750,4,5,0.027,2.554,1.000,0.003,0.000,-1.000,0.000,2.500,1.000,-1.000,0.060,0.000,1
17.800,4,5,0.026,2.551,1.000,0.002,-0.000,-1.000,0.000,2.500,1.000,-1.000,0.057,0.000,1
17.850,4,5,0.024,2.548,1.000,0.001,-0.001,-1.000,0.000,2.500,1.000,-1.000,0.054,0.000,1
17.900,4,5,0.023,2.545,1.000,-0.000,-0.001,-1.000,0.000,2.500,1.000,-1.000,0.050,0.000,1
17.950,4,5,0.021,2.542,1.000,-0.001,-0.001,-1.000,0.000,2.500,1.000,-1.000,0.047,0.000,1
18.000,4,5,0.020,2.539,1.000,-0.002,-0.002,-1.000,0.000,2.500,1.000,-1.000,0.044,0.000,1
18.050,4,5,0.019,2.536,1.000,-0.002,-0.002,-1.000,0.000,2.500,1.000,-1.000,0.041,0.000,1
18.100,4,5,0.017,2.534,1.000,-0.003,-0.002,-1.000,0.000,2.500,1.000,-1.000,0.038,0.000,1
18.150,4,5,0.016,2.531,1.000,-0.003,-0.002,-1.000,0.000,2.500,1.000,-1.000,0.035,0.000,1
18.200,4,5,0.015,2.528,1.000,-0.004,-0.003,-1.000,0.000,2.500,1.000,-1.000,0.032,0.000,1
18.250,5,6,0.014,2.526,1.000,-0.004,-0.003,-1.000,1.500,-2.500,2.200,-0.500,5.377,0.500,0
18.300,5,6,0.013,2.523,1.000,0.001,0.019,-0.989,1.500,-2.500,2.200,-0.500,5.375,0.489,0
18.350,5,6,0.012,2.520,1.004,0.071,0.208,-0.876,1.500,-2.500,2.200,-0.500,5.371,0.376,0
18.400,5,6,0.015,2.506,1.028,0.248,0.491,-0.691,1.500,-2.500,2.200,-0.500,5.351,0.191,0
18.450,5,6,0.027,2.471,1.067,0.519,0.730,-0.456,1.500,-2.500,2.200,-0.500,5.307,0.044,0
18.500,5,6,0.050,2.410,1.106,0.740,0.875,-0.290,1.500,-2.500,2.200,-0.500,5.235,0.210,0
18.550,5,6,0.087,2.317,1.139,0.732,0.940,-0.330,1.500,-2.500,2.200,-0.500,5.131,0.170,0
18.600,5,6,0.141,2.184,1.170,0.514,0.887,-0.530,1.500,-2.500,2.200,-0.500,4.985,0.030,0
18.650,5,6,0.209,2.020,1.199,0.301,0.692,-0.689,1.500,-2.500,2.200,-0.500,4.806,0.189,0
18.700,5,6,0.286,1.835,1.230,0.216,0.398,-0.706,1.500,-2.500,2.200,-0.500,4.606,0.206,0
18.750,5,6,0.368,1.632,1.280,0.181,0.089,-0.691,1.500,-2.500,2.200,-0.500,4.382,0.191,0
18.800,5,6,0.448,1.420,1.356,0.161,-0.176,-0.655,1.500,-2.500,2.200,-0.500,4.145,0.155,0
18.850,5,6,0.515,1.208,1.454,0.119,-0.346,-0.586,1.500,-2.500,2.200,-0.500,3.909,0.086,0
18.900,5,6,0.567,1.001,1.567,0.048,-0.394,-0.513,1.500,-2.500,2.200,-0.500,3.679,0.013,0
18.950,5,6,0.607,0.801,1.682,-0.028,-0.327,-0.489,1.500,-2.500,2.200,-0.500,3.458,0.011,0
19.000,5,6,0.643,0.605,1.789,-0.093,-0.174,-0.540,1.500,-2.500,2.200,-0.500,3.247,0.040,0
19.050,5,6,0.676,0.412,1.884,-0.148,-0.019,-0.564,1.500,-2.500,2.200,-0.500,3.043,0.064,0
19.100,5,6,0.711,0.223,1.967,-0.184,0.093,-0.537,1.500,-2.500,2.200,-0.500,2.845,0.037,0
19.150,5,6,0.747,0.036,2.034,-0.200,0.147,-0.517,1.500,-2.500,2.200,-0.500,2.651,0.017,0
19.200,5,6,0.785,-0.148,2.086,-0.201,0.147,-0.505,1.500,-2.500,2.200,-0.500,2.461,0.005,0
19.250,5,6,0.825,-0.330,2.122,-0.194,0.107,-0.491,1.500,-2.500,2.200,-0.500,2.274,0.009,0
19.300,5,6,0.866,-0.510,2.142,-0.188,0.041,-0.481,1.500,-2.500,2.200,-0.500,2.089,0.019,0
19.350,5,6,0.909,-0.687,2.149,-0.188,-0.039,-0.477,1.500,-2.500,2.200,-0.500,1.908,0.023,0
19.400,5,6,0.952,-0.860,2.146,-0.200,-0.120,-0.475,1.500,-2.500,2.200,-0.500,1.730,0.025,0
19.450,5,6,0.995,-1.027,2.137,-0.222,-0.193,-0.476,1.500,-2.500,2.200,-0.500,1.559,0.024,0
19.500,5,6,1.036,-1.186,2.128,-0.253,-0.253,-0.478,1.500,-2.500,2.200,-0.500,1.395,0.022,0
19.550,5,6,1.073,-1.335,2.121,-0.287,-0.293,-0.483,1.500,-2.500,2.200,-0.500,1.243,0.017,0
19.600,5,6,1.107,-1.471,2.120,-0.315,-0.312,-0.491,1.500,-2.500,2.200,-0.500,1.104,0.009,0
19.650,5,6,1.137,-1.592,2.125,-0.331,-0.309,-0.501,1.500,-2.500,2.200,-0.500,0.980,0.001,0
19.700,5,6,1.164,-1.699,2.135,-0.331,-0.286,-0.511,1.500,-2.500,2.200,-0.500,0.871,0.011,0
19.750,5,6,1.188,-1.792,2.151,-0.314,-0.247,-0.518,1.500,-2.500,2.200,-0.500,0.775,0.018,0
19.800,5,6,1.211,-1.874,2.168,-0.282,-0.201,-0.521,1.500,-2.500,2.200,-0.500,0.690,0.021,0
19.850,5,6,1.233,-1.947,2.185,-0.242,-0.155,-0.519,1.500,-2.500,2.200,-0.500,0.614,0.019,0
19.900,5,6,1.255,-2.013,2.201,-0.198,-0.116,-0.514,1.500,-2.500,2.200,-0.500,0.545,0.014,0
19.950,5,6,1.276,-2.074,2.212,-0.157,-0.091,-0.508,1.500,-2.500,2.200,-0.500,0.481,0.008,0
20.000,5,6,1.298,-2.131,2.219,-0.124,-0.079,-0.504,1.500,-2.500,2.200,-0.500,0.421,0.004,0
20.050,5,6,1.319,-2.185,2.222,-0.102,-0.080,-0.501,1.500,-2.500,2.200,-0.500,0.364,0.001,0
20.100,5,6,1.339,-2.236,2.221,-0.091,-0.090,-0.499,1.500,-2.500,2.200,-0.500,0.309,0.001,0
20.150,5,6,1.359,-2.285,2.217,-0.091,-0.105,-0.498,1.500,-2.500,2.200,-0.500,0.258,0.002,1
20.200,5,6,1.378,-2.330,2.212,-0.098,-0.121,-0.498,1.500,-2.500,2.200,-0.500,0.210,0.002,1
20.250,5,6,1.395,-2.372,2.207,-0.108,-0.134,-0.498,1.500,-2.500,2.200,-0.500,0.166,0.002,1
20.300,5,6,1.410,-2.409,2.204,-0.117,-0.141,-0.499,1.500,-2.500,2.200,-0.500,0.128,0.001,1
20.350,5,6,1.424,-2.442,2.202,-0.123,-0.141,-0.500,1.500,-2.500,2.200,-0.500,0.096,0.000,1
20.400,5,6,1.436,-2.470,2.201,-0.123,-0.134,-0.501,1.500,-2.500,2.200,-0.500,0.071,0.001,1
20.450,5,6,1.446,-2.494,2.202,-0.116,-0.121,-0.502,1.500,-2.500,2.200,-0.500,0.055,0.002,1
20.500,5,6,1.455,-2.514,2.203,-0.105,-0.104,-0.503,1.500,-2.500,2.200,-0.500,0.047,0.003,1
20.550,5,6,1.463,-2.530,2.205,-0.090,-0.086,-0.503,1.500,-2.500,2.200,-0.500,0.048,0.003,1
20.600,5,6,1.470,-2.543,2.207,-0.073,-0.070,-0.502,1.500,-2.500,2.200,-0.500,0.053,0.002,1
20.650,5,6,1.477,-2.554,2.208,-0.058,-0.056,-0.502,1.500,-2.500,2.200,-0.500,0.059,0.002,1
20.700,5,6,1.483,-2.563,2.208,-0.045,-0.047,-0.501,1.500,-2.500,2.200,-0.500,0.065,0.001,1
20.750,5,6,1.489,-2.570,2.208,-0.035,-0.041,-0.500,1.500,-2.500,2.200,-0.500,0.071,0.000,1
20.800,5,6,1.494,-2.576,2.207,-0.029,-0.039,-0.500,1.500,-2.500,2.200,-0.500,0.077,0.000,1
20.850,5,6,1.498,-2.581,2.207,-0.026,-0.038,-0.500,1.500,-2.500,2.200,-0.500,0.082,0.000,1
20.900,5,6,1.503,-2.585,2.206,-0.025,-0.039,-0.500,1.500,-2.500,2.200,-0.500,0.086,0.000,1
20.950,5,6,1.506,-2.589,2.205,-0.025,-0.039,-0.500,1.500,-2.500,2.200,-0.500,0.089,0.000,1
21.000,5,6,1.509,-2.591,2.204,-0.025,-0.039,-0.500,1.500,-2.500,2.200,-0.500,0.091,0.000,1
21.050,5,6,1.512,-2.592,2.203,-0.025,-0.037,-0.500,1.500,-2.500,2.200,-0.500,0.093,0.000,1
21.100,5,6,1.514,-2.592,2.202,-0.023,-0.034,-0.500,1.500,-2.500,2.200,-0.500,0.093,0.000,1
21.150,5,6,1.515,-2.591,2.202,-0.021,-0.030,-0.500,1.500,-2.500,2.200,-0.500,0.092,0.000,1
21.200,5,6,1.517,-2.590,2.202,-0.018,-0.025,-0.500,1.500,-2.500,2.200,-0.500,0.091,0.000,1
21.250,5,6,1.517,-2.587,2.201,-0.014,-0.020,-0.500,1.500,-2.500,2.200,-0.500,0.089,0.000,1
21.300,5,6,1.518,-2.584,2.201,-0.010,-0.015,-0.500,1.500,-2.500,2.200,-0.500,0.086,0.000,1
21.350,5,6,1.518,-2.581,2.201,-0.006,-0.011,-0.500,1.500,-2.500,2.200,-0.500,0.083,0.000,1
21.400,5,6,1.518,-2.578,2.201,-0.003,-0.008,-0.500,1.500,-2.500,2.200,-0.500,0.080,0.000,1
21.450,5,6,1.518,-2.574,2.201,-0.000,-0.006,-0.500,1.500,-2.500,2.200,-0.500,0.076,0.000,1
21.500,5,6,1.518,-2.570,2.200,0.001,-0.004,-0.500,1.500,-2.500,2.200,-0.500,0.073,0.000,1
21.550,5,6,1.518,-2.567,2.200,0.002,-0.003,-0.500,1.500,-2.500,2.200,-0.500,0.069,0.000,1
21.600,5,6,1.518,-2.563,2.200,0.003,-0.003,-0.500,1.500,-2.500,2.200,-0.500,0.065,0.000,1
21.650,5,6,1.517,-2.559,2.200,0.003,-0.003,-0.500,1.500,-2.500,2.200,-0.500,0.062,0.000,1
21.700,5,6,1.517,-2.556,2.200,0.003,-0.002,-0.500,1.500,-2.500,2.200,-0.500,0.058,0.000,1
21.750,5,6,1.516,-2.552,2.200,0.003,-0.002,-0.500,1.500,-2.500,2.200,-0.500,0.054,0.000,1
21.800,5,6,1.516,-2.548,2.200,0.003,-0.001,-0.500,1.500,-2.500,2.200,-0.500,0.051,0.000,1
21.850,5,6,1.515,-2.545,2.200,0.003,-0.000,-0.500,1.500,-2.500,2.200,-0.500,0.047,0.000,1
21.900,5,6,1.514,-2.541,2.200,0.004,0.001,-0.500,1.500,-2.500,2.200,-0.500,0.044,0.000,1
21.950,5,6,1.513,-2.538,2.200,0.004,0.002,-0.500,1.500,-2.500,2.200,-0.500,0.040,0.000,1
22.000,5,6,1.513,-2.535,2.200,0.005,0.003,-0.500,1.500,-2.500,2.200,-0.500,0.037,0.000,1
22.050,5,6,1.512,-2.532,2.200,0.005,0.003,-0.500,1.500,-2.500,2.200,-0.500,0.034,0.000,1
22.100,5,6,1.511,-2.529,2.200,0.005,0.004,-0.500,1.500,-2.500,2.200,-0.500,0.031,0.000,1
22.150,5,6,1.510,-2.526,2.200,0.006,0.004,-0.500,1.500,-2.500,2.200,-0.500,0.028,0.000,1
22.200,6,7,1.509,-2.523,2.200,0.006,0.004,-0.500,-1.500,2.000,1.400,0.800,5.491,1.300,0
22.250,6,7,1.509,-2.521,2.200,-0.028,-0.047,-0.466,-1.500,2.000,1.400,0.800,5.489,1.266,0
22.300,6,7,1.507,-2.517,2.200,-0.236,-0.239,-0.272,-1.500,2.000,1.400,0.800,5.485,1.072,0
22.350,6,7,1.501,-2.505,2.201,-0.656,-0.361,0.142,-1.500,2.000,1.400,0.800,5.472,0.658,0
22.400,6,7,1.487,-2.481,2.194,-1.090,-0.246,0.578,-1.500,2.000,1.400,0.800,5.443,0.222,0
22.450,6,7,1.458,-2.439,2.174,-1.331,-0.085,0.801,-1.500,2.000,1.400,0.800,5.390,0.001,0
22.500,6,7,1.409,-2.379,2.136,-1.417,-0.011,0.860,-1.500,2.000,1.400,0.800,5.309,0.060,0
22.550,6,7,1.338,-2.300,2.079,-1.384,-0.040,0.815,-1.500,2.000,1.400,0.800,5.196,0.015,0
22.600,6,7,1.233,-2.189,2.007,-1.240,-0.076,0.727,-1.500,2.000,1.400,0.800,5.038,0.073,0
22.650,6,7,1.099,-2.048,1.925,-1.000,-0.057,0.630,-1.500,2.000,1.400,0.800,4.839,0.170,0
22.700,6,7,0.947,-1.883,1.841,-0.706,0.057,0.571,-1.500,2.000,1.400,0.800,4.611,0.229,0
22.750,6,7,0.784,-1.697,1.763,-0.400,0.230,0.601,-1.500,2.000,1.400,0.800,4.361,0.199,0
22.800,6,7,0.621,-1.496,1.700,-0.100,0.370,0.709,-1.500,2.000,1.400,0.800,4.100,0.091,0
22.850,6,7,0.467,-1.286,1.643,0.139,0.414,0.786,-1.500,2.000,1.400,0.800,3.838,0.014,0
22.900,6,7,0.326,-1.073,1.589,0.279,0.373,0.788,-1.500,2.000,1.400,0.800,3.580,0.012,0
22.950,6,7,0.198,-0.861,1.534,0.336,0.272,0.755,-1.500,2.000,1.400,0.800,3.330,0.045,0
23.000,6,7,0.083,-0.653,1.480,0.341,0.131,0.728,-1.500,2.000,1.400,0.800,3.090,0.072,0
23.050,6,7,-0.021,-0.452,1.432,0.317,-0.022,0.720,-1.500,2.000,1.400,0.800,2.863,0.080,0
23.100,6,7,-0.117,-0.261,1.394,0.279,-0.156,0.731,-1.500,2.000,1.400,0.800,2.650,0.069,0
23.150,6,7,-0.209,-0.083,1.367,0.237,-0.249,0.755,-1.500,2.000,1.400,0.800,2.451,0.045,0
23.200,6,7,-0.301,0.082,1.351,0.204,-0.287,0.782,-1.500,2.000,1.400,0.800,2.263,0.018,0
23.250,6,7,-0.393,0.234,1.340,0.188,-0.271,0.803,-1.500,2.000,1.400,0.800,2.085,0.003,0
23.300,6,7,-0.485,0.376,1.333,0.193,-0.217,0.816,-1.500,2.000,1.400,0.800,1.916,0.016,0
23.350,6,7,-0.577,0.510,1.328,0.213,-0.141,0.825,-1.500,2.000,1.400,0.800,1.755,0.025,0
23.400,6,7,-0.666,0.636,1.324,0.244,-0.064,0.828,-1.500,2.000,1.400,0.800,1.601,0.028,0
23.450,6,7,-0.751,0.755,1.322,0.277,-0.001,0.827,-1.500,2.000,1.400,0.800,1.455,0.027,0
23.500,6,7,-0.829,0.868,1.323,0.306,0.037,0.819,-1.500,2.000,1.400,0.800,1.318,0.019,0
23.550,6,7,-0.900,0.976,1.327,0.325,0.049,0.808,-1.500,2.000,1.400,0.800,1.189,0.008,0
23.600,6,7,-0.963,1.078,1.333,0.332,0.037,0.795,-1.500,2.000,1.400,0.800,1.069,0.005,0
23.650,6,7,-1.019,1.174,1.340,0.326,0.005,0.785,-1.500,2.000,1.400,0.800,0.958,0.015,0
23.700,6,7,-1.068,1.263,1.349,0.309,-0.035,0.780,-1.500,2.000,1.400,0.800,0.855,0.020,0
23.750,6,7,-1.112,1.346,1.358,0.285,-0.074,0.780,-1.500,2.000,1.400,0.800,0.762,0.020,0
23.800,6,7,-1.152,1.422,1.368,0.257,-0.106,0.785,-1.500,2.000,1.400,0.800,0.676,0.015,0
23.850,6,7,-1.188,1.491,1.379,0.229,-0.123,0.791,-1.500,2.000,1.400,0.800,0.597,0.009,0
23.900,6,7,-1.223,1.554,1.388,0.204,-0.125,0.798,-1.500,2.000,1.400,0.800,0.525,0.002,0
23.950,6,7,-1.256,1.611,1.396,0.185,-0.115,0.802,-1.500,2.000,1.400,0.800,0.459,0.002,0
24.000,6,7,-1.287,1.664,1.402,0.171,-0.095,0.805,-1.500,2.000,1.400,0.800,0.398,0.005,0
24.050,6,7,-1.317,1.712,1.406,0.163,-0.072,0.806,-1.500,2.000,1.400,0.800,0.341,0.006,0
24.100,6,7,-1.346,1.756,1.408,0.160,-0.050,0.806,-1.500,2.000,1.400,0.800,0.289,0.006,1
24.150,6,7,-1.372,1.796,1.409,0.160,-0.032,0.805,-1.500,2.000,1.400,0.800,0.241,0.005,1
24.200,6,7,-1.396,1.834,1.409,0.160,-0.021,0.803,-1.500,2.000,1.400,0.800,0.196,0.003,1
24.250,6,7,-1.418,1.868,1.408,0.160,-0.016,0.802,-1.500,2.000,1.400,0.800,0.156,0.002,1
24.300,6,7,-1.437,1.899,1.408,0.157,-0.017,0.800,-1.500,2.000,1.400,0.800,0.119,0.000,1
24.350,6,7,-1.454,1.927,1.407,0.151,-0.021,0.799,-1.500,2.000,1.400,0.800,0.087,0.001,1
24.400,6,7,-1.468,1.952,1.407,0.142,-0.028,0.798,-1.500,2.000,1.400,0.800,0.058,0.002,1
24.450,6,7,-1.480,1.974,1.407,0.131,-0.034,0.798,-1.500,2.000,1.400,0.800,0.034,0.002,1
24.500,6,7,-1.490,1.993,1.407,0.118,-0.039,0.799,-1.500,2.000,1.400,0.800,0.014,0.001,1
24.550,6,7,-1.499,2.009,1.407,0.105,-0.040,0.799,-1.500,2.000,1.400,0.800,0.012,0.001,1
24.600,6,7,-1.507,2.023,1.407,0.092,-0.039,0.800,-1.500,2.000,1.400,0.800,0.025,0.000,1
24.650,6,7,-1.514,2.035,1.407,0.081,-0.035,0.800,-1.500,2.000,1.400,0.800,0.038,0.000,1
24.700,6,7,-1.520,2.045,1.407,0.071,-0.029,0.801,-1.500,2.000,1.400,0.800,0.049,0.001,1
24.750,6,7,-1.525,2.052,1.407,0.064,-0.023,0.801,-1.500,2.000,1.400,0.800,0.059,0.001,1
24.800,6,7,-1.530,2.059,1.406,0.058,-0.017,0.801,-1.500,2.000,1.400,0.800,0.066,0.001,1
24.850,6,7,-1.533,2.064,1.405,0.053,-0.012,0.800,-1.500,2.000,1.400,0.800,0.072,0.000,1
24.900,6,7,-1.536,2.068,1.405,0.049,-0.009,0.800,-1.500,2.000,1.400,0.800,0.077,0.000,1
24.950,6,7,-1.539,2.071,1.404,0.045,-0.007,0.800,-1.500,2.000,1.400,0.800,0.081,0.000,1
25.000,6,7,-1.540,2.073,1.403,0.042,-0.006,0.800,-1.500,2.000,1.400,0.800,0.084,0.000,1
25.050,6,7,-1.541,2.075,1.403,0.038,-0.006,0.800,-1.500,2.000,1.400,0.800,0.085,0.000,1
25.100,6,7,-1.542,2.075,1.402,0.034,-0.006,0.800,-1.500,2.000,1.400,0.800,0.086,0.000,1
25.150,6,7,-1.542,2.075,1.402,0.029,-0.007,0.800,-1.500,2.000,1.400,0.800,0.086,0.000,1
25.200,6,7,-1.541,2.074,1.402,0.025,-0.007,0.800,-1.500,2.000,1.400,0.800,0.085,0.000,1
25.250,6,7,-1.541,2.073,1.401,0.020,-0.007,0.800,-1.500,2.000,1.400,0.800,0.084,0.000,1
25.300,6,7,-1.540,2.071,1.401,0.016,-0.007,0.800,-1.500,2.000,1.400,0.800,0.081,0.000,1
25.350,6,7,-1.538,2.069,1.401,0.013,-0.005,0.800,-1.500,2.000,1.400,0.800,0.079,0.000,1
25.400,6,7,-1.537,2.066,1.401,0.010,-0.004,0.800,-1.500,2.000,1.400,0.800,0.076,0.000,1
25.450,6,7,-1.536,2.064,1.401,0.007,-0.003,0.800,-1.500,2.000,1.400,0.800,0.073,0.000,1
25.500,6,7,-1.534,2.061,1.400,0.005,-0.001,0.800,-1.500,2.000,1.400,0.800,0.070,0.000,1
25.550,6,7,-1.533,2.058,1.400,0.003,-0.000,0.800,-1.500,2.000,1.400,0.800,0.067,0.000,1
25.600,6,7,-1.531,2.055,1.400,0.002,0.001,0.800,-1.500,2.000,1.400,0.800,0.063,0.000,1
25.650,6,7,-1.530,2.052,1.400,0.001,0.001,0.800,-1.500,2.000,1.400,0.800,0.060,0.000,1
25.700,6,7,-1.528,2.049,1.400,0.000,0.001,0.800,-1.500,2.000,1.400,0.800,0.056,0.000,1
25.750,6,7,-1.526,2.046,1.400,-0.001,0.001,0.800,-1.500,2.000,1.400,0.800,0.053,0.000,1
25.800,6,7,-1.525,2.042,1.400,-0.002,0.001,0.800,-1.500,2.000,1.400,0.800,0.049,0.000,1
25.850,6,7,-1.523,2.040,1.400,-0.003,0.001,0.800,-1.500,2.000,1.400,0.800,0.046,0.000,1
25.900,6,7,-1.521,2.037,1.400,-0.003,0.001,0.800,-1.500,2.000,1.400,0.800,0.042,0.000,1
25.950,6,7,-1.520,2.034,1.400,-0.004,0.001,0.800,-1.500,2.000,1.400,0.800,0.039,0.000,1
26.000,6,7,-1.518,2.031,1.400,-0.005,0.001,0.800,-1.500,2.000,1.400,0.800,0.036,0.000,1
26.050,6,7,-1.516,2.028,1.400,-0.005,0.001,0.800,-1.500,2.000,1.400,0.800,0.033,0.000,1
26.100,6,7,-1.515,2.026,1.400,-0.006,0.001,0.800,-1.500,2.000,1.400,0.800,0.030,0.000,1
26.150,7,8,-1.514,2.023,1.400,-0.006,0.002,0.800,2.500,0.000,1.900,0.200,4.523,0.600,0
26.200,7,8,-1.512,2.021,1.400,0.013,0.009,0.789,2.500,0.000,1.900,0.200,4.520,0.589,0
26.250,7,8,-1.510,2.019,1.404,0.180,0.123,0.675,2.500,0.000,1.900,0.200,4.517,0.475,0
26.300,7,8,-1.499,2.013,1.419,0.448,0.349,0.538,2.500,0.000,1.900,0.200,4.503,0.338,0
26.350,7,8,-1.467,1.998,1.447,0.732,0.583,0.507,2.500,0.000,1.900,0.200,4.464,0.307,0
26.400,7,8,-1.400,1.964,1.482,0.912,0.779,0.501,2.500,0.000,1.900,0.200,4.387,0.301,0
26.450,7,8,-1.297,1.905,1.514,0.868,0.926,0.407,2.500,0.000,1.900,0.200,4.266,0.207,0
26.500,7,8,-1.158,1.825,1.541,0.525,0.966,0.146,2.500,0.000,1.900,0.200,4.104,0.054,0
26.550,7,8,-0.996,1.733,1.557,0.187,0.809,-0.012,2.500,0.000,1.900,0.200,3.917,0.212,0
26.600,7,8,-0.817,1.636,1.567,0.050,0.521,0.067,2.500,0.000,1.900,0.200,3.713,0.133,0
26.650,7,8,-0.621,1.539,1.585,-0.019,0.196,0.185,2.500,0.000,1.900,0.200,3.494,0.015,0
26.700,7,8,-0.420,1.444,1.610,-0.080,-0.095,0.221,2.500,0.000,1.900,0.200,3.271,0.021,0
26.750,7,8,-0.224,1.351,1.641,-0.126,-0.309,0.222,2.500,0.000,1.900,0.200,3.052,0.022,0
26.800,7,8,-0.039,1.261,1.675,-0.158,-0.427,0.224,2.500,0.000,1.900,0.200,2.844,0.024,0
26.850,7,8,0.133,1.173,1.709,-0.169,-0.455,0.210,2.500,0.000,1.900,0.200,2.648,0.010,0
26.900,7,8,0.293,1.087,1.740,-0.165,-0.411,0.190,2.500,0.000,1.900,0.200,2.465,0.010,0
26.950,7,8,0.442,1.004,1.768,-0.159,-0.323,0.177,2.500,0.000,1.900,0.200,2.293,0.023,0
27.000,7,8,0.582,0.923,1.793,-0.157,-0.220,0.174,2.500,0.000,1.900,0.200,2.131,0.026,0
27.050,7,8,0.716,0.845,1.816,-0.158,-0.127,0.175,2.500,0.000,1.900,0.200,1.976,0.025,0
27.100,7,8,0.846,0.771,1.834,-0.162,-0.061,0.181,2.500,0.000,1.900,0.200,1.826,0.019,0
27.150,7,8,0.973,0.700,1.848,-0.166,-0.031,0.190,2.500,0.000,1.900,0.200,1.680,0.010,0
27.200,7,8,1.099,0.632,1.856,-0.171,-0.034,0.199,2.500,0.000,1.900,0.200,1.538,0.001,0
27.250,7,8,1.222,0.567,1.858,-0.177,-0.063,0.207,2.500,0.000,1.900,0.200,1.398,0.007,0
27.300,7,8,1.343,0.506,1.855,-0.182,-0.111,0.213,2.500,0.000,1.900,0.200,1.263,0.013,0
27.350,7,8,1.460,0.448,1.850,-0.189,-0.167,0.216,2.500,0.000,1.900,0.200,1.134,0.016,0
27.400,7,8,1.571,0.395,1.846,-0.195,-0.219,0.216,2.500,0.000,1.900,0.200,1.011,0.016,0
27.450,7,8,1.675,0.346,1.844,-0.200,-0.262,0.214,2.500,0.000,1.900,0.200,0.896,0.014,0
27.500,7,8,1.769,0.301,1.846,-0.201,-0.287,0.209,2.500,0.000,1.900,0.200,0.792,0.009,0
27.550,7,8,1.854,0.260,1.852,-0.198,-0.292,0.203,2.500,0.000,1.900,0.200,0.698,0.003,0
27.600,7,8,1.929,0.224,1.862,-0.190,-0.278,0.197,2.500,0.000,1.900,0.200,0.614,0.003,0
27.650,7,8,1.996,0.191,1.873,-0.177,-0.249,0.192,2.500,0.000,1.900,0.200,0.540,0.008,0
27.700,7,8,2.055,0.162,1.885,-0.161,-0.210,0.190,2.500,0.000,1.900,0.200,0.473,0.010,0
27.750,7,8,2.109,0.135,1.895,-0.144,-0.169,0.190,2.500,0.000,1.900,0.200,0.414,0.010,0
27.800,7,8,2.158,0.112,1.905,-0.127,-0.133,0.192,2.500,0.000,1.900,0.200,0.360,0.008,0
27.850,7,8,2.203,0.090,1.911,-0.112,-0.105,0.194,2.500,0.000,1.900,0.200,0.311,0.006,0
27.900,7,8,2.245,0.070,1.915,-0.100,-0.089,0.197,2.500,0.000,1.900,0.200,0.265,0.003,1
27.950,7,8,2.285,0.053,1.916,-0.092,-0.084,0.199,2.500,0.000,1.900,0.200,0.222,0.001,1
28.000,7,8,2.323,0.037,1.915,-0.087,-0.087,0.200,2.500,0.000,1.900,0.200,0.181,0.000,1
28.050,7,8,2.358,0.022,1.913,-0.084,-0.095,0.201,2.500,0.000,1.900,0.200,0.144,0.001,1
28.100,7,8,2.391,0.009,1.910,-0.083,-0.105,0.201,2.500,0.000,1.900,0.200,0.110,0.001,1
28.150,7,8,2.420,-0.002,1.908,-0.082,-0.113,0.201,2.500,0.000,1.900,0.200,0.080,0.001,1
28.200,7,8,2.447,-0.012,1.906,-0.081,-0.118,0.201,2.500,0.000,1.900,0.200,0.055,0.001,1
28.250,7,8,2.470,-0.020,1.905,-0.078,-0.117,0.200,2.500,0.000,1.900,0.200,0.037,0.000,1
28.300,7,8,2.489,-0.027,1.904,-0.073,-0.111,0.199,2.500,0.000,1.900,0.200,0.030,0.001,1
28.350,7,8,2.506,-0.033,1.905,-0.067,-0.100,0.199,2.500,0.000,1.900,0.200,0.034,0.001,1
28.400,7,8,2.519,-0.038,1.905,-0.060,-0.087,0.199,2.500,0.000,1.900,0.200,0.043,0.001,1
28.450,7,8,2.531,-0.042,1.905,-0.052,-0.073,0.199,2.500,0.000,1.900,0.200,0.052,0.001,1
28.500,7,8,2.540,-0.044,1.906,-0.045,-0.060,0.199,2.500,0.000,1.900,0.200,0.060,0.001,1
28.550,7,8,2.548,-0.046,1.906,-0.038,-0.049,0.199,2.500,0.000,1.900,0.200,0.067,0.001,1
28.600,7,8,2.554,-0.048,1.906,-0.032,-0.040,0.199,2.500,0.000,1.900,0.200,0.072,0.001,1
28.650,7,8,2.559,-0.048,1.905,-0.027,-0.035,0.200,2.500,0.000,1.900,0.200,0.077,0.000,1
28.700,7,8,2.563,-0.049,1.905,-0.023,-0.031,0.200,2.500,0.000,1.900,0.200,0.080,0.000,1
28.750,7,8,2.567,-0.048,1.904,-0.020,-0.030,0.200,2.500,0.000,1.900,0.200,0.083,0.000,1
28.800,7,8,2.569,-0.048,1.903,-0.018,-0.029,0.200,2.500,0.000,1.900,0.200,0.084,0.000,1
28.850,7,8,2.571,-0.047,1.903,-0.017,-0.029,0.200,2.500,0.000,1.900,0.200,0.085,0.000,1
28.900,7,8,2.572,-0.046,1.902,-0.015,-0.028,0.200,2.500,0.000,1.900,0.200,0.086,0.000,1
28.950,7,8,2.572,-0.045,1.902,-0.014,-0.026,0.200,2.500,0.000,1.900,0.200,0.085,0.000,1
29.000,7,8,2.572,-0.043,1.901,-0.012,-0.024,0.200,2.500,0.000,1.900,0.200,0.084,0.000,1
29.050,7,8,2.571,-0.042,1.901,-0.010,-0.020,0.200,2.500,0.000,1.900,0.200,0.082,0.000,1
29.100,7,8,2.569,-0.040,1.901,-0.008,-0.017,0.200,2.500,0.000,1.900,0.200,0.080,0.000,1
29.150,7,8,2.567,-0.038,1.901,-0.006,-0.013,0.200,2.500,0.000,1.900,0.200,0.077,0.000,1
29.200,7,8,2.565,-0.036,1.901,-0.004,-0.009,0.200,2.500,0.000,1.900,0.200,0.074,0.000,1
29.250,7,8,2.562,-0.034,1.900,-0.002,-0.006,0.200,2.500,0.000,1.900,0.200,0.071,0.000,1
29.300,7,8,2.559,-0.032,1.900,-0.001,-0.004,0.200,2.500,0.000,1.900,0.200,0.067,0.000,1
29.350,7,8,2.556,-0.030,1.900,0.001,-0.002,0.200,2.500,0.000,1.900,0.200,0.064,0.000,1
29.400,7,8,2.553,-0.028,1.900,0.002,-0.001,0.200,2.500,0.000,1.900,0.200,0.060,0.000,1
29.450,7,8,2.551,-0.026,1.900,0.002,-0.000,0.200,2.500,0.000,1.900,0.200,0.057,0.000,1
29.500,7,8,2.548,-0.024,1.900,0.003,0.000,0.200,2.500,0.000,1.900,0.200,0.053,0.000,1
29.550,7,8,2.545,-0.022,1.900,0.003,0.001,0.200,2.500,0.000,1.900,0.200,0.050,0.000,1
29.600,7,8,2.542,-0.020,1.900,0.003,0.001,0.200,2.500,0.000,1.900,0.200,0.047,0.000,1
29.650,7,8,2.539,-0.019,1.900,0.003,0.001,0.200,2.500,0.000,1.900,0.200,0.043,0.000,1
29.700,7,8,2.536,-0.017,1.900,0.003,0.002,0.200,2.500,0.000,1.900,0.200,0.040,0.000,1
29.750,7,8,2.533,-0.016,1.900,0.004,0.002,0.200,2.500,0.000,1.900,0.200,0.037,0.000,1
29.800,7,8,2.531,-0.014,1.900,0.004,0.003,0.200,2.500,0.000,1.900,0.200,0.034,0.000,1
29.850,7,8,2.528,-0.013,1.900,0.004,0.003,0.200,2.500,0.000,1.900,0.200,0.031,0.000,1
29.900,8,9,2.526,-0.011,1.900,0.004,0.004,0.200,-2.500,0.000,2.100,-0.800,5.030,1.000,0
29.950,8,9,2.523,-0.010,1.901,-0.003,-0.050,0.167,-2.500,0.000,2.100,-0.800,5.027,0.967,0
