time, drone_x, drone_y, drone_z, drone_roll, drone_pitch, drone_yaw, target_x, target_y, target_z, target_direction, distance_to_target, aiming_error, m1_power, m2_power, m3_power, m4_power, cumulative_energy
0.000, 0.000, -0.000, 2.000, -0.000, -0.000, 0.000, 0.000, 0.000, 2.000, 0.785, 0.000, 0.785, 0.457800, 0.457800, 0.457800, 0.457800, 0.000000
0.050, -0.000, -0.000, 2.000, 0.002, -0.002, 0.027, 0.025, 0.025, 2.004, 0.785, 0.036, 0.758, 0.011452, 1.000000, 0.000000, 0.996893, 0.241621
0.100, -0.000, -0.000, 2.003, 0.012, -0.018, 0.194, 0.050, 0.050, 2.008, 0.785, 0.071, 0.591, 0.007395, 1.000000, 0.000000, 0.994606, 0.440691
0.150, -0.001, -0.001, 2.007, 0.017, -0.048, 0.505, 0.075, 0.075, 2.012, 0.785, 0.107, 0.280, 0.693550, 0.049347, 0.693728, 0.042331, 0.646962
0.200, -0.002, -0.002, 2.008, 0.015, -0.080, 0.795, 0.100, 0.100, 2.017, 0.784, 0.144, 0.009, 0.993924, 0.001686, 1.000000, 0.000000, 0.845966
0.250, -0.004, -0.005, 2.012, 0.014, -0.102, 0.935, 0.125, 0.125, 2.021, 0.784, 0.183, 0.146, 0.990671, 0.000000, 1.000000, 0.000000, 1.143426
0.300, -0.008, -0.011, 2.017, 0.019, -0.111, 0.922, 0.150, 0.150, 2.025, 0.783, 0.225, 0.129, 0.988889, 0.000000, 1.000000, 0.003353, 1.341274
0.350, -0.013, -0.019, 2.022, 0.026, -0.103, 0.823, 0.175, 0.175, 2.029, 0.782, 0.270, 0.023, 0.110833, 0.735763, 0.120710, 0.739421, 1.482605
0.400, -0.019, -0.029, 2.026, 0.019, -0.081, 0.792, 0.200, 0.200, 2.033, 0.782, 0.316, 0.014, 0.234472, 0.619245, 0.242331, 0.622131, 1.582973
0.450, -0.026, -0.040, 2.028, 0.005, -0.051, 0.804, 0.225, 0.224, 2.037, 0.781, 0.365, 0.008, 0.482581, 0.389607, 0.485150, 0.391757, 1.697387
0.500, -0.034, -0.053, 2.029, -0.011, -0.015, 0.809, 0.250, 0.249, 2.042, 0.780, 0.414, 0.007, 0.462991, 0.427965, 0.462426, 0.429673, 1.776620
0.550, -0.042, -0.066, 2.030, -0.023, 0.021, 0.811, 0.275, 0.273, 2.046, 0.778, 0.464, 0.008, 0.452735, 0.469341, 0.448158, 0.469426, 1.901406
0.600, -0.051, -0.078, 2.030, -0.030, 0.053, 0.815, 0.300, 0.298, 2.050, 0.777, 0.514, 0.006, 0.471875, 0.468073, 0.465937, 0.467425, 1.989020
0.650, -0.059, -0.088, 2.032, -0.032, 0.078, 0.818, 0.325, 0.323, 2.054, 0.776, 0.562, 0.002, 0.485308, 0.469537, 0.478442, 0.467511, 2.123940
0.700, -0.066, -0.097, 2.034, -0.029, 0.094, 0.819, 0.349, 0.347, 2.058, 0.774, 0.608, 0.001, 0.484900, 0.473781, 0.478687, 0.471411, 2.215754
0.750, -0.072, -0.103, 2.037, -0.023, 0.101, 0.819, 0.374, 0.371, 2.062, 0.773, 0.651, 0.003, 0.480844, 0.471453, 0.476171, 0.468611, 2.351816
0.800, -0.077, -0.107, 2.041, -0.015, 0.101, 0.818, 0.399, 0.395, 2.067, 0.771, 0.692, 0.005, 0.477419, 0.469420, 0.474476, 0.466943, 2.442172
0.850, -0.080, -0.109, 2.046, -0.007, 0.095, 0.815, 0.424, 0.419, 2.071, 0.769, 0.730, 0.007, 0.468490, 0.463792, 0.467699, 0.461758, 2.573673
0.900, -0.082, -0.109, 2.051, 0.000, 0.087, 0.812, 0.448, 0.443, 2.075, 0.767, 0.766, 0.007, 0.463715, 0.461591, 0.464412, 0.460311, 2.660474
0.950, -0.082, -0.107, 2.056, 0.005, 0.078, 0.809, 0.473, 0.467, 2.079, 0.765, 0.799, 0.006, 0.454092, 0.458508, 0.455876, 0.457878, 2.786825
1.000, -0.081, -0.104, 2.061, 0.008, 0.071, 0.805, 0.498, 0.491, 2.083, 0.763, 0.830, 0.006, 0.453966, 0.455043, 0.456301, 0.455075, 2.870668
1.050, -0.079, -0.100, 2.066, 0.008, 0.066, 0.802, 0.522, 0.514, 2.087, 0.760, 0.860, 0.005, 0.450012, 0.454189, 0.452000, 0.454501, 2.994226
1.100, -0.075, -0.095, 2.071, 0.006, 0.064, 0.799, 0.547, 0.538, 2.092, 0.758, 0.888, 0.005, 0.452226, 0.453403, 0.453994, 0.454052, 3.077198
1.150, -0.070, -0.089, 2.075, 0.004, 0.064, 0.797, 0.572, 0.561, 2.096, 0.755, 0.914, 0.005, 0.453466, 0.454514, 0.454150, 0.454964, 3.201086
1.200, -0.064, -0.082, 2.080, 0.001, 0.066, 0.794, 0.596, 0.584, 2.100, 0.753, 0.938, 0.004, 0.455746, 0.456183, 0.455965, 0.456674, 3.284932
1.250, -0.057, -0.074, 2.084, -0.002, 0.068, 0.792, 0.620, 0.607, 2.104, 0.750, 0.961, 0.004, 0.456589, 0.458535, 0.455800, 0.458527, 3.410545
1.300, -0.049, -0.064, 2.088, -0.004, 0.070, 0.790, 0.645, 0.630, 2.108, 0.747, 0.982, 0.004, 0.459103, 0.459304, 0.458113, 0.459247, 3.495461
1.350, -0.039, -0.054, 2.092, -0.004, 0.071, 0.788, 0.669, 0.652, 2.112, 0.744, 1.001, 0.004, 0.459110, 0.459344, 0.457692, 0.458834, 3.622079
1.400, -0.029, -0.042, 2.097, -0.004, 0.070, 0.785, 0.694, 0.675, 2.116, 0.741, 1.018, 0.004, 0.460480, 0.459392, 0.459312, 0.458972, 3.707321
1.450, -0.017, -0.028, 2.101, -0.003, 0.067, 0.783, 0.718, 0.697, 2.121, 0.737, 1.033, 0.004, 0.457652, 0.458505, 0.456568, 0.457835, 3.833526
1.500, -0.004, -0.014, 2.106, -0.002, 0.063, 0.781, 0.742, 0.719, 2.125, 0.734, 1.046, 0.005, 0.458409, 0.457621, 0.457793, 0.457161, 3.918129
1.550, 0.010, 0.002, 2.110, -0.000, 0.058, 0.779, 0.766, 0.741, 2.129, 0.730, 1.058, 0.005, 0.455736, 0.456255, 0.455399, 0.455766, 4.043285
1.600, 0.025, 0.018, 2.114, 0.001, 0.053, 0.776, 0.791, 0.763, 2.133, 0.726, 1.068, 0.005, 0.456550, 0.456060, 0.456681, 0.455884, 4.127305
1.650, 0.040, 0.036, 2.119, 0.002, 0.047, 0.774, 0.815, 0.784, 2.137, 0.723, 1.077, 0.005, 0.454355, 0.455386, 0.454609, 0.455233, 4.251777
1.700, 0.057, 0.054, 2.123, 0.002, 0.042, 0.771, 0.839, 0.805, 2.141, 0.718, 1.084, 0.005, 0.456261, 0.455127, 0.456816, 0.455268, 4.335564
1.750, 0.074, 0.073, 2.127, 0.003, 0.037, 0.768, 0.863, 0.826, 2.145, 0.714, 1.091, 0.005, 0.454041, 0.455753, 0.454421, 0.455816, 4.460014
1.800, 0.093, 0.092, 2.131, 0.002, 0.034, 0.765, 0.887, 0.847, 2.149, 0.710, 1.096, 0.005, 0.456206, 0.456104, 0.456712, 0.456378, 4.543909
1.850, 0.111, 0.112, 2.135, 0.002, 0.031, 0.762, 0.911, 0.868, 2.154, 0.705, 1.100, 0.005, 0.454677, 0.456653, 0.454796, 0.456708, 4.668664
1.900, 0.130, 0.133, 2.138, 0.001, 0.029, 0.760, 0.934, 0.888, 2.158, 0.701, 1.103, 0.006, 0.458812, 0.455676, 0.459013, 0.455896, 4.752855
1.950, 0.150, 0.154, 2.142, 0.001, 0.027, 0.757, 0.958, 0.908, 2.162, 0.696, 1.105, 0.006, 0.456104, 0.457405, 0.455944, 0.457377, 4.878171
2.000, 0.170, 0.175, 2.146, 0.001, 0.025, 0.754, 0.982, 0.928, 2.166, 0.691, 1.107, 0.006, 0.457386, 0.458337, 0.457302, 0.458413, 4.962580
2.050, 0.191, 0.196, 2.150, 0.001, 0.023, 0.751, 1.005, 0.947, 2.170, 0.685, 1.108, 0.006, 0.455820, 0.458270, 0.455464, 0.458094, 5.088040
2.100, 0.212, 0.218, 2.153, 0.001, 0.021, 0.748, 1.029, 0.966, 2.174, 0.680, 1.108, 0.006, 0.460208, 0.456444, 0.460058, 0.456440, 5.172572
2.150, 0.233, 0.241, 2.157, 0.001, 0.019, 0.745, 1.052, 0.985, 2.178, 0.674, 1.107, 0.007, 0.456718, 0.457751, 0.456436, 0.457570, 5.298157
2.200, 0.255, 0.263, 2.161, 0.001, 0.016, 0.741, 1.076, 1.004, 2.182, 0.669, 1.106, 0.007, 0.458266, 0.458145, 0.458217, 0.458142, 5.382682
2.250, 0.277, 0.286, 2.165, 0.001, 0.014, 0.738, 1.099, 1.023, 2.186, 0.663, 1.104, 0.007, 0.456442, 0.457605, 0.456299, 0.457460, 5.508163
2.300, 0.299, 0.309, 2.169, 0.002, 0.011, 0.734, 1.122, 1.041, 2.190, 0.657, 1.101, 0.007, 0.459942, 0.456324, 0.460049, 0.456384, 5.592633
2.350, 0.321, 0.332, 2.173, 0.002, 0.009, 0.731, 1.145, 1.058, 2.195, 0.650, 1.099, 0.008, 0.456164, 0.457763, 0.456153, 0.457692, 5.718089
2.400, 0.344, 0.355, 2.177, 0.002, 0.007, 0.726, 1.168, 1.076, 2.199, 0.644, 1.095, 0.008, 0.458022, 0.457905, 0.458201, 0.458006, 5.802518
2.450, 0.367, 0.378, 2.181, 0.002, 0.005, 0.722, 1.191, 1.093, 2.203, 0.637, 1.092, 0.008, 0.454833, 0.458754, 0.454813, 0.458682, 5.927875
2.500, 0.389, 0.401, 2.184, 0.002, 0.004, 0.718, 1.214, 1.110, 2.207, 0.630, 1.088, 0.008, 0.458549, 0.457229, 0.458684, 0.457311, 6.012251
2.550, 0.412, 0.424, 2.188, 0.002, 0.002, 0.714, 1.237, 1.127, 2.211, 0.623, 1.084, 0.009, 0.456398, 0.457453, 0.456329, 0.457372, 6.137628
2.600, 0.435, 0.447, 2.192, 0.002, 0.001, 0.710, 1.260, 1.143, 2.215, 0.615, 1.079, 0.009, 0.458432, 0.457533, 0.458502, 0.457593, 6.222025
2.650, 0.458, 0.470, 2.196, 0.002, 0.000, 0.705, 1.282, 1.159, 2.219, 0.607, 1.075, 0.009, 0.456152, 0.457798, 0.456022, 0.457693, 6.347419
2.700, 0.481, 0.493, 2.200, 0.002, -0.001, 0.701, 1.305, 1.175, 2.223, 0.599, 1.070, 0.010, 0.460496, 0.455889, 0.460541, 0.455949, 6.431857
2.750, 0.504, 0.516, 2.204, 0.002, -0.002, 0.696, 1.327, 1.190, 2.227, 0.591, 1.065, 0.010, 0.456098, 0.458116, 0.455970, 0.458024, 6.557331
2.800, 0.526, 0.539, 2.208, 0.003, -0.003, 0.690, 1.350, 1.205, 2.231, 0.583, 1.060, 0.010, 0.458234, 0.458031, 0.458267, 0.458080, 6.641769
2.850, 0.549, 0.561, 2.212, 0.003, -0.003, 0.685, 1.372, 1.220, 2.235, 0.574, 1.054, 0.010, 0.453522, 0.460188, 0.453354, 0.460050, 6.767115
2.900, 0.572, 0.584, 2.216, 0.003, -0.004, 0.680, 1.394, 1.235, 2.239, 0.565, 1.049, 0.011, 0.458704, 0.456951, 0.458682, 0.456934, 6.851419
2.950, 0.594, 0.606, 2.220, 0.003, -0.005, 0.675, 1.416, 1.249, 2.243, 0.556, 1.043, 0.011, 0.456486, 0.457195, 0.456321, 0.457044, 6.976709
3.000, 0.617, 0.628, 2.224, 0.003, -0.005, 0.669, 1.438, 1.262, 2.247, 0.546, 1.038, 0.011, 0.458528, 0.457272, 0.458535, 0.457267, 7.061046
3.050, 0.639, 0.650, 2.228, 0.003, -0.006, 0.663, 1.460, 1.276, 2.251, 0.536, 1.032, 0.012, 0.455060, 0.458584, 0.454921, 0.458446, 7.186337
3.100, 0.662, 0.672, 2.232, 0.003, -0.007, 0.657, 1.482, 1.289, 2.255, 0.526, 1.026, 0.012, 0.459118, 0.456605, 0.459146, 0.456610, 7.270662
3.150, 0.684, 0.694, 2.236, 0.003, -0.007, 0.651, 1.504, 1.301, 2.260, 0.515, 1.021, 0.013, 0.455861, 0.457869, 0.455754, 0.457761, 7.395981
3.200, 0.706, 0.715, 2.240, 0.004, -0.008, 0.644, 1.525, 1.313, 2.264, 0.505, 1.015, 0.013, 0.458597, 0.457267, 0.458653, 0.457299, 7.480336
3.250, 0.728, 0.736, 2.244, 0.004, -0.008, 0.638, 1.547, 1.325, 2.268, 0.494, 1.009, 0.014, 0.458802, 0.455273, 0.458728, 0.455201, 7.605718
3.300, 0.750, 0.757, 2.248, 0.004, -0.008, 0.630, 1.568, 1.337, 2.272, 0.482, 1.003, 0.014, 0.460010, 0.456110, 0.460088, 0.456168, 7.690145
3.350, 0.772, 0.778, 2.252, 0.004, -0.009, 0.623, 1.589, 1.348, 2.276, 0.470, 0.997, 0.015, 0.454783, 0.459199, 0.454697, 0.459123, 7.815568
3.400, 0.793, 0.799, 2.256, 0.004, -0.009, 0.615, 1.611, 1.359, 2.280, 0.458, 0.991, 0.015, 0.458704, 0.457339, 0.458760, 0.457378, 7.899959
3.450, 0.814, 0.819, 2.260, 0.004, -0.009, 0.608, 1.632, 1.369, 2.284, 0.445, 0.986, 0.016, 0.455674, 0.458263, 0.455558, 0.458163, 8.025366
3.500, 0.836, 0.839, 2.264, 0.004, -0.009, 0.600, 1.652, 1.379, 2.288, 0.432, 0.980, 0.015, 0.457868, 0.458001, 0.457879, 0.457999, 8.109719
3.550, 0.857, 0.859, 2.268, 0.004, -0.009, 0.592, 1.673, 1.389, 2.292, 0.419, 0.974, 0.016, 0.455533, 0.458138, 0.455370, 0.457997, 8.235059
3.600, 0.878, 0.878, 2.272, 0.004, -0.009, 0.583, 1.694, 1.398, 2.296, 0.405, 0.968, 0.016, 0.459110, 0.456695, 0.459098, 0.456673, 8.319406
3.650, 0.898, 0.898, 2.276, 0.004, -0.009, 0.575, 1.715, 1.407, 2.299, 0.391, 0.962, 0.018, 0.458139, 0.455710, 0.457987, 0.455580, 8.444743
3.700, 0.919, 0.917, 2.280, 0.004, -0.009, 0.566, 1.735, 1.415, 2.303, 0.377, 0.957, 0.018, 0.461182, 0.454721, 0.461190, 0.454714, 8.529145
3.750, 0.939, 0.936, 2.284, 0.004, -0.009, 0.557, 1.755, 1.423, 2.307, 0.362, 0.951, 0.018, 0.452929, 0.460673, 0.452784, 0.460552, 8.654490
3.800, 0.960, 0.955, 2.288, 0.004, -0.009, 0.547, 1.775, 1.431, 2.311, 0.346, 0.945, 0.019, 0.459552, 0.456177, 0.459567, 0.456176, 8.738833
3.850, 0.980, 0.973, 2.292, 0.004, -0.009, 0.538, 1.796, 1.438, 2.315, 0.331, 0.940, 0.020, 0.455237, 0.458389, 0.455111, 0.458288, 8.864179
3.900, 1.000, 0.991, 2.296, 0.004, -0.009, 0.527, 1.816, 1.445, 2.319, 0.314, 0.934, 0.020, 0.458842, 0.456863, 0.458871, 0.456874, 8.948531
3.950, 1.019, 1.009, 2.300, 0.005, -0.008, 0.517, 1.835, 1.452, 2.323, 0.298, 0.928, 0.021, 0.453635, 0.459893, 0.453505, 0.459791, 9.073879
4.000, 1.039, 1.027, 2.304, 0.005, -0.008, 0.507, 1.855, 1.458, 2.327, 0.281, 0.923, 0.021, 0.460000, 0.455650, 0.460020, 0.455654, 9.158230
4.050, 1.059, 1.045, 2.308, 0.005, -0.008, 0.496, 1.875, 1.464, 2.331, 0.263, 0.917, 0.022, 0.454808, 0.458781, 0.454677, 0.458682, 9.283587
4.100, 1.078, 1.062, 2.312, 0.005, -0.008, 0.484, 1.894, 1.469, 2.335, 0.245, 0.912, 0.022, 0.458938, 0.456734, 0.458956, 0.456736, 9.367947
4.150, 1.097, 1.080, 2.316, 0.005, -0.008, 0.473, 1.913, 1.474, 2.339, 0.226, 0.907, 0.023, 0.454611, 0.459036, 0.454480, 0.458940, 9.493339
4.200, 1.116, 1.097, 2.320, 0.005, -0.008, 0.461, 1.933, 1.478, 2.343, 0.207, 0.902, 0.024, 0.459176, 0.456522, 0.459193, 0.456523, 9.577716
4.250, 1.135, 1.113, 2.324, 0.005, -0.007, 0.449, 1.952, 1.482, 2.347, 0.188, 0.896, 0.024, 0.450472, 0.463036, 0.450325, 0.462932, 9.703095
4.300, 1.154, 1.130, 2.328, 0.005, -0.007, 0.436, 1.971, 1.486, 2.351, 0.168, 0.891, 0.025, 0.464542, 0.451274, 0.464561, 0.451278, 9.787471
4.350, 1.173, 1.146, 2.331, 0.005, -0.007, 0.424, 1.989, 1.489, 2.355, 0.147, 0.886, 0.026, 0.453679, 0.459972, 0.453540, 0.459879, 9.912868
4.400, 1.191, 1.163, 2.335, 0.005, -0.006, 0.409, 2.008, 1.492, 2.359, 0.126, 0.881, 0.026, 0.456492, 0.458975, 0.456486, 0.458962, 9.997195
4.450, 1.210, 1.179, 2.339, 0.005, -0.006, 0.396, 2.027, 1.494, 2.362, 0.105, 0.876, 0.028, 0.454969, 0.458566, 0.454818, 0.458468, 10.122609
4.500, 1.228, 1.194, 2.343, 0.005, -0.006, 0.382, 2.045, 1.496, 2.366, 0.083, 0.871, 0.028, 0.464953, 0.450877, 0.464976, 0.450886, 10.207043
4.550, 1.246, 1.210, 2.347, 0.005, -0.005, 0.368, 2.063, 1.498, 2.370, 0.061, 0.867, 0.029, 0.448565, 0.465021, 0.448429, 0.464939, 10.332468
4.600, 1.264, 1.226, 2.351, 0.005, -0.005, 0.352, 2.081, 1.499, 2.374, 0.038, 0.862, 0.029, 0.456035, 0.459386, 0.456035, 0.459381, 10.416788
4.650, 1.282, 1.241, 2.355, 0.005, -0.005, 0.338, 2.099, 1.500, 2.378, 0.015, 0.857, 0.031, 0.455627, 0.457902, 0.455481, 0.457817, 10.542238
4.700, 1.300, 1.256, 2.359, 0.006, -0.004, 0.321, 2.117, 1.500, 2.382, -0.008, 0.853, 0.031, 0.459796, 0.455716, 0.459799, 0.455717, 10.626669
4.750, 1.318, 1.271, 2.363, 0.006, -0.004, 0.306, 2.135, 1.500, 2.386, -0.032, 0.849, 0.033, 0.453390, 0.460209, 0.453247, 0.460130, 10.752161
4.800, 1.336, 1.286, 2.367, 0.006, -0.003, 0.289, 2.152, 1.499, 2.389, -0.057, 0.844, 0.033, 0.459425, 0.456150, 0.459435, 0.456155, 10.836608
4.850, 1.353, 1.300, 2.371, 0.006, -0.003, 0.272, 2.169, 1.498, 2.393, -0.081, 0.840, 0.034, 0.453472, 0.460169, 0.453331, 0.460094, 10.962140
4.900, 1.371, 1.315, 2.374, 0.006, -0.002, 0.254, 2.187, 1.497, 2.397, -0.106, 0.836, 0.034, 0.459333, 0.456186, 0.459338, 0.456190, 11.046597
4.950, 1.389, 1.329, 2.378, 0.006, -0.002, 0.237, 2.204, 1.495, 2.401, -0.131, 0.832, 0.036, 0.453304, 0.460321, 0.453159, 0.460246, 11.172151
5.000, 1.406, 1.343, 2.382, 0.006, -0.001, 0.218, 2.221, 1.493, 2.405, -0.157, 0.828, 0.035, 0.459381, 0.456116, 0.459383, 0.456119, 11.256625
5.050, 1.424, 1.357, 2.386, 0.007, -0.001, 0.199, 2.237, 1.491, 2.409, -0.182, 0.825, 0.036, 0.443754, 0.469446, 0.443566, 0.469346, 11.382198
5.100, 1.441, 1.371, 2.390, 0.007, -0.000, 0.180, 2.254, 1.488, 2.412, -0.208, 0.821, 0.037, 0.461835, 0.453401, 0.461803, 0.453384, 11.466608
5.150, 1.459, 1.384, 2.394, 0.007, 0.000, 0.162, 2.270, 1.484, 2.416, -0.234, 0.818, 0.039, 0.454280, 0.459126, 0.454102, 0.459035, 11.592107
5.200, 1.477, 1.398, 2.398, 0.007, 0.001, 0.141, 2.287, 1.480, 2.420, -0.261, 0.814, 0.039, 0.458994, 0.456382, 0.458978, 0.456378, 11.676604
5.250, 1.494, 1.411, 2.401, 0.008, 0.001, 0.121, 2.303, 1.476, 2.424, -0.287, 0.811, 0.041, 0.452332, 0.461184, 0.452175, 0.461106, 11.802225
5.300, 1.512, 1.424, 2.405, 0.008, 0.002, 0.099, 2.319, 1.471, 2.427, -0.313, 0.808, 0.041, 0.459703, 0.455783, 0.459710, 0.455792, 11.886769
5.350, 1.529, 1.437, 2.409, 0.008, 0.002, 0.079, 2.334, 1.466, 2.431, -0.340, 0.806, 0.042, 0.452026, 0.461516, 0.451878, 0.461442, 12.012431
5.400, 1.547, 1.449, 2.413, 0.009, 0.003, 0.056, 2.350, 1.461, 2.435, -0.366, 0.803, 0.042, 0.459464, 0.455988, 0.459473, 0.455997, 12.096988
5.450, 1.565, 1.462, 2.417, 0.009, 0.003, 0.034, 2.365, 1.455, 2.439, -0.393, 0.801, 0.043, 0.444737, 0.468646, 0.444571, 0.468557, 12.222648
5.500, 1.583, 1.474, 2.420, 0.010, 0.004, 0.012, 2.381, 1.449, 2.442, -0.419, 0.798, 0.043, 0.460055, 0.455272, 0.460042, 0.455264, 12.307152
5.550, 1.601, 1.486, 2.424, 0.010, 0.005, -0.010, 2.396, 1.442, 2.446, -0.445, 0.796, 0.045, 0.452970, 0.460531, 0.452802, 0.460436, 12.432824
5.600, 1.619, 1.497, 2.428, 0.010, 0.005, -0.034, 2.411, 1.435, 2.450, -0.471, 0.795, 0.045, 0.456123, 0.459120, 0.456095, 0.459100, 12.517331
5.650, 1.637, 1.509, 2.432, 0.011, 0.006, -0.057, 2.426, 1.427, 2.454, -0.497, 0.793, 0.046, 0.452225, 0.461269, 0.452050, 0.461164, 12.643086
5.700, 1.655, 1.520, 2.436, 0.011, 0.006, -0.081, 2.440, 1.419, 2.457, -0.523, 0.792, 0.046, 0.459834, 0.455540, 0.459815, 0.455524, 12.727700
5.750, 1.674, 1.531, 2.439, 0.012, 0.007, -0.104, 2.455, 1.411, 2.461, -0.548, 0.790, 0.048, 0.450891, 0.462662, 0.450728, 0.462562, 12.853475
5.800, 1.692, 1.541, 2.443, 0.012, 0.008, -0.130, 2.469, 1.403, 2.465, -0.573, 0.789, 0.047, 0.459111, 0.456318, 0.459107, 0.456309, 12.938099
5.850, 1.711, 1.551, 2.447, 0.013, 0.008, -0.153, 2.483, 1.393, 2.468, -0.598, 0.788, 0.048, 0.450775, 0.462811, 0.450624, 0.462713, 13.063918
5.900, 1.730, 1.561, 2.451, 0.013, 0.009, -0.180, 2.497, 1.384, 2.472, -0.623, 0.788, 0.047, 0.455987, 0.459286, 0.455977, 0.459268, 13.148467
5.950, 1.749, 1.571, 2.454, 0.014, 0.009, -0.203, 2.511, 1.374, 2.476, -0.647, 0.787, 0.049, 0.451618, 0.461950, 0.451464, 0.461841, 13.274316
6.000, 1.768, 1.580, 2.458, 0.014, 0.010, -0.230, 2.524, 1.364, 2.479, -0.671, 0.787, 0.048, 0.459279, 0.456087, 0.459274, 0.456068, 13.358963
6.050, 1.787, 1.589, 2.462, 0.015, 0.010, -0.254, 2.538, 1.353, 2.483, -0.694, 0.787, 0.050, 0.450235, 0.463387, 0.450087, 0.463275, 13.484823
6.100, 1.806, 1.597, 2.465, 0.015, 0.010, -0.280, 2.551, 1.342, 2.487, -0.717, 0.787, 0.049, 0.458685, 0.456764, 0.458689, 0.456746, 13.569473
6.150, 1.826, 1.605, 2.469, 0.016, 0.011, -0.305, 2.564, 1.331, 2.490, -0.740, 0.788, 0.050, 0.450230, 0.463480, 0.450090, 0.463368, 13.695375
6.200, 1.845, 1.612, 2.473, 0.016, 0.011, -0.332, 2.577, 1.319, 2.494, -0.762, 0.788, 0.049, 0.458443, 0.457023, 0.458450, 0.457004, 13.780028
6.250, 1.865, 1.619, 2.476, 0.017, 0.012, -0.356, 2.590, 1.307, 2.498, -0.784, 0.789, 0.050, 0.449979, 0.463715, 0.449838, 0.463595, 13.905936
6.300, 1.885, 1.625, 2.480, 0.017, 0.012, -0.383, 2.602, 1.295, 2.501, -0.805, 0.790, 0.049, 0.458429, 0.457051, 0.458436, 0.457030, 13.990591
6.350, 1.905, 1.631, 2.484, 0.018, 0.013, -0.407, 2.615, 1.282, 2.505, -0.827, 0.792, 0.050, 0.449725, 0.463957, 0.449584, 0.463831, 14.116498
6.400, 1.925, 1.636, 2.488, 0.018, 0.013, -0.434, 2.627, 1.269, 2.508, -0.847, 0.793, 0.048, 0.455205, 0.460102, 0.455199, 0.460065, 14.201052
6.450, 1.945, 1.641, 2.491, 0.019, 0.013, -0.459, 2.639, 1.255, 2.512, -0.867, 0.795, 0.048, 0.442800, 0.470658, 0.442635, 0.470508, 14.326923
6.500, 1.965, 1.646, 2.495, 0.019, 0.014, -0.485, 2.651, 1.242, 2.516, -0.887, 0.796, 0.047, 0.459286, 0.455987, 0.459270, 0.455942, 14.411472
6.550, 1.985, 1.649, 2.498, 0.019, 0.014, -0.510, 2.662, 1.227, 2.519, -0.906, 0.798, 0.048, 0.443071, 0.470330, 0.442904, 0.470173, 14.537241
6.600, 2.005, 1.652, 2.502, 0.020, 0.014, -0.535, 2.674, 1.213, 2.523, -0.925, 0.800, 0.047, 0.458379, 0.456865, 0.458367, 0.456822, 14.621762
6.650, 2.026, 1.655, 2.506, 0.020, 0.014, -0.558, 2.685, 1.198, 2.526, -0.944, 0.802, 0.048, 0.451005, 0.462587, 0.450867, 0.462449, 14.747569
6.700, 2.046, 1.657, 2.509, 0.020, 0.015, -0.584, 2.696, 1.183, 2.530, -0.962, 0.805, 0.046, 0.457623, 0.457746, 0.457640, 0.457723, 14.832160
6.750, 2.066, 1.658, 2.513, 0.020, 0.015, -0.607, 2.707, 1.167, 2.533, -0.980, 0.807, 0.047, 0.449578, 0.464152, 0.449467, 0.464030, 14.958036
6.800, 2.086, 1.659, 2.516, 0.021, 0.015, -0.631, 2.717, 1.151, 2.537, -0.997, 0.810, 0.046, 0.466114, 0.449583, 0.466167, 0.449588, 15.042653
6.850, 2.107, 1.659, 2.520, 0.021, 0.015, -0.654, 2.728, 1.135, 2.540, -1.014, 0.813, 0.047, 0.458615, 0.455603, 0.458552, 0.455516, 15.168478
6.900, 2.127, 1.658, 2.524, 0.021, 0.015, -0.679, 2.738, 1.118, 2.544, -1.031, 0.816, 0.045, 0.458828, 0.457025, 0.458907, 0.457049, 15.253230
6.950, 2.147, 1.657, 2.527, 0.021, 0.015, -0.701, 2.748, 1.102, 2.547, -1.047, 0.819, 0.045, 0.457166, 0.457169, 0.457104, 0.457082, 15.379221
7.000, 2.167, 1.655, 2.531, 0.021, 0.015, -0.724, 2.758, 1.085, 2.551, -1.063, 0.822, 0.044, 0.469152, 0.446997, 0.469238, 0.447029, 15.464030
7.050, 2.187, 1.653, 2.534, 0.021, 0.015, -0.747, 2.768, 1.067, 2.554, -1.078, 0.825, 0.043, 0.444319, 0.469733, 0.444219, 0.469610, 15.589948
7.100, 2.207, 1.650, 2.538, 0.021, 0.015, -0.770, 2.778, 1.049, 2.558, -1.093, 0.828, 0.042, 0.461343, 0.454422, 0.461373, 0.454405, 15.674416
7.150, 2.227, 1.646, 2.541, 0.021, 0.016, -0.790, 2.787, 1.031, 2.561, -1.108, 0.832, 0.042, 0.451253, 0.462759, 0.451124, 0.462612, 15.800191
7.200, 2.247, 1.642, 2.545, 0.021, 0.016, -0.812, 2.796, 1.013, 2.565, -1.123, 0.835, 0.040, 0.462743, 0.453118, 0.462765, 0.453100, 15.884730
7.250, 2.267, 1.637, 2.548, 0.021, 0.016, -0.832, 2.805, 0.995, 2.568, -1.137, 0.838, 0.041, 0.458236, 0.456084, 0.458131, 0.455965, 16.010527
7.301, 2.286, 1.631, 2.552, 0.021, 0.016, -0.854, 2.814, 0.976, 2.572, -1.151, 0.842, 0.039, 0.457185, 0.458459, 0.457207, 0.458446, 16.095105
7.350, 2.305, 1.625, 2.555, 0.021, 0.016, -0.874, 2.822, 0.957, 2.575, -1.164, 0.845, 0.038, 0.448752, 0.465185, 0.448631, 0.465054, 16.220929
7.400, 2.324, 1.618, 2.559, 0.021, 0.016, -0.894, 2.831, 0.937, 2.578, -1.178, 0.849, 0.037, 0.464159, 0.451497, 0.464189, 0.451496, 16.305398
7.450, 2.343, 1.611, 2.562, 0.021, 0.015, -0.914, 2.839, 0.918, 2.582, -1.191, 0.852, 0.036, 0.443993, 0.469710, 0.443864, 0.469572, 16.431032
7.500, 2.362, 1.603, 2.566, 0.021, 0.015, -0.934, 2.847, 0.898, 2.585, -1.203, 0.856, 0.035, 0.455663, 0.459660, 0.455677, 0.459644, 16.515391
7.550, 2.381, 1.594, 2.569, 0.021, 0.015, -0.952, 2.855, 0.878, 2.588, -1.216, 0.859, 0.035, 0.450700, 0.462848, 0.450553, 0.462690, 16.641026
7.600, 2.399, 1.585, 2.573, 0.020, 0.015, -0.970, 2.862, 0.857, 2.592, -1.228, 0.863, 0.034, 0.462061, 0.453173, 0.462067, 0.453148, 16.725466
7.650, 2.417, 1.575, 2.576, 0.020, 0.015, -0.987, 2.870, 0.837, 2.595, -1.240, 0.866, 0.034, 0.450278, 0.463338, 0.450150, 0.463195, 16.851033
7.700, 2.435, 1.565, 2.579, 0.020, 0.015, -1.005, 2.877, 0.816, 2.599, -1.252, 0.870, 0.033, 0.462459, 0.453038, 0.462499, 0.453046, 16.935411
7.750, 2.453, 1.554, 2.583, 0.020, 0.014, -1.022, 2.884, 0.795, 2.602, -1.264, 0.873, 0.032, 0.449393, 0.464292, 0.449284, 0.464168, 17.061004
7.800, 2.470, 1.542, 2.586, 0.020, 0.014, -1.039, 2.891, 0.773, 2.605, -1.275, 0.876, 0.031, 0.456632, 0.458634, 0.456665, 0.458637, 17.145341
7.850, 2.487, 1.530, 2.590, 0.019, 0.014, -1.055, 2.897, 0.752, 2.608, -1.286, 0.880, 0.031, 0.451869, 0.461839, 0.451758, 0.461714, 17.270923
7.900, 2.504, 1.517, 2.593, 0.019, 0.014, -1.072, 2.904, 0.730, 2.612, -1.297, 0.883, 0.030, 0.457078, 0.458179, 0.457104, 0.458178, 17.355256
7.950, 2.521, 1.504, 2.596, 0.019, 0.014, -1.086, 2.910, 0.708, 2.615, -1.308, 0.886, 0.030, 0.458583, 0.455414, 0.458482, 0.455303, 17.480842
8.000, 2.537, 1.491, 2.600, 0.019, 0.014, -1.102, 2.916, 0.686, 2.618, -1.319, 0.890, 0.029, 0.459839, 0.455700, 0.459884, 0.455720, 17.565289
8.050, 2.554, 1.477, 2.603, 0.018, 0.013, -1.117, 2.922, 0.664, 2.622, -1.329, 0.893, 0.028, 0.449905, 0.463926, 0.449790, 0.463803, 17.690887
8.100, 2.569, 1.462, 2.606, 0.018, 0.013, -1.133, 2.927, 0.641, 2.625, -1.339, 0.896, 0.027, 0.456918, 0.458462, 0.456941, 0.458466, 17.775203
8.150, 2.585, 1.447, 2.610, 0.018, 0.013, -1.147, 2.933, 0.618, 2.628, -1.349, 0.899, 0.027, 0.452455, 0.461330, 0.452323, 0.461194, 17.900747
8.200, 2.600, 1.432, 2.613, 0.018, 0.013, -1.161, 2.938, 0.596, 2.631, -1.359, 0.902, 0.026, 0.457195, 0.458123, 0.457204, 0.458115, 17.985047
8.250, 2.615, 1.416, 2.616, 0.017, 0.013, -1.175, 2.943, 0.572, 2.635, -1.369, 0.905, 0.026, 0.452354, 0.461392, 0.452213, 0.461248, 18.110561
8.300, 2.630, 1.400, 2.620, 0.017, 0.012, -1.189, 2.947, 0.549, 2.638, -1.379, 0.908, 0.025, 0.457255, 0.458023, 0.457259, 0.458013, 18.194841
8.350, 2.645, 1.383, 2.623, 0.017, 0.012, -1.201, 2.952, 0.526, 2.641, -1.389, 0.911, 0.026, 0.458340, 0.455638, 0.458221, 0.455517, 18.320352
8.400, 2.659, 1.366, 2.626, 0.016, 0.012, -1.214, 2.956, 0.502, 2.644, -1.398, 0.914, 0.024, 0.429110, 0.482468, 0.428796, 0.482166, 18.446370
8.450, 2.673, 1.348, 2.629, 0.016, 0.012, -1.227, 2.961, 0.479, 2.647, -1.407, 0.916, 0.024, 0.451233, 0.462637, 0.451121, 0.462524, 18.530238
8.500, 2.686, 1.330, 2.633, 0.016, 0.011, -1.240, 2.964, 0.455, 2.651, -1.417, 0.919, 0.023, 0.456973, 0.458349, 0.457002, 0.458366, 18.614502
8.550, 2.700, 1.312, 2.636, 0.016, 0.011, -1.252, 2.968, 0.431, 2.654, -1.426, 0.921, 0.023, 0.453132, 0.460600, 0.453003, 0.460471, 18.739974
8.600, 2.713, 1.294, 2.639, 0.015, 0.011, -1.264, 2.972, 0.407, 2.657, -1.435, 0.924, 0.022, 0.457342, 0.457901, 0.457357, 0.457904, 18.824218
8.650, 2.725, 1.275, 2.642, 0.015, 0.011, -1.275, 2.975, 0.383, 2.660, -1.444, 0.926, 0.022, 0.453086, 0.460632, 0.452946, 0.460492, 18.949667
8.700, 2.738, 1.255, 2.645, 0.015, 0.011, -1.287, 2.978, 0.359, 2.663, -1.453, 0.928, 0.021, 0.457284, 0.457892, 0.457286, 0.457884, 19.033885
8.750, 2.750, 1.236, 2.649, 0.014, 0.010, -1.298, 2.981, 0.335, 2.666, -1.461, 0.930, 0.021, 0.453307, 0.460379, 0.453159, 0.460234, 19.159309
8.800, 2.762, 1.216, 2.652, 0.014, 0.010, -1.310, 2.984, 0.310, 2.669, -1.470, 0.933, 0.021, 0.457376, 0.457809, 0.457379, 0.457803, 19.243520
8.850, 2.773, 1.195, 2.655, 0.014, 0.010, -1.320, 2.986, 0.286, 2.672, -1.479, 0.935, 0.021, 0.453412, 0.460277, 0.453268, 0.460138, 19.368937
8.900, 2.785, 1.175, 2.658, 0.014, 0.010, -1.331, 2.989, 0.261, 2.676, -1.488, 0.937, 0.020, 0.457404, 0.457777, 0.457413, 0.457779, 19.453141
8.950, 2.796, 1.154, 2.661, 0.013, 0.009, -1.342, 2.991, 0.236, 2.679, -1.496, 0.938, 0.020, 0.454169, 0.459638, 0.454037, 0.459512, 19.578544
9.000, 2.807, 1.133, 2.664, 0.013, 0.009, -1.352, 2.992, 0.212, 2.682, -1.505, 0.940, 0.019, 0.458608, 0.456510, 0.458613, 0.456510, 19.662739
9.050, 2.817, 1.112, 2.667, 0.013, 0.009, -1.362, 2.994, 0.187, 2.685, -1.513, 0.942, 0.020, 0.453395, 0.460277, 0.453254, 0.460141, 19.788126
9.100, 2.827, 1.090, 2.670, 0.013, 0.009, -1.373, 2.996, 0.162, 2.688, -1.521, 0.943, 0.019, 0.457277, 0.457882, 0.457287, 0.457887, 19.872309
9.150, 2.837, 1.068, 2.674, 0.012, 0.008, -1.382, 2.997, 0.137, 2.691, -1.530, 0.945, 0.019, 0.452696, 0.460880, 0.452541, 0.460730, 19.997683
9.200, 2.847, 1.046, 2.677, 0.012, 0.008, -1.392, 2.998, 0.112, 2.694, -1.538, 0.946, 0.019, 0.462146, 0.453176, 0.462166, 0.453189, 20.081874
9.250, 2.856, 1.024, 2.680, 0.012, 0.008, -1.401, 2.999, 0.087, 2.697, -1.547, 0.947, 0.019, 0.453840, 0.460017, 0.453717, 0.459899, 20.207287
9.300, 2.866, 1.001, 2.683, 0.012, 0.007, -1.411, 2.999, 0.062, 2.700, -1.555, 0.949, 0.018, 0.459540, 0.455938, 0.459587, 0.455977, 20.291495
9.350, 2.875, 0.979, 2.686, 0.012, 0.007, -1.420, 3.000, 0.037, 2.703, -1.563, 0.950, 0.018, 0.457092, 0.456983, 0.456994, 0.456890, 20.416946
9.400, 2.883, 0.956, 2.689, 0.011, 0.007, -1.430, 3.000, 0.012, 2.706, -1.572, 0.951, 0.018, 0.461799, 0.453714, 0.461853, 0.453761, 20.501186
9.450, 2.892, 0.933, 2.692, 0.011, 0.007, -1.439, 3.000, -0.013, 2.709, -1.580, 0.952, 0.018, 0.453119, 0.460848, 0.453009, 0.460744, 20.626639
9.500, 2.900, 0.910, 2.695, 0.011, 0.007, -1.449, 3.000, -0.038, 2.712, -1.588, 0.953, 0.017, 0.455274, 0.459944, 0.455289, 0.459952, 20.710796
9.550, 2.908, 0.886, 2.698, 0.011, 0.006, -1.457, 2.999, -0.063, 2.714, -1.597, 0.953, 0.017, 0.454868, 0.458929, 0.454715, 0.458782, 20.836196
9.600, 2.915, 0.863, 2.701, 0.011, 0.006, -1.467, 2.999, -0.088, 2.717, -1.605, 0.954, 0.017, 0.456989, 0.458104, 0.456965, 0.458075, 20.920329
9.650, 2.923, 0.839, 2.704, 0.010, 0.006, -1.475, 2.998, -0.112, 2.720, -1.613, 0.955, 0.017, 0.451711, 0.461898, 0.451517, 0.461714, 21.045665
9.700, 2.930, 0.815, 2.707, 0.010, 0.006, -1.484, 2.997, -0.137, 2.723, -1.622, 0.955, 0.016, 0.457951, 0.457075, 0.457907, 0.457029, 21.129771
9.750, 2.937, 0.791, 2.710, 0.010, 0.006, -1.492, 2.996, -0.162, 2.726, -1.630, 0.956, 0.017, 0.454896, 0.458773, 0.454718, 0.458607, 21.255101
9.800, 2.943, 0.767, 2.713, 0.010, 0.006, -1.501, 2.994, -0.187, 2.729, -1.639, 0.956, 0.016, 0.457592, 0.457519, 0.457580, 0.457505, 21.339232
9.850, 2.950, 0.743, 2.715, 0.010, 0.005, -1.510, 2.992, -0.212, 2.732, -1.647, 0.956, 0.017, 0.454398, 0.459330, 0.454256, 0.459200, 21.464592
9.900, 2.956, 0.719, 2.718, 0.009, 0.005, -1.519, 2.991, -0.237, 2.735, -1.656, 0.956, 0.016, 0.457656, 0.457430, 0.457671, 0.457442, 21.548717
9.950, 2.962, 0.694, 2.721, 0.009, 0.004, -1.527, 2.989, -0.261, 2.737, -1.665, 0.956, 0.016, 0.454467, 0.459217, 0.454339, 0.459100, 21.674067
10.000, 2.968, 0.670, 2.724, 0.009, 0.004, -1.536, 2.986, -0.286, 2.740, -1.673, 0.956, 0.016, 0.457746, 0.457359, 0.457774, 0.457381, 21.758192
10.050, 2.973, 0.645, 2.727, 0.009, 0.004, -1.544, 2.984, -0.310, 2.743, -1.682, 0.955, 0.016, 0.454537, 0.459216, 0.454414, 0.459101, 21.883555
10.100, 2.979, 0.620, 2.730, 0.009, 0.004, -1.552, 2.981, -0.335, 2.746, -1.691, 0.955, 0.016, 0.457781, 0.457381, 0.457807, 0.457398, 21.967685
10.150, 2.984, 0.596, 2.733, 0.009, 0.004, -1.560, 2.978, -0.359, 2.749, -1.700, 0.955, 0.016, 0.454654, 0.459198, 0.454525, 0.459076, 22.093070
10.200, 2.989, 0.571, 2.735, 0.009, 0.003, -1.569, 2.975, -0.383, 2.751, -1.709, 0.954, 0.016, 0.457787, 0.457420, 0.457800, 0.457424, 22.177202
10.250, 2.993, 0.546, 2.738, 0.009, 0.003, -1.577, 2.972, -0.407, 2.754, -1.718, 0.954, 0.016, 0.454721, 0.459173, 0.454580, 0.459040, 22.302594
10.300, 2.998, 0.521, 2.741, 0.008, 0.003, -1.586, 2.968, -0.432, 2.757, -1.727, 0.953, 0.016, 0.457859, 0.457386, 0.457862, 0.457382, 22.386728
10.350, 3.002, 0.496, 2.744, 0.008, 0.003, -1.594, 2.964, -0.455, 2.759, -1.736, 0.952, 0.016, 0.453724, 0.460072, 0.453559, 0.459918, 22.512099
10.400, 3.006, 0.471, 2.747, 0.008, 0.003, -1.603, 2.960, -0.479, 2.762, -1.746, 0.951, 0.016, 0.458601, 0.456543, 0.458583, 0.456520, 22.596208
10.450, 3.010, 0.446, 2.749, 0.008, 0.003, -1.611, 2.956, -0.503, 2.765, -1.755, 0.950, 0.016, 0.454827, 0.458981, 0.454664, 0.458833, 22.721565
10.500, 3.014, 0.421, 2.752, 0.008, 0.002, -1.620, 2.952, -0.526, 2.768, -1.765, 0.949, 0.016, 0.457814, 0.457361, 0.457809, 0.457352, 22.805677
10.550, 3.017, 0.396, 2.755, 0.008, 0.002, -1.628, 2.947, -0.549, 2.770, -1.774, 0.948, 0.017, 0.454696, 0.459126, 0.454551, 0.458996, 22.931047
10.600, 3.020, 0.371, 2.758, 0.008, 0.002, -1.637, 2.943, -0.573, 2.773, -1.784, 0.947, 0.016, 0.456890, 0.458146, 0.456885, 0.458136, 23.015123
10.650, 3.023, 0.346, 2.760, 0.008, 0.002, -1.645, 2.938, -0.596, 2.775, -1.794, 0.946, 0.017, 0.455077, 0.458707, 0.454935, 0.458580, 23.140477
10.700, 3.026, 0.321, 2.763, 0.008, 0.001, -1.654, 2.933, -0.619, 2.778, -1.804, 0.944, 0.016, 0.458131, 0.456993, 0.458141, 0.456997, 23.224577
10.750, 3.029, 0.296, 2.766, 0.008, 0.001, -1.662, 2.927, -0.641, 2.781, -1.815, 0.943, 0.017, 0.454702, 0.459152, 0.454572, 0.459035, 23.349952
10.800, 3.031, 0.271, 2.768, 0.008, 0.001, -1.671, 2.922, -0.664, 2.783, -1.825, 0.941, 0.017, 0.458006, 0.457182, 0.458026, 0.457193, 23.434060
10.850, 3.034, 0.246, 2.771, 0.007, 0.001, -1.679, 2.916, -0.686, 2.786, -1.836, 0.939, 0.017, 0.454804, 0.459123, 0.454679, 0.459011, 23.559458
10.900, 3.036, 0.221, 2.774, 0.007, 0.001, -1.689, 2.910, -0.708, 2.788, -1.847, 0.938, 0.017, 0.456934, 0.458178, 0.456937, 0.458172, 23.643540
10.950, 3.038, 0.196, 2.776, 0.007, 0.001, -1.697, 2.904, -0.730, 2.791, -1.858, 0.936, 0.017, 0.454046, 0.459721, 0.453884, 0.459576, 23.768902
11.000, 3.039, 0.171, 2.779, 0.007, 0.001, -1.706, 2.897, -0.752, 2.794, -1.869, 0.934, 0.017, 0.459084, 0.456027, 0.459070, 0.456005, 23.852989
11.050, 3.041, 0.146, 2.781, 0.007, 0.000, -1.715, 2.891, -0.773, 2.796, -1.880, 0.932, 0.018, 0.454809, 0.459063, 0.454655, 0.458928, 23.978359
11.100, 3.042, 0.121, 2.784, 0.007, 0.000, -1.725, 2.884, -0.795, 2.799, -1.892, 0.930, 0.018, 0.457929, 0.457215, 0.457924, 0.457203, 24.062447
11.150, 3.044, 0.097, 2.787, 0.007, -0.000, -1.733, 2.877, -0.816, 2.801, -1.904, 0.928, 0.018, 0.454819, 0.459108, 0.454682, 0.458991, 24.187842
11.200, 3.045, 0.072, 2.789, 0.007, -0.000, -1.743, 2.870, -0.837, 2.804, -1.916, 0.925, 0.018, 0.458236, 0.456988, 0.458253, 0.456996, 24.271950
11.250, 3.046, 0.047, 2.792, 0.007, -0.000, -1.752, 2.862, -0.857, 2.806, -1.928, 0.923, 0.019, 0.454694, 0.459268, 0.454570, 0.459164, 24.397365
11.300, 3.046, 0.023, 2.794, 0.007, -0.001, -1.762, 2.855, -0.878, 2.809, -1.941, 0.921, 0.018, 0.458149, 0.457027, 0.458167, 0.457035, 24.481461
11.350, 3.047, -0.002, 2.797, 0.007, -0.001, -1.771, 2.847, -0.898, 2.811, -1.954, 0.918, 0.019, 0.454741, 0.459211, 0.454615, 0.459106, 24.606873
11.400, 3.047, -0.026, 2.799, 0.007, -0.001, -1.782, 2.839, -0.918, 2.813, -1.967, 0.916, 0.019, 0.458296, 0.456915, 0.458315, 0.456923, 24.690977
11.450, 3.048, -0.051, 2.802, 0.007, -0.001, -1.791, 2.831, -0.937, 2.816, -1.980, 0.913, 0.020, 0.454704, 0.459308, 0.454578, 0.459203, 24.816408
11.500, 3.048, -0.075, 2.804, 0.007, -0.001, -1.802, 2.822, -0.957, 2.818, -1.994, 0.911, 0.020, 0.458269, 0.456947, 0.458282, 0.456948, 24.900510
11.550, 3.048, -0.099, 2.807, 0.007, -0.001, -1.811, 2.814, -0.976, 2.821, -2.008, 0.908, 0.020, 0.454695, 0.459328, 0.454563, 0.459219, 25.025947
11.600, 3.048, -0.123, 2.809, 0.006, -0.001, -1.822, 2.805, -0.995, 2.823, -2.022, 0.905, 0.020, 0.458384, 0.456855, 0.458394, 0.456854, 25.110055
11.650, 3.047, -0.147, 2.811, 0.006, -0.001, -1.832, 2.796, -1.013, 2.825, -2.037, 0.902, 0.021, 0.454654, 0.459405, 0.454521, 0.459299, 25.235506
11.700, 3.047, -0.171, 2.814, 0.006, -0.001, -1.843, 2.787, -1.032, 2.828, -2.051, 0.899, 0.021, 0.460700, 0.454597, 0.460715, 0.454598, 25.319601
11.750, 3.046, -0.195, 2.816, 0.006, -0.002, -1.853, 2.778, -1.050, 2.830, -2.067, 0.897, 0.022, 0.459336, 0.454905, 0.459228, 0.454821, 25.445068
11.800, 3.046, -0.218, 2.819, 0.006, -0.002, -1.865, 2.768, -1.067, 2.832, -2.082, 0.894, 0.022, 0.435970, 0.476627, 0.435682, 0.476416, 25.570940
11.850, 3.045, -0.242, 2.821, 0.006, -0.002, -1.876, 2.758, -1.085, 2.835, -2.098, 0.891, 0.023, 0.453254, 0.460980, 0.453159, 0.460909, 25.654751
11.900, 3.044, -0.265, 2.823, 0.006, -0.002, -1.888, 2.748, -1.102, 2.837, -2.114, 0.888, 0.022, 0.455758, 0.459436, 0.455778, 0.459443, 25.738834
11.950, 3.043, -0.288, 2.826, 0.006, -0.002, -1.899, 2.738, -1.119, 2.839, -2.131, 0.885, 0.023, 0.455265, 0.458794, 0.455134, 0.458696, 25.864315
12.000, 3.042, -0.312, 2.828, 0.006, -0.002, -1.912, 2.728, -1.135, 2.841, -2.148, 0.882, 0.023, 0.459036, 0.456188, 0.459045, 0.456186, 25.948438
12.050, 3.040, -0.335, 2.830, 0.006, -0.002, -1.923, 2.717, -1.151, 2.844, -2.165, 0.878, 0.024, 0.454238, 0.459846, 0.454098, 0.459745, 26.073923
12.100, 3.039, -0.358, 2.833, 0.006, -0.001, -1.936, 2.707, -1.167, 2.846, -2.183, 0.875, 0.024, 0.458539, 0.456650, 0.458538, 0.456641, 26.158034
12.150, 3.037, -0.381, 2.835, 0.006, -0.001, -1.948, 2.696, -1.183, 2.848, -2.202, 0.872, 0.025, 0.454369, 0.459697, 0.454226, 0.459597, 26.283523
12.200, 3.036, -0.403, 2.837, 0.006, -0.001, -1.961, 2.685, -1.198, 2.850, -2.220, 0.869, 0.025, 0.463370, 0.451959, 0.463393, 0.451968, 26.367661
12.250, 3.034, -0.426, 2.840, 0.006, -0.001, -1.974, 2.673, -1.213, 2.853, -2.239, 0.866, 0.027, 0.458084, 0.456152, 0.457974, 0.456081, 26.493172
12.300, 3.032, -0.448, 2.842, 0.006, -0.001, -1.988, 2.662, -1.227, 2.855, -2.259, 0.862, 0.027, 0.460482, 0.454826, 0.460523, 0.454849, 26.577369
12.350, 3.030, -0.471, 2.844, 0.006, -0.001, -2.001, 2.650, -1.242, 2.857, -2.278, 0.859, 0.027, 0.452783, 0.461365, 0.452673, 0.461296, 26.702920
12.548, 3.028, -0.491, 2.846, 0.006, -0.001, -2.012, 2.603, -1.294, 2.865, -2.361, 0.909, 0.045, 0.458586, 0.456631, 0.458619, 0.456647, 26.787056
12.550, 3.028, -0.491, 2.846, 0.006, -0.001, -2.014, 2.602, -1.295, 2.865, -2.362, 0.910, 0.044, 0.458586, 0.456631, 0.458619, 0.456647, 26.787056
12.600, 3.026, -0.515, 2.848, 0.006, -0.001, -2.029, 2.590, -1.307, 2.867, -2.384, 0.904, 0.045, 0.519817, 0.412784, 0.522123, 0.414255, 26.914839
12.650, 3.023, -0.538, 2.851, 0.005, 0.002, -2.051, 2.577, -1.319, 2.869, -2.407, 0.901, 0.038, 0.451209, 0.472661, 0.452505, 0.473373, 27.044875
12.700, 3.021, -0.560, 2.854, 0.004, 0.007, -2.075, 2.564, -1.331, 2.872, -2.429, 0.897, 0.030, 0.427248, 0.493918, 0.427746, 0.494123, 27.130440
12.750, 3.018, -0.582, 2.857, 0.002, 0.012, -2.090, 2.551, -1.343, 2.874, -2.452, 0.893, 0.031, 0.455417, 0.461894, 0.454599, 0.461347, 27.257496
12.800, 3.015, -0.604, 2.860, 0.001, 0.017, -2.107, 2.538, -1.353, 2.876, -2.476, 0.889, 0.031, 0.463870, 0.452774, 0.462700, 0.452049, 27.341927
12.850, 3.012, -0.627, 2.863, 0.000, 0.019, -2.123, 2.524, -1.364, 2.878, -2.500, 0.884, 0.033, 0.450726, 0.462548, 0.449070, 0.461617, 27.467258
12.900, 3.009, -0.650, 2.866, 0.000, 0.019, -2.140, 2.511, -1.374, 2.880, -2.524, 0.879, 0.033, 0.459334, 0.453530, 0.457901, 0.452773, 27.550915
12.950, 3.005, -0.673, 2.869, 0.001, 0.017, -2.156, 2.497, -1.384, 2.882, -2.549, 0.874, 0.035, 0.452592, 0.457401, 0.451423, 0.456867, 27.675331
13.000, 3.002, -0.697, 2.871, 0.002, 0.014, -2.176, 2.483, -1.394, 2.884, -2.574, 0.869, 0.035, 0.457271, 0.453024, 0.456637, 0.452818, 27.758637
13.050, 2.998, -0.721, 2.874, 0.003, 0.009, -2.193, 2.469, -1.403, 2.885, -2.599, 0.863, 0.037, 0.448827, 0.459761, 0.448633, 0.459817, 27.882859
13.100, 2.994, -0.745, 2.876, 0.005, 0.005, -2.213, 2.454, -1.411, 2.887, -2.624, 0.857, 0.038, 0.459025, 0.450788, 0.459327, 0.451100, 27.966194
13.150, 2.989, -0.769, 2.878, 0.007, 0.001, -2.231, 2.440, -1.420, 2.889, -2.650, 0.851, 0.041, 0.460226, 0.449467, 0.460766, 0.449855, 28.090689
13.200, 2.985, -0.793, 2.880, 0.009, -0.001, -2.252, 2.425, -1.427, 2.891, -2.676, 0.846, 0.041, 0.460591, 0.450685, 0.461389, 0.451163, 28.174473
13.250, 2.980, -0.817, 2.882, 0.010, -0.002, -2.273, 2.411, -1.435, 2.893, -2.702, 0.840, 0.042, 0.448887, 0.462587, 0.449513, 0.462887, 28.299555
13.300, 2.975, -0.840, 2.884, 0.011, -0.002, -2.296, 2.396, -1.442, 2.895, -2.728, 0.835, 0.042, 0.458111, 0.455046, 0.458776, 0.455322, 28.383509
13.350, 2.970, -0.864, 2.886, 0.012, -0.001, -2.316, 2.380, -1.449, 2.897, -2.755, 0.831, 0.044, 0.452233, 0.461161, 0.452490, 0.461166, 28.509073
13.400, 2.965, -0.887, 2.888, 0.012, 0.000, -2.339, 2.365, -1.455, 2.899, -2.781, 0.826, 0.044, 0.467386, 0.447666, 0.467631, 0.447662, 28.593370
13.450, 2.960, -0.910, 2.890, 0.012, 0.002, -2.361, 2.350, -1.461, 2.900, -2.807, 0.822, 0.046, 0.451353, 0.463447, 0.451186, 0.463233, 28.719218
13.500, 2.954, -0.932, 2.892, 0.012, 0.004, -2.386, 2.334, -1.466, 2.902, -2.834, 0.819, 0.045, 0.453780, 0.462042, 0.453615, 0.461857, 28.803529
13.550, 2.949, -0.955, 2.894, 0.012, 0.005, -2.408, 2.318, -1.471, 2.904, -2.860, 0.815, 0.047, 0.453753, 0.461369, 0.453330, 0.461095, 28.929632
13.600, 2.943, -0.977, 2.895, 0.012, 0.006, -2.434, 2.302, -1.476, 2.906, -2.886, 0.812, 0.046, 0.460500, 0.455422, 0.460213, 0.455264, 29.014110
13.650, 2.936, -0.999, 2.897, 0.012, 0.006, -2.457, 2.286, -1.480, 2.908, -2.913, 0.808, 0.047, 0.448798, 0.465973, 0.448391, 0.465789, 29.140257
13.700, 2.929, -1.021, 2.899, 0.013, 0.006, -2.482, 2.270, -1.484, 2.909, -2.939, 0.806, 0.048, 0.461598, 0.453884, 0.461411, 0.453845, 29.224680
13.750, 2.923, -1.043, 2.901, 0.013, 0.006, -2.507, 2.254, -1.488, 2.911, -2.965, 0.803, 0.048, 0.443901, 0.470417, 0.443669, 0.470354, 29.350606
13.800, 2.915, -1.065, 2.903, 0.014, 0.006, -2.533, 2.237, -1.491, 2.913, -2.990, 0.801, 0.048, 0.459584, 0.455494, 0.459587, 0.455556, 29.434924
13.850, 2.908, -1.086, 2.904, 0.015, 0.006, -2.557, 2.220, -1.493, 2.914, -3.016, 0.799, 0.050, 0.449860, 0.464240, 0.449791, 0.464222, 29.560954
13.900, 2.900, -1.107, 2.906, 0.016, 0.006, -2.584, 2.203, -1.495, 2.916, -3.041, 0.797, 0.050, 0.460922, 0.454005, 0.461049, 0.454078, 29.645350
13.950, 2.892, -1.128, 2.908, 0.016, 0.006, -2.609, 2.186, -1.497, 2.918, -3.066, 0.796, 0.051, 0.452224, 0.462045, 0.452230, 0.462007, 29.771283
14.000, 2.883, -1.149, 2.910, 0.017, 0.007, -2.636, 2.169, -1.498, 2.919, -3.090, 0.795, 0.050, 0.461323, 0.453724, 0.461465, 0.453748, 29.855745
14.050, 2.874, -1.169, 2.911, 0.018, 0.008, -2.662, 2.152, -1.499, 2.921, -3.114, 0.794, 0.051, 0.446402, 0.468017, 0.446342, 0.467894, 29.981927
14.100, 2.865, -1.189, 2.913, 0.018, 0.009, -2.689, 2.134, -1.500, 2.923, -3.138, 0.794, 0.051, 0.465209, 0.450032, 0.465269, 0.449988, 30.066446
14.150, 2.855, -1.209, 2.915, 0.018, 0.009, -2.714, 2.117, -1.500, 2.924, 3.122, 0.794, 0.052, 0.449980, 0.464608, 0.449842, 0.464447, 30.192474
14.200, 2.845, -1.228, 2.916, 0.019, 0.010, -2.743, 2.099, -1.500, 2.926, 3.099, 0.794, 0.050, 0.453831, 0.461437, 0.453802, 0.461360, 30.276800
14.250, 2.835, -1.247, 2.918, 0.019, 0.011, -2.768, 2.081, -1.499, 2.927, 3.076, 0.795, 0.052, 0.451493, 0.463096, 0.451288, 0.462925, 30.402958
14.300, 2.824, -1.266, 2.920, 0.019, 0.012, -2.796, 2.063, -1.498, 2.929, 3.054, 0.796, 0.050, 0.459162, 0.456123, 0.459103, 0.456066, 30.487398
14.350, 2.813, -1.284, 2.921, 0.019, 0.012, -2.822, 2.045, -1.496, 2.931, 3.032, 0.797, 0.051, 0.446603, 0.467876, 0.446385, 0.467723, 30.613653
14.400, 2.801, -1.302, 2.923, 0.020, 0.013, -2.849, 2.026, -1.494, 2.932, 3.011, 0.798, 0.050, 0.460579, 0.454585, 0.460529, 0.454554, 30.698051
14.450, 2.789, -1.320, 2.925, 0.020, 0.013, -2.874, 2.008, -1.492, 2.934, 2.990, 0.800, 0.051, 0.450193, 0.464254, 0.450022, 0.464134, 30.824094
14.500, 2.776, -1.337, 2.926, 0.020, 0.014, -2.902, 1.989, -1.489, 2.935, 2.970, 0.802, 0.049, 0.454184, 0.460830, 0.454167, 0.460812, 30.908377
14.550, 2.763, -1.354, 2.928, 0.021, 0.014, -2.926, 1.970, -1.486, 2.936, 2.950, 0.804, 0.050, 0.450989, 0.463427, 0.450856, 0.463309, 31.034479
14.600, 2.750, -1.370, 2.930, 0.021, 0.014, -2.953, 1.951, -1.482, 2.938, 2.930, 0.806, 0.049, 0.458283, 0.456767, 0.458309, 0.456757, 31.118840
14.650, 2.736, -1.386, 2.931, 0.022, 0.015, -2.978, 1.932, -1.478, 2.939, 2.911, 0.809, 0.049, 0.449655, 0.464832, 0.449551, 0.464710, 31.244914
14.700, 2.722, -1.401, 2.933, 0.022, 0.015, -3.005, 1.913, -1.474, 2.941, 2.893, 0.812, 0.048, 0.457418, 0.457691, 0.457462, 0.457675, 31.329245
14.750, 2.707, -1.416, 2.934, 0.022, 0.015, -3.029, 1.894, -1.469, 2.942, 2.875, 0.815, 0.048, 0.449806, 0.464756, 0.449700, 0.464617, 31.455326
14.800, 2.692, -1.431, 2.936, 0.022, 0.016, -3.055, 1.874, -1.464, 2.944, 2.857, 0.818, 0.047, 0.457535, 0.457648, 0.457574, 0.457622, 31.539654
14.850, 2.677, -1.445, 2.937, 0.022, 0.016, -3.079, 1.855, -1.458, 2.945, 2.840, 0.822, 0.046, 0.441798, 0.472768, 0.441656, 0.472600, 31.665727
14.900, 2.661, -1.458, 2.939, 0.023, 0.017, -3.105, 1.835, -1.452, 2.946, 2.824, 0.826, 0.044, 0.455406, 0.459692, 0.455391, 0.459628, 31.749909
14.950, 2.644, -1.471, 2.940, 0.023, 0.017, -3.126, 1.815, -1.445, 2.948, 2.808, 0.829, 0.046, 0.460376, 0.454253, 0.460213, 0.454073, 31.875997
15.000, 2.628, -1.483, 2.942, 0.023, 0.017, 3.134, 1.795, -1.438, 2.949, 2.792, 0.833, 0.045, 0.471238, 0.443992, 0.471245, 0.443957, 31.960502
15.050, 2.611, -1.495, 2.943, 0.023, 0.008, 3.110, 1.775, -1.431, 2.950, 2.777, 0.838, 0.044, 0.443617, 0.467776, 0.446363, 0.470582, 32.086921
15.100, 2.593, -1.506, 2.944, 0.023, 0.001, 3.086, 1.755, -1.423, 2.952, 2.762, 0.842, 0.042, 0.453857, 0.454267, 0.456991, 0.457384, 32.170414
15.150, 2.576, -1.516, 2.946, 0.023, -0.000, 3.065, 1.735, -1.415, 2.953, 2.747, 0.847, 0.043, 0.450173, 0.457862, 0.452481, 0.460104, 32.295146
15.200, 2.559, -1.526, 2.947, 0.023, 0.004, 3.043, 1.714, -1.407, 2.954, 2.733, 0.853, 0.041, 0.465294, 0.444880, 0.467056, 0.446494, 32.378750
15.250, 2.542, -1.535, 2.948, 0.024, 0.011, 3.020, 1.694, -1.398, 2.955, 2.720, 0.859, 0.039, 0.435234, 0.479068, 0.435580, 0.479196, 32.504571
15.300, 2.524, -1.544, 2.949, 0.023, 0.019, 3.000, 1.673, -1.389, 2.957, 2.706, 0.865, 0.039, 0.465585, 0.451922, 0.465345, 0.451439, 32.588906
15.350, 2.506, -1.552, 2.951, 0.023, 0.027, 2.980, 1.652, -1.379, 2.958, 2.693, 0.872, 0.038, 0.449938, 0.470116, 0.448752, 0.468771, 32.715742
15.400, 2.488, -1.560, 2.952, 0.022, 0.032, 2.959, 1.631, -1.369, 2.959, 2.681, 0.878, 0.036, 0.454535, 0.466374, 0.453208, 0.464949, 32.800647
15.450, 2.469, -1.567, 2.953, 0.021, 0.034, 2.941, 1.610, -1.359, 2.960, 2.669, 0.884, 0.037, 0.454987, 0.464464, 0.453469, 0.463004, 32.927658
15.500, 2.449, -1.573, 2.955, 0.021, 0.034, 2.921, 1.589, -1.348, 2.961, 2.657, 0.889, 0.035, 0.459265, 0.459278, 0.458081, 0.458218, 33.012328
15.550, 2.429, -1.578, 2.956, 0.020, 0.031, 2.904, 1.568, -1.337, 2.962, 2.646, 0.894, 0.035, 0.459118, 0.456477, 0.458275, 0.455855, 33.138440
15.600, 2.408, -1.583, 2.958, 0.020, 0.027, 2.885, 1.546, -1.325, 2.964, 2.635, 0.899, 0.034, 0.464535, 0.450039, 0.464232, 0.449953, 33.222580
15.650, 2.387, -1.587, 2.959, 0.020, 0.022, 2.867, 1.525, -1.313, 2.965, 2.624, 0.904, 0.033, 0.447456, 0.464923, 0.447518, 0.465177, 33.347886
15.700, 2.365, -1.590, 2.960, 0.020, 0.018, 2.849, 1.503, -1.301, 2.966, 2.613, 0.909, 0.032, 0.456306, 0.455916, 0.456768, 0.456499, 33.431576
15.750, 2.343, -1.593, 2.962, 0.021, 0.015, 2.833, 1.482, -1.288, 2.967, 2.603, 0.913, 0.032, 0.450319, 0.461306, 0.450830, 0.461825, 33.556703
15.800, 2.320, -1.596, 2.963, 0.021, 0.014, 2.816, 1.460, -1.275, 2.968, 2.594, 0.918, 0.031, 0.455392, 0.456891, 0.456077, 0.457496, 33.640364
15.850, 2.298, -1.597, 2.964, 0.021, 0.013, 2.800, 1.438, -1.262, 2.969, 2.584, 0.923, 0.031, 0.451108, 0.461763, 0.451526, 0.462011, 33.765710
15.900, 2.276, -1.598, 2.965, 0.022, 0.014, 2.784, 1.416, -1.248, 2.970, 2.575, 0.928, 0.029, 0.456442, 0.457462, 0.456881, 0.457689, 33.849578
15.950, 2.253, -1.599, 2.966, 0.022, 0.015, 2.769, 1.394, -1.234, 2.971, 2.566, 0.933, 0.029, 0.452141, 0.462574, 0.452184, 0.462400, 33.975300
16.000, 2.230, -1.599, 2.967, 0.021, 0.017, 2.754, 1.372, -1.220, 2.972, 2.557, 0.938, 0.028, 0.460167, 0.455447, 0.460211, 0.455294, 34.059377
16.050, 2.207, -1.598, 2.968, 0.021, 0.018, 2.740, 1.349, -1.205, 2.973, 2.549, 0.944, 0.028, 0.452984, 0.462837, 0.452690, 0.462415, 34.185318
16.100, 2.184, -1.597, 2.969, 0.021, 0.019, 2.725, 1.327, -1.190, 2.974, 2.541, 0.949, 0.026, 0.458679, 0.457557, 0.458473, 0.457274, 34.269473
16.150, 2.161, -1.595, 2.970, 0.020, 0.019, 2.712, 1.305, -1.175, 2.975, 2.533, 0.954, 0.026, 0.453250, 0.462458, 0.452845, 0.462055, 34.395409
16.200, 2.137, -1.592, 2.971, 0.019, 0.019, 2.698, 1.282, -1.159, 2.976, 2.525, 0.959, 0.024, 0.456419, 0.459344, 0.456196, 0.459158, 34.479514
16.250, 2.114, -1.589, 2.972, 0.019, 0.018, 2.685, 1.260, -1.143, 2.977, 2.518, 0.963, 0.024, 0.448939, 0.465990, 0.448616, 0.465739, 34.605291
16.300, 2.090, -1.585, 2.973, 0.019, 0.018, 2.672, 1.237, -1.127, 2.978, 2.510, 0.968, 0.023, 0.457300, 0.457664, 0.457204, 0.457642, 34.689252
16.350, 2.066, -1.580, 2.974, 0.018, 0.017, 2.660, 1.214, -1.110, 2.978, 2.503, 0.973, 0.022, 0.450034, 0.464258, 0.449863, 0.464142, 34.814833
16.400, 2.042, -1.575, 2.975, 0.018, 0.016, 2.648, 1.191, -1.093, 2.979, 2.497, 0.978, 0.022, 0.456921, 0.457553, 0.456975, 0.457639, 34.898708
16.450, 2.018, -1.569, 2.976, 0.018, 0.015, 2.637, 1.168, -1.076, 2.980, 2.490, 0.982, 0.022, 0.453815, 0.460346, 0.453772, 0.460294, 35.024238
16.500, 1.993, -1.563, 2.977, 0.018, 0.015, 2.625, 1.145, -1.058, 2.981, 2.484, 0.987, 0.021, 0.456523, 0.457920, 0.456661, 0.458024, 35.108107
16.550, 1.969, -1.556, 2.978, 0.018, 0.014, 2.615, 1.122, -1.040, 2.982, 2.478, 0.992, 0.020, 0.453400, 0.460961, 0.453374, 0.460872, 35.233673
16.600, 1.944, -1.549, 2.979, 0.017, 0.014, 2.604, 1.099, -1.022, 2.982, 2.472, 0.997, 0.019, 0.456788, 0.457914, 0.456911, 0.457964, 35.317567
16.650, 1.920, -1.541, 2.980, 0.017, 0.014, 2.594, 1.075, -1.004, 2.983, 2.466, 1.001, 0.019, 0.453709, 0.460969, 0.453617, 0.460802, 35.443187
16.700, 1.895, -1.533, 2.981, 0.017, 0.014, 2.584, 1.052, -0.985, 2.984, 2.460, 1.006, 0.018, 0.456886, 0.458096, 0.456930, 0.458073, 35.527108
16.750, 1.871, -1.524, 2.981, 0.017, 0.014, 2.574, 1.028, -0.966, 2.985, 2.455, 1.010, 0.018, 0.454037, 0.460851, 0.453867, 0.460631, 35.652763
16.800, 1.846, -1.515, 2.982, 0.016, 0.015, 2.565, 1.005, -0.947, 2.985, 2.450, 1.015, 0.017, 0.457023, 0.458090, 0.457010, 0.458043, 35.736695
16.850, 1.821, -1.505, 2.983, 0.016, 0.015, 2.556, 0.981, -0.927, 2.986, 2.445, 1.020, 0.016, 0.451358, 0.463530, 0.451131, 0.463288, 35.862341
16.900, 1.797, -1.495, 2.984, 0.015, 0.015, 2.547, 0.958, -0.908, 2.987, 2.440, 1.024, 0.016, 0.457252, 0.457800, 0.457197, 0.457744, 35.946243
16.950, 1.772, -1.484, 2.985, 0.015, 0.014, 2.539, 0.934, -0.888, 2.987, 2.435, 1.028, 0.016, 0.454986, 0.459817, 0.454770, 0.459607, 36.071849
17.000, 1.747, -1.472, 2.985, 0.015, 0.014, 2.530, 0.910, -0.867, 2.988, 2.431, 1.033, 0.015, 0.456845, 0.458065, 0.456817, 0.458048, 36.155731
17.050, 1.722, -1.461, 2.986, 0.014, 0.014, 2.523, 0.886, -0.847, 2.989, 2.426, 1.037, 0.014, 0.453593, 0.461042, 0.453399, 0.460853, 36.281306
17.100, 1.697, -1.448, 2.987, 0.014, 0.014, 2.515, 0.862, -0.826, 2.989, 2.422, 1.041, 0.014, 0.457656, 0.457108, 0.457655, 0.457111, 36.365155
17.150, 1.672, -1.436, 2.988, 0.014, 0.013, 2.508, 0.838, -0.805, 2.990, 2.418, 1.045, 0.014, 0.453988, 0.460579, 0.453812, 0.460393, 36.490691
17.200, 1.647, -1.423, 2.988, 0.013, 0.013, 2.500, 0.814, -0.784, 2.991, 2.414, 1.050, 0.013, 0.457447, 0.457273, 0.457466, 0.457280, 36.574524
17.250, 1.622, -1.409, 2.989, 0.013, 0.013, 2.494, 0.790, -0.762, 2.991, 2.411, 1.053, 0.013, 0.454197, 0.460396, 0.454031, 0.460206, 36.700055
17.300, 1.597, -1.395, 2.990, 0.013, 0.013, 2.487, 0.766, -0.741, 2.992, 2.407, 1.058, 0.012, 0.456782, 0.457929, 0.456778, 0.457902, 36.783868
17.350, 1.572, -1.381, 2.990, 0.012, 0.013, 2.481, 0.742, -0.719, 2.992, 2.404, 1.062, 0.012, 0.455392, 0.459282, 0.455220, 0.459085, 36.909402
17.400, 1.547, -1.366, 2.991, 0.012, 0.012, 2.474, 0.718, -0.697, 2.993, 2.400, 1.065, 0.011, 0.458236, 0.456575, 0.458256, 0.456575, 36.993226
17.450, 1.522, -1.351, 2.991, 0.012, 0.012, 2.469, 0.693, -0.675, 2.993, 2.397, 1.069, 0.011, 0.457079, 0.457673, 0.456924, 0.457502, 37.118769
17.500, 1.497, -1.335, 2.992, 0.012, 0.012, 2.462, 0.669, -0.652, 2.994, 2.394, 1.073, 0.011, 0.457974, 0.456855, 0.458015, 0.456887, 37.202613
17.550, 1.471, -1.319, 2.992, 0.011, 0.012, 2.457, 0.645, -0.630, 2.994, 2.391, 1.076, 0.010, 0.454653, 0.460120, 0.454504, 0.459965, 37.328167
17.600, 1.446, -1.303, 2.993, 0.011, 0.011, 2.452, 0.620, -0.607, 2.995, 2.388, 1.080, 0.010, 0.459509, 0.455343, 0.459558, 0.455392, 37.411997
17.650, 1.421, -1.286, 2.994, 0.011, 0.011, 2.446, 0.596, -0.584, 2.995, 2.386, 1.084, 0.010, 0.454871, 0.459898, 0.454704, 0.459728, 37.537545
17.700, 1.396, -1.269, 2.994, 0.010, 0.011, 2.441, 0.571, -0.561, 2.995, 2.383, 1.087, 0.009, 0.456077, 0.458742, 0.456074, 0.458738, 37.621352
17.750, 1.371, -1.251, 2.995, 0.010, 0.011, 2.437, 0.547, -0.538, 2.996, 2.381, 1.090, 0.009, 0.458073, 0.456798, 0.457893, 0.456613, 37.746908
17.800, 1.345, -1.234, 2.995, 0.010, 0.011, 2.432, 0.522, -0.514, 2.996, 2.378, 1.094, 0.008, 0.458063, 0.456834, 0.458077, 0.456846, 37.830739
17.850, 1.320, -1.216, 2.995, 0.010, 0.011, 2.427, 0.497, -0.491, 2.997, 2.376, 1.097, 0.008, 0.454493, 0.460335, 0.454293, 0.460125, 37.956294
17.900, 1.295, -1.197, 2.996, 0.009, 0.011, 2.423, 0.473, -0.467, 2.997, 2.374, 1.100, 0.008, 0.457082, 0.457757, 0.457054, 0.457722, 38.040090
17.950, 1.270, -1.179, 2.996, 0.009, 0.011, 2.419, 0.448, -0.443, 2.997, 2.372, 1.103, 0.007, 0.454929, 0.459906, 0.454692, 0.459657, 38.165622
18.000, 1.244, -1.160, 2.997, 0.009, 0.011, 2.415, 0.423, -0.419, 2.997, 2.370, 1.106, 0.007, 0.457217, 0.457642, 0.457180, 0.457598, 38.249415
18.050, 1.219, -1.140, 2.997, 0.009, 0.010, 2.411, 0.399, -0.395, 2.998, 2.369, 1.109, 0.007, 0.457417, 0.457430, 0.457215, 0.457218, 38.374944
18.100, 1.194, -1.121, 2.998, 0.008, 0.010, 2.408, 0.374, -0.371, 2.998, 2.367, 1.111, 0.007, 0.459271, 0.455563, 0.459308, 0.455598, 38.458744
18.150, 1.169, -1.101, 2.998, 0.008, 0.010, 2.404, 0.349, -0.347, 2.998, 2.366, 1.114, 0.006, 0.453737, 0.461002, 0.453559, 0.460818, 38.584263
18.200, 1.143, -1.081, 2.998, 0.008, 0.010, 2.400, 0.324, -0.322, 2.999, 2.364, 1.116, 0.006, 0.456600, 0.458116, 0.456601, 0.458114, 38.668022
18.250, 1.118, -1.060, 2.999, 0.008, 0.009, 2.397, 0.299, -0.298, 2.999, 2.363, 1.119, 0.006, 0.456707, 0.458080, 0.456515, 0.457882, 38.793534
18.300, 1.093, -1.040, 2.999, 0.007, 0.009, 2.394, 0.274, -0.273, 2.999, 2.362, 1.121, 0.006, 0.457143, 0.457634, 0.457150, 0.457639, 38.877303
18.350, 1.067, -1.019, 2.999, 0.007, 0.009, 2.391, 0.249, -0.249, 2.999, 2.361, 1.123, 0.005, 0.455272, 0.459577, 0.455061, 0.459360, 39.002827
18.400, 1.042, -0.998, 2.999, 0.007, 0.009, 2.389, 0.225, -0.224, 2.999, 2.360, 1.126, 0.005, 0.457236, 0.457596, 0.457223, 0.457581, 39.086594
18.450, 1.017, -0.976, 3.000, 0.007, 0.009, 2.386, 0.199, -0.199, 2.999, 2.359, 1.128, 0.005, 0.456588, 0.458317, 0.456384, 0.458107, 39.212129
18.500, 0.991, -0.955, 3.000, 0.006, 0.009, 2.383, 0.175, -0.174, 3.000, 2.358, 1.130, 0.004, 0.456818, 0.458024, 0.456800, 0.458003, 39.295892
18.550, 0.966, -0.933, 3.000, 0.006, 0.008, 2.381, 0.150, -0.149, 3.000, 2.358, 1.132, 0.004, 0.456557, 0.458365, 0.456348, 0.458148, 39.421428
18.600, 0.941, -0.911, 3.000, 0.006, 0.008, 2.379, 0.125, -0.125, 3.000, 2.357, 1.133, 0.004, 0.457218, 0.457632, 0.457211, 0.457622, 39.505190
18.650, 0.915, -0.889, 3.000, 0.006, 0.008, 2.377, 0.100, -0.100, 3.000, 2.357, 1.135, 0.004, 0.457424, 0.457505, 0.457259, 0.457335, 39.630728
18.700, 0.890, -0.866, 3.001, 0.006, 0.007, 2.375, 0.075, -0.075, 3.000, 2.356, 1.136, 0.004, 0.458118, 0.456699, 0.458187, 0.456769, 39.714491
18.750, 0.865, -0.844, 3.001, 0.005, 0.007, 2.373, 0.050, -0.050, 3.000, 2.356, 1.138, 0.003, 0.456184, 0.458698, 0.456064, 0.458575, 39.840030
18.800, 0.839, -0.821, 3.001, 0.005, 0.007, 2.371, 0.025, -0.025, 3.000, 2.356, 1.139, 0.003, 0.457149, 0.457625, 0.457217, 0.457695, 39.923779
18.850, 0.814, -0.798, 3.001, 0.005, 0.006, 2.369, -0.000, 0.000, 3.000, 2.356, 1.140, 0.003, 0.457246, 0.457703, 0.457103, 0.457556, 40.049318
18.900, 0.789, -0.775, 3.001, 0.005, 0.006, 2.368, -0.025, 0.025, 3.000, 2.356, 1.141, 0.003, 0.457536, 0.457316, 0.457579, 0.457359, 40.133070
18.950, 0.764, -0.752, 3.001, 0.005, 0.006, 2.366, -0.050, 0.050, 3.000, 2.357, 1.142, 0.003, 0.456649, 0.458387, 0.456472, 0.458205, 40.258629
19.000, 0.738, -0.728, 3.001, 0.005, 0.006, 2.365, -0.075, 0.075, 3.000, 2.357, 1.143, 0.002, 0.457577, 0.457351, 0.457604, 0.457378, 40.342384
19.050, 0.713, -0.705, 3.001, 0.004, 0.006, 2.364, -0.100, 0.100, 3.000, 2.357, 1.144, 0.002, 0.456538, 0.458556, 0.456332, 0.458345, 40.467950
19.100, 0.688, -0.681, 3.001, 0.004, 0.006, 2.362, -0.125, 0.125, 3.000, 2.358, 1.145, 0.002, 0.457120, 0.457843, 0.457102, 0.457824, 40.551700
19.150, 0.663, -0.657, 3.001, 0.004, 0.006, 2.361, -0.150, 0.150, 3.000, 2.358, 1.145, 0.002, 0.457008, 0.458137, 0.456767, 0.457889, 40.677262
19.200, 0.637, -0.633, 3.001, 0.004, 0.006, 2.361, -0.175, 0.175, 3.000, 2.359, 1.146, 0.001, 0.457468, 0.457514, 0.457430, 0.457475, 40.761008
19.250, 0.612, -0.609, 3.001, 0.004, 0.006, 2.360, -0.200, 0.200, 2.999, 2.360, 1.146, 0.001, 0.456765, 0.458336, 0.456525, 0.458091, 40.886561
19.300, 0.587, -0.585, 3.001, 0.004, 0.005, 2.359, -0.225, 0.224, 2.999, 2.361, 1.146, 0.001, 0.457172, 0.457746, 0.457140, 0.457714, 40.970291
19.350, 0.562, -0.560, 3.001, 0.003, 0.005, 2.358, -0.250, 0.249, 2.999, 2.362, 1.146, 0.001, 0.457100, 0.457957, 0.456873, 0.457725, 41.095828
19.400, 0.537, -0.536, 3.001, 0.003, 0.005, 2.358, -0.275, 0.274, 2.999, 2.363, 1.146, 0.001, 0.457200, 0.457669, 0.457181, 0.457651, 41.179545
19.450, 0.512, -0.511, 3.001, 0.003, 0.004, 2.358, -0.300, 0.298, 2.999, 2.365, 1.146, 0.000, 0.457133, 0.457885, 0.456943, 0.457692, 41.305077
19.500, 0.486, -0.487, 3.001, 0.003, 0.004, 2.357, -0.325, 0.323, 2.999, 2.366, 1.146, 0.000, 0.457125, 0.457695, 0.457145, 0.457717, 41.388785
19.550, 0.461, -0.462, 3.000, 0.003, 0.003, 2.357, -0.349, 0.347, 2.998, 2.367, 1.146, 0.000, 0.457194, 0.457829, 0.457033, 0.457664, 41.514321
19.600, 0.436, -0.437, 3.000, 0.003, 0.003, 2.357, -0.374, 0.371, 2.998, 2.369, 1.145, 0.000, 0.457136, 0.457701, 0.457169, 0.457736, 41.598025
19.650, 0.411, -0.413, 3.000, 0.002, 0.003, 2.357, -0.399, 0.395, 2.998, 2.371, 1.144, 0.000, 0.457291, 0.457811, 0.457123, 0.457641, 41.723576
19.700, 0.386, -0.388, 3.000, 0.002, 0.003, 2.357, -0.424, 0.420, 2.997, 2.373, 1.144, 0.001, 0.457166, 0.457747, 0.457186, 0.457769, 41.807286
19.750, 0.361, -0.363, 3.000, 0.002, 0.002, 2.358, -0.449, 0.443, 2.997, 2.375, 1.143, 0.001, 0.457388, 0.457804, 0.457209, 0.457622, 41.932856
19.800, 0.336, -0.338, 2.999, 0.002, 0.002, 2.358, -0.473, 0.467, 2.997, 2.377, 1.142, 0.001, 0.457196, 0.457788, 0.457201, 0.457796, 42.016571
19.850, 0.312, -0.313, 2.999, 0.002, 0.002, 2.358, -0.498, 0.491, 2.997, 2.379, 1.141, 0.001, 0.457647, 0.457635, 0.457434, 0.457418, 42.142154
19.900, 0.287, -0.288, 2.999, 0.002, 0.002, 2.359, -0.523, 0.515, 2.996, 2.381, 1.140, 0.001, 0.457215, 0.457845, 0.457185, 0.457817, 42.225871
19.950, 0.262, -0.263, 2.999, 0.002, 0.002, 2.360, -0.547, 0.538, 2.996, 2.384, 1.139, 0.002, 0.457605, 0.457733, 0.457374, 0.457498, 42.351464
20.000, 0.237, -0.238, 2.998, 0.001, 0.002, 2.361, -0.572, 0.561, 2.995, 2.386, 1.137, 0.002, 0.457172, 0.457903, 0.457135, 0.457868, 42.435178
20.050, 0.213, -0.213, 2.998, 0.001, 0.002, 2.361, -0.596, 0.584, 2.995, 2.389, 1.136, 0.002, 0.457724, 0.457612, 0.457493, 0.457377, 42.560768
20.100, 0.188, -0.188, 2.998, 0.001, 0.001, 2.362, -0.621, 0.607, 2.995, 2.392, 1.134, 0.002, 0.456837, 0.458196, 0.456819, 0.458182, 42.644474
20.150, 0.163, -0.163, 2.997, 0.001, 0.001, 2.363, -0.645, 0.630, 2.994, 2.395, 1.132, 0.002, 0.457107, 0.458098, 0.456960, 0.457949, 42.770052
20.200, 0.139, -0.138, 2.997, 0.001, 0.000, 2.365, -0.670, 0.653, 2.994, 2.398, 1.131, 0.003, 0.456714, 0.458158, 0.456781, 0.458231, 42.853739
20.250, 0.114, -0.113, 2.996, 0.001, -0.000, 2.366, -0.694, 0.675, 2.993, 2.401, 1.129, 0.003, 0.457760, 0.457386, 0.457654, 0.457279, 42.979306
20.300, 0.090, -0.088, 2.996, 0.001, -0.001, 2.367, -0.718, 0.697, 2.993, 2.404, 1.127, 0.003, 0.456533, 0.458317, 0.456617, 0.458407, 43.062983
20.350, 0.065, -0.063, 2.996, 0.000, -0.001, 2.369, -0.742, 0.719, 2.992, 2.408, 1.125, 0.003, 0.457945, 0.457333, 0.457806, 0.457193, 43.188568
20.400, 0.041, -0.038, 2.995, 0.000, -0.001, 2.371, -0.767, 0.741, 2.992, 2.411, 1.122, 0.003, 0.456838, 0.458162, 0.456871, 0.458201, 43.272257
20.450, 0.017, -0.013, 2.995, 0.000, -0.001, 2.372, -0.791, 0.763, 2.991, 2.415, 1.120, 0.004, 0.457925, 0.457497, 0.457742, 0.457313, 43.397872
20.500, -0.008, 0.012, 2.994, 0.000, -0.001, 2.374, -0.815, 0.784, 2.991, 2.419, 1.118, 0.004, 0.456276, 0.458831, 0.456269, 0.458830, 43.481571
20.550, -0.032, 0.036, 2.994, -0.000, -0.001, 2.376, -0.839, 0.806, 2.990, 2.423, 1.115, 0.004, 0.458268, 0.457213, 0.458064, 0.457006, 43.607199
20.600, -0.056, 0.061, 2.993, -0.000, -0.001, 2.378, -0.863, 0.826, 2.989, 2.427, 1.112, 0.004, 0.456289, 0.458823, 0.456274, 0.458814, 43.690894
20.650, -0.080, 0.086, 2.993, -0.000, -0.001, 2.381, -0.887, 0.847, 2.989, 2.432, 1.110, 0.005, 0.458254, 0.457201, 0.458059, 0.457003, 43.816517
20.700, -0.104, 0.110, 2.992, -0.000, -0.002, 2.383, -0.911, 0.868, 2.988, 2.436, 1.107, 0.005, 0.456154, 0.458913, 0.456152, 0.458916, 43.900202
20.750, -0.128, 0.135, 2.991, -0.001, -0.002, 2.385, -0.934, 0.888, 2.987, 2.441, 1.104, 0.005, 0.459216, 0.456255, 0.459022, 0.456057, 44.025821
20.800, -0.151, 0.159, 2.991, -0.001, -0.002, 2.388, -0.958, 0.908, 2.987, 2.446, 1.101, 0.005, 0.456519, 0.458566, 0.456511, 0.458564, 44.109500
20.850, -0.175, 0.183, 2.990, -0.001, -0.003, 2.390, -0.982, 0.928, 2.986, 2.451, 1.098, 0.006, 0.456612, 0.458742, 0.456484, 0.458611, 44.235112
