time, drone_x, drone_y, drone_z, drone_roll, drone_pitch, drone_yaw, target_x, target_y, target_z, target_direction, distance_to_target, aiming_error, m1_power, m2_power, m3_power, m4_power, cumulative_energy
0.000, 0.000, 0.000, 0.999, -0.088, 0.088, -0.013, 0.000, 0.000, 2.000, 0.785, 1.001, 2.350, 0.000, 0.000, 1.000, 0.000, 1.000
0.200, -0.010, -0.015, 1.102, 0.127, -0.123, 0.425, 0.100, 0.100, 2.017, 0.784, 0.929, 0.384, 1.000, 0.729, 1.000, 0.676, 4.405
0.400, -0.067, -0.114, 1.353, -0.026, 0.034, 0.770, 0.200, 0.199, 2.033, 0.781, 0.795, 0.095, 0.000, 0.000, 0.127, 0.172, 4.704
0.600, -0.108, -0.197, 1.537, -0.034, 0.146, 0.871, 0.300, 0.298, 2.050, 0.776, 0.822, 0.011, 0.000, 0.000, 0.000, 0.132, 4.836
0.800, -0.118, -0.231, 1.694, -0.054, 0.214, 0.892, 0.399, 0.395, 2.067, 0.770, 0.893, 0.010, 0.000, 0.089, 0.000, 0.008, 4.934
1.000, -0.091, -0.196, 1.815, -0.027, 0.210, 0.882, 0.498, 0.491, 2.083, 0.761, 0.944, 0.020, 0.899, 1.000, 1.000, 1.000, 8.832
1.200, -0.025, -0.095, 1.909, -0.029, 0.147, 0.859, 0.596, 0.584, 2.100, 0.751, 0.940, 0.028, 1.000, 0.984, 0.993, 1.000, 12.809
1.400, 0.069, 0.051, 1.977, -0.013, 0.071, 0.827, 0.694, 0.675, 2.116, 0.739, 0.894, 0.042, 0.167, 0.158, 0.174, 0.119, 13.427
1.600, 0.175, 0.221, 2.029, -0.002, 0.009, 0.779, 0.791, 0.763, 2.133, 0.724, 0.827, 0.057, 1.000, 1.000, 0.998, 0.946, 17.371
1.800, 0.281, 0.394, 2.065, 0.006, -0.038, 0.723, 0.887, 0.847, 2.149, 0.707, 0.761, 0.081, 0.032, 0.000, 0.024, 0.052, 17.478
2.000, 0.375, 0.556, 2.093, 0.030, -0.052, 0.651, 0.982, 0.928, 2.166, 0.688, 0.715, 0.102, 1.000, 0.990, 1.000, 0.960, 21.428
2.200, 0.460, 0.697, 2.127, 0.051, -0.044, 0.560, 1.076, 1.004, 2.182, 0.665, 0.690, 0.097, 0.000, 0.000, 0.063, 0.109, 21.600
2.400, 0.543, 0.812, 2.151, 0.058, -0.022, 0.474, 1.168, 1.076, 2.199, 0.640, 0.681, 0.074, 0.982, 1.000, 1.000, 0.945, 25.527
2.600, 0.626, 0.903, 2.170, 0.048, -0.006, 0.398, 1.260, 1.143, 2.215, 0.610, 0.679, 0.036, 0.035, 0.043, 0.000, 0.000, 25.605
2.800, 0.713, 0.975, 2.186, 0.029, -0.007, 0.344, 1.350, 1.205, 2.231, 0.577, 0.679, 0.003, 1.000, 1.000, 0.972, 0.982, 29.559
3.000, 0.801, 1.034, 2.201, 0.017, -0.008, 0.314, 1.438, 1.262, 2.247, 0.540, 0.678, 0.030, 0.014, 0.013, 0.000, 0.014, 29.601
3.200, 0.888, 1.086, 2.211, 0.000, -0.009, 0.297, 1.525, 1.313, 2.264, 0.498, 0.679, 0.046, 0.997, 1.000, 0.998, 0.984, 33.580
3.400, 0.970, 1.136, 2.226, -0.010, -0.008, 0.288, 1.610, 1.359, 2.280, 0.450, 0.680, 0.047, 0.029, 0.031, 0.000, 0.000, 33.640
3.600, 1.047, 1.189, 2.242, -0.017, -0.014, 0.275, 1.694, 1.398, 2.296, 0.397, 0.682, 0.038, 0.000, 0.000, 0.000, 0.043, 33.684
3.800, 1.118, 1.244, 2.258, -0.022, -0.009, 0.251, 1.776, 1.431, 2.311, 0.337, 0.685, 0.026, 1.000, 1.000, 1.000, 0.962, 37.645
4.000, 1.185, 1.306, 2.279, -0.028, 0.000, 0.218, 1.855, 1.458, 2.327, 0.270, 0.689, 0.005, 0.093, 0.000, 0.000, 0.057, 37.796
4.200, 1.251, 1.375, 2.289, -0.020, 0.004, 0.167, 1.933, 1.478, 2.343, 0.196, 0.691, 0.016, 0.013, 0.000, 0.000, 0.048, 37.857
4.400, 1.318, 1.449, 2.313, -0.014, 0.020, 0.100, 2.008, 1.492, 2.359, 0.114, 0.692, 0.038, 0.534, 0.577, 0.707, 0.704, 40.379
4.600, 1.391, 1.526, 2.337, 0.007, 0.018, 0.014, 2.081, 1.499, 2.374, 0.024, 0.692, 0.053, 0.952, 1.000, 1.000, 1.000, 44.331
4.800, 1.469, 1.601, 2.354, 0.015, 0.020, -0.088, 2.152, 1.499, 2.389, -0.071, 0.691, 0.060, 0.047, 0.008, 0.000, 0.000, 44.385
5.000, 1.556, 1.671, 2.374, 0.021, 0.012, -0.198, 2.221, 1.493, 2.405, -0.172, 0.689, 0.064, 0.011, 0.000, 0.000, 0.024, 44.420
5.200, 1.646, 1.731, 2.393, 0.025, 0.013, -0.312, 2.287, 1.480, 2.420, -0.276, 0.688, 0.062, 0.024, 0.028, 0.000, 0.000, 44.472
5.400, 1.737, 1.780, 2.410, 0.030, 0.003, -0.426, 2.350, 1.461, 2.435, -0.382, 0.691, 0.053, 0.987, 0.971, 1.000, 1.000, 48.431
5.600, 1.825, 1.817, 2.420, 0.030, 0.009, -0.535, 2.411, 1.435, 2.450, -0.487, 0.700, 0.043, 1.000, 0.972, 1.000, 1.000, 52.403
5.800, 1.909, 1.842, 2.437, 0.031, 0.004, -0.639, 2.469, 1.403, 2.465, -0.588, 0.712, 0.027, 0.001, 0.035, 0.000, 0.000, 52.439
6.000, 1.989, 1.856, 2.456, 0.031, 0.009, -0.732, 2.524, 1.364, 2.479, -0.685, 0.728, 0.011, 0.014, 0.038, 0.000, 0.000, 52.491
6.200, 2.065, 1.862, 2.470, 0.013, 0.008, -0.819, 2.577, 1.319, 2.494, -0.775, 0.746, 0.004, 0.980, 0.960, 1.000, 1.000, 56.431
6.400, 2.139, 1.860, 2.487, 0.012, 0.018, -0.896, 2.627, 1.269, 2.508, -0.859, 0.767, 0.015, 0.989, 0.984, 1.000, 1.000, 60.404
6.600, 2.212, 1.851, 2.502, 0.016, 0.020, -0.968, 2.674, 1.213, 2.523, -0.937, 0.788, 0.024, 1.000, 0.972, 1.000, 1.000, 64.376
6.800, 2.284, 1.835, 2.516, 0.007, 0.011, -1.036, 2.717, 1.151, 2.537, -1.007, 0.810, 0.030, 0.026, 0.000, 0.029, 0.000, 64.431
7.000, 2.355, 1.812, 2.528, -0.006, 0.013, -1.101, 2.758, 1.085, 2.551, -1.072, 0.832, 0.037, 0.006, 0.024, 0.000, 0.008, 64.468
7.200, 2.428, 1.784, 2.540, 0.014, 0.020, -1.165, 2.796, 1.013, 2.565, -1.131, 0.855, 0.039, 0.002, 0.036, 0.000, 0.000, 64.506
7.400, 2.501, 1.750, 2.554, -0.009, 0.008, -1.228, 2.831, 0.937, 2.578, -1.185, 0.877, 0.043, 0.009, 0.016, 0.000, 0.012, 64.542
7.600, 2.574, 1.711, 2.571, 0.022, 0.020, -1.288, 2.862, 0.857, 2.592, -1.235, 0.902, 0.043, 0.014, 0.042, 0.000, 0.000, 64.598
7.800, 2.646, 1.666, 2.581, 0.017, 0.021, -1.349, 2.891, 0.773, 2.605, -1.282, 0.926, 0.046, 0.978, 0.990, 0.997, 1.000, 68.562
8.000, 2.716, 1.614, 2.593, 0.022, 0.023, -1.406, 2.916, 0.686, 2.618, -1.325, 0.950, 0.047, 0.016, 0.051, 0.000, 0.000, 68.629
8.200, 2.782, 1.556, 2.611, 0.015, 0.020, -1.461, 2.938, 0.596, 2.631, -1.365, 0.973, 0.051, 0.026, 0.045, 0.000, 0.000, 68.701
8.400, 2.848, 1.492, 2.629, 0.026, 0.024, -1.513, 2.956, 0.502, 2.644, -1.404, 0.995, 0.051, 0.024, 0.067, 0.000, 0.000, 68.791
8.600, 2.912, 1.422, 2.640, 0.022, 0.018, -1.564, 2.972, 0.407, 2.657, -1.440, 1.017, 0.052, 0.974, 1.000, 0.958, 1.000, 72.723
8.800, 2.973, 1.347, 2.651, 0.044, 0.022, -1.610, 2.984, 0.310, 2.669, -1.475, 1.037, 0.050, 1.000, 1.000, 0.968, 1.000, 76.691
9.000, 3.030, 1.265, 2.667, 0.034, 0.009, -1.655, 2.992, 0.212, 2.682, -1.510, 1.054, 0.048, 0.994, 0.998, 0.925, 1.000, 80.608
9.200, 3.084, 1.179, 2.681, -0.025, -0.000, -1.691, 2.998, 0.112, 2.694, -1.543, 1.070, 0.040, 0.982, 0.919, 0.928, 1.000, 84.438
9.400, 3.137, 1.090, 2.696, -0.006, -0.004, -1.735, 3.000, 0.012, 2.706, -1.577, 1.086, 0.037, 0.983, 0.976, 0.858, 1.000, 88.256
9.600, 3.184, 0.998, 2.704, -0.060, 0.014, -1.770, 2.999, -0.088, 2.717, -1.610, 1.101, 0.030, 1.000, 0.866, 0.952, 1.000, 92.074
9.800, 3.228, 0.900, 2.717, -0.086, -0.008, -1.811, 2.994, -0.187, 2.729, -1.644, 1.112, 0.028, 1.000, 0.949, 0.843, 1.000, 95.866
10.000, 3.267, 0.800, 2.741, -0.070, 0.023, -1.847, 2.986, -0.286, 2.740, -1.678, 1.122, 0.023, 1.000, 0.967, 0.927, 1.000, 99.760
10.200, 3.301, 0.696, 2.751, -0.075, -0.041, -1.887, 2.975, -0.383, 2.751, -1.714, 1.127, 0.023, 0.000, 0.000, 0.000, 0.224, 99.984
10.400, 3.342, 0.597, 2.777, 0.102, 0.054, -1.918, 2.960, -0.479, 2.762, -1.751, 1.142, 0.007, 0.020, 0.041, 0.197, 0.000, 100.242
10.600, 3.376, 0.497, 2.791, 0.240, 0.054, -1.957, 2.943, -0.573, 2.773, -1.790, 1.154, 0.001, 0.000, 0.143, 0.232, 0.000, 100.617
10.800, 3.400, 0.402, 2.801, 0.198, 0.069, -2.000, 2.922, -0.664, 2.783, -1.832, 1.168, 0.007, 0.000, 0.046, 0.263, 0.000, 100.925
11.000, 3.418, 0.302, 2.817, 0.137, 0.027, -2.047, 2.897, -0.752, 2.794, -1.876, 1.176, 0.017, 0.943, 1.000, 1.000, 1.000, 104.868
11.200, 3.432, 0.191, 2.826, 0.056, -0.003, -2.085, 2.870, -0.837, 2.804, -1.923, 1.171, 0.013, 0.057, 0.000, 0.000, 0.022, 104.947
11.400, 3.443, 0.077, 2.823, -0.101, -0.014, -2.123, 2.839, -0.918, 2.813, -1.975, 1.164, 0.007, 1.000, 0.866, 0.827, 1.000, 108.640
11.600, 3.454, -0.036, 2.820, -0.179, -0.050, -2.157, 2.805, -0.995, 2.823, -2.031, 1.158, 0.008, 1.000, 0.994, 0.692, 1.000, 112.326
11.800, 3.472, -0.135, 2.834, -0.057, 0.018, -2.221, 2.768, -1.067, 2.832, -2.092, 1.168, 0.004, 0.640, 0.796, 0.578, 1.000, 115.340
12.000, 3.484, -0.237, 2.861, 0.234, 0.044, -2.260, 2.728, -1.135, 2.841, -2.158, 1.174, 0.011, 0.000, 0.188, 0.452, 0.000, 115.980
12.200, 3.488, -0.339, 2.877, 0.213, 0.067, -2.316, 2.685, -1.198, 2.850, -2.231, 1.176, 0.007, 0.000, 0.150, 0.450, 0.000, 116.580
12.400, 3.495, -0.448, 2.870, 0.160, -0.031, -2.364, 2.639, -1.255, 2.859, -2.311, 1.177, 0.021, 0.022, 0.000, 0.090, 0.000, 116.692
12.600, 3.513, -0.547, 2.873, 0.045, -0.027, -2.464, 2.590, -1.307, 2.867, -2.397, 1.197, 0.012, 1.000, 0.859, 0.923, 1.000, 120.475
12.800, 3.539, -0.629, 2.875, -0.194, 0.041, -2.524, 2.538, -1.353, 2.876, -2.490, 1.235, 0.009, 0.054, 0.000, 0.000, 0.243, 120.772
13.000, 3.559, -0.723, 2.888, -0.130, 0.077, -2.604, 2.483, -1.394, 2.884, -2.589, 1.268, 0.020, 0.881, 1.000, 0.705, 1.000, 124.358
13.200, 3.563, -0.836, 2.907, 0.108, 0.032, -2.656, 2.425, -1.427, 2.891, -2.692, 1.282, 0.006, 0.000, 0.051, 0.172, 0.000, 124.582
13.400, 3.559, -0.971, 2.907, 0.192, -0.052, -2.731, 2.365, -1.455, 2.899, -2.797, 1.288, 0.026, 0.873, 1.000, 1.000, 0.989, 128.443
13.600, 3.560, -1.109, 2.894, -0.075, -0.007, -2.826, 2.302, -1.476, 2.906, -2.902, 1.310, 0.032, 1.000, 0.860, 0.798, 1.000, 132.101
13.800, 3.568, -1.250, 2.890, -0.159, 0.027, -2.946, 2.237, -1.491, 2.913, -3.006, 1.353, 0.017, 0.970, 1.000, 0.713, 1.000, 135.784
14.000, 3.573, -1.393, 2.907, -0.013, 0.054, -3.033, 2.169, -1.498, 2.919, -3.105, 1.407, 0.034, 0.159, 0.070, 0.130, 0.237, 136.380
14.200, 3.557, -1.543, 2.938, 0.163, 0.025, -3.133, 2.099, -1.500, 2.926, 3.085, 1.459, 0.038, 0.496, 0.867, 0.437, 0.083, 138.264
14.400, 3.415, -1.677, 2.982, 0.342, 0.707, 3.032, 2.026, -1.494, 2.932, 2.998, 1.401, 0.021, 0.028, 0.150, 0.000, 0.000, 138.441
14.600, 3.010, -1.694, 2.991, 0.392, 0.373, 3.058, 1.952, -1.482, 2.938, 2.919, 1.081, 0.113, 0.073, 0.000, 0.071, 0.000, 138.585
14.800, 2.515, -1.576, 2.912, 0.295, -0.134, 2.955, 1.875, -1.464, 2.944, 2.847, 0.651, 0.012, 0.511, 0.488, 0.503, 0.409, 140.496
15.000, 2.137, -1.386, 2.825, -0.022, -0.557, 2.928, 1.795, -1.438, 2.949, 2.783, 0.368, 0.366, 0.972, 1.000, 0.751, 1.000, 144.219
15.200, 2.034, -1.248, 2.849, -0.383, -0.084, -3.118, 1.714, -1.407, 2.954, 2.725, 0.372, 0.437, 1.000, 0.772, 1.000, 1.000, 147.991
15.400, 2.019, -1.244, 2.906, -0.391, -0.083, -2.858, 1.631, -1.369, 2.959, 2.674, 0.411, 0.029, 1.000, 0.825, 0.859, 0.889, 151.563
15.600, 2.071, -1.336, 2.918, -0.143, -0.231, -2.956, 1.547, -1.325, 2.964, 2.628, 0.527, 0.206, 0.073, 0.000, 0.000, 0.041, 151.677
15.800, 2.207, -1.434, 2.904, 0.205, -0.111, 3.128, 1.460, -1.275, 2.968, 2.588, 0.766, 0.196, 0.526, 0.372, 0.480, 0.313, 153.369
16.000, 2.288, -1.518, 2.951, 0.104, 0.536, 2.969, 1.372, -1.220, 2.972, 2.552, 0.964, 0.142, 0.191, 0.000, 0.000, 0.000, 153.560
16.200, 2.189, -1.553, 2.977, 0.207, 0.337, 2.843, 1.282, -1.159, 2.976, 2.520, 0.989, 0.111, 0.000, 0.000, 0.051, 0.039, 153.649
16.400, 1.987, -1.476, 2.962, 0.136, 0.129, 2.737, 1.191, -1.093, 2.979, 2.493, 0.883, 0.044, 0.000, 0.000, 0.003, 0.024, 153.676
16.600, 1.761, -1.332, 2.930, 0.064, -0.066, 2.672, 1.099, -1.022, 2.982, 2.468, 0.733, 0.033, 0.000, 0.000, 0.008, 0.012, 153.696
16.800, 1.570, -1.177, 2.897, 0.006, -0.159, 2.661, 1.005, -0.947, 2.985, 2.447, 0.616, 0.094, 0.000, 0.028, 0.024, 0.034, 153.783
17.000, 1.438, -1.050, 2.898, -0.052, -0.118, 2.703, 0.910, -0.867, 2.988, 2.428, 0.566, 0.106, 0.000, 0.019, 0.023, 0.025, 153.849
17.200, 1.341, -0.960, 2.899, -0.051, -0.041, 2.753, 0.814, -0.784, 2.991, 2.412, 0.563, 0.065, 0.000, 0.010, 0.014, 0.000, 153.873
17.400, 1.251, -0.896, 2.904, -0.021, 0.017, 2.776, 0.718, -0.697, 2.993, 2.398, 0.576, 0.009, 1.000, 0.962, 1.000, 0.975, 157.810
17.600, 1.154, -0.838, 2.905, 0.006, 0.027, 2.762, 0.620, -0.607, 2.995, 2.387, 0.588, 0.029, 1.000, 0.959, 1.000, 0.981, 161.750
17.800, 1.049, -0.775, 2.904, 0.019, 0.005, 2.722, 0.522, -0.514, 2.996, 2.377, 0.595, 0.040, 0.000, 0.030, 0.000, 0.008, 161.788
18.000, 0.944, -0.704, 2.908, 0.016, -0.003, 2.676, 0.423, -0.419, 2.997, 2.369, 0.600, 0.035, 0.000, 0.048, 0.000, 0.020, 161.856
18.200, 0.844, -0.627, 2.911, 0.020, -0.012, 2.636, 0.324, -0.322, 2.999, 2.364, 0.609, 0.024, 1.000, 0.977, 1.000, 0.997, 165.829
18.400, 0.753, -0.545, 2.908, 0.009, -0.016, 2.604, 0.225, -0.224, 2.999, 2.359, 0.625, 0.010, 0.000, 0.039, 0.000, 0.028, 165.896
18.600, 0.667, -0.463, 2.914, 0.003, -0.001, 2.584, 0.125, -0.125, 3.000, 2.357, 0.645, 0.000, 0.568, 0.536, 0.581, 0.578, 168.160
18.800, 0.583, -0.378, 2.915, 0.007, 0.011, 2.571, 0.025, -0.025, 3.000, 2.356, 0.666, 0.007, 1.000, 0.982, 0.975, 1.000, 172.116
19.000, 0.497, -0.290, 2.916, 0.011, 0.011, 2.561, -0.075, 0.075, 3.000, 2.357, 0.684, 0.013, 0.000, 0.037, 0.005, 0.004, 172.163
19.200, 0.410, -0.197, 2.927, 0.006, 0.012, 2.557, -0.175, 0.175, 3.000, 2.360, 0.698, 0.019, 0.000, 0.037, 0.002, 0.012, 172.214
19.400, 0.321, -0.101, 2.926, 0.004, 0.004, 2.556, -0.275, 0.274, 2.999, 2.364, 0.708, 0.024, 1.000, 0.980, 1.000, 0.997, 176.192
19.600, 0.231, -0.003, 2.926, 0.003, 0.005, 2.560, -0.374, 0.371, 2.998, 2.370, 0.715, 0.027, 0.000, 0.029, 0.000, 0.019, 176.239
19.800, 0.139, 0.097, 2.930, 0.005, -0.001, 2.567, -0.473, 0.467, 2.997, 2.378, 0.719, 0.031, 1.000, 0.985, 0.997, 0.987, 180.209
20.000, 0.049, 0.197, 2.937, -0.002, -0.002, 2.577, -0.572, 0.561, 2.995, 2.388, 0.722, 0.034, 0.000, 0.026, 0.000, 0.024, 180.258
20.200, -0.041, 0.295, 2.936, 0.004, -0.005, 2.589, -0.670, 0.653, 2.994, 2.400, 0.726, 0.037, 1.000, 0.979, 1.000, 0.984, 184.222
20.400, -0.129, 0.393, 2.938, -0.001, -0.004, 2.603, -0.767, 0.741, 2.992, 2.414, 0.729, 0.039, 1.000, 0.978, 1.000, 0.985, 188.184
20.600, -0.215, 0.488, 2.941, -0.003, -0.005, 2.620, -0.863, 0.826, 2.989, 2.430, 0.732, 0.040, 0.000, 0.027, 0.001, 0.029, 188.240
20.800, -0.300, 0.581, 2.940, -0.008, -0.005, 2.638, -0.958, 0.908, 2.987, 2.449, 0.736, 0.043, 0.000, 0.031, 0.000, 0.032, 188.303
21.000, -0.383, 0.672, 2.939, -0.007, -0.005, 2.659, -1.052, 0.985, 2.984, 2.471, 0.741, 0.046, 0.000, 0.032, 0.000, 0.032, 188.367
21.200, -0.464, 0.761, 2.937, -0.003, -0.004, 2.683, -1.145, 1.059, 2.981, 2.495, 0.745, 0.047, 1.000, 0.983, 1.000, 0.984, 192.334
21.400, -0.544, 0.848, 2.941, -0.005, -0.004, 2.709, -1.237, 1.127, 2.977, 2.524, 0.748, 0.050, 1.000, 0.989, 1.000, 0.989, 196.312
21.600, -0.624, 0.933, 2.935, -0.001, -0.010, 2.737, -1.328, 1.191, 2.974, 2.556, 0.751, 0.054, 1.000, 0.982, 1.000, 0.983, 200.277
21.800, -0.701, 1.016, 2.943, -0.003, -0.002, 2.770, -1.416, 1.249, 2.970, 2.592, 0.753, 0.057, 0.000, 0.040, 0.000, 0.039, 200.355
22.000, -0.778, 1.096, 2.938, -0.005, -0.007, 2.805, -1.504, 1.301, 2.966, 2.633, 0.755, 0.061, 0.624, 0.589, 0.629, 0.592, 202.789
22.200, -0.853, 1.174, 2.935, -0.006, -0.004, 2.845, -1.590, 1.348, 2.961, 2.679, 0.757, 0.064, 0.012, 0.000, 0.026, 0.000, 202.828
22.400, -0.928, 1.250, 2.933, -0.006, -0.010, 2.888, -1.673, 1.389, 2.957, 2.731, 0.759, 0.069, 0.000, 0.033, 0.005, 0.032, 202.898
22.600, -1.000, 1.324, 2.930, -0.013, -0.006, 2.936, -1.755, 1.424, 2.952, 2.789, 0.762, 0.075, 0.000, 0.034, 0.000, 0.043, 202.975
22.800, -1.071, 1.394, 2.931, -0.006, -0.007, 2.988, -1.836, 1.452, 2.946, 2.854, 0.767, 0.079, 0.000, 0.034, 0.006, 0.029, 203.046
23.000, -1.141, 1.462, 2.932, -0.008, 0.014, 3.043, -1.914, 1.474, 2.941, 2.927, 0.773, 0.084, 1.000, 0.952, 0.997, 0.976, 206.970
23.200, -1.215, 1.527, 2.929, 0.020, 0.003, 3.104, -1.990, 1.489, 2.935, 3.007, 0.775, 0.087, 0.999, 0.958, 1.000, 0.981, 210.908
23.400, -1.293, 1.593, 2.927, -0.128, 0.074, -3.119, -2.063, 1.498, 2.929, 3.094, 0.776, 0.100, 0.486, 1.000, 1.000, 0.868, 214.261
23.600, -1.415, 1.599, 2.915, -0.446, 0.089, -3.016, -2.135, 1.500, 2.923, -3.095, 0.727, 0.010, 1.000, 0.647, 0.967, 1.000, 217.875
23.800, -1.560, 1.468, 2.893, -0.152, -0.151, -3.001, -2.204, 1.495, 2.916, -2.995, 0.645, 0.183, 1.000, 0.852, 1.000, 0.978, 221.705
24.000, -1.641, 1.288, 2.867, 0.150, -0.083, 3.115, -2.270, 1.484, 2.909, -2.891, 0.661, 0.275, 0.155, 0.000, 0.797, 1.000, 223.658
24.200, -1.725, 1.193, 2.891, 0.427, 0.218, 2.900, -2.334, 1.466, 2.902, -2.786, 0.667, 0.179, 0.086, 0.059, 0.000, 0.105, 223.908
24.400, -1.839, 1.283, 2.903, 0.255, -0.136, 2.750, -2.396, 1.442, 2.895, -2.681, 0.579, 0.113, 0.000, 0.043, 0.000, 0.104, 224.054
24.600, -1.873, 1.455, 2.873, 0.015, -0.339, 2.899, -2.455, 1.411, 2.887, -2.578, 0.584, 0.317, 0.970, 1.000, 0.921, 1.000, 227.945
24.800, -1.782, 1.600, 2.872, -0.183, -0.098, 3.124, -2.511, 1.374, 2.880, -2.480, 0.763, 0.319, 1.000, 0.976, 1.000, 0.947, 231.868
25.000, -1.680, 1.684, 2.914, 0.093, 0.389, -2.937, -2.564, 1.331, 2.872, -2.388, 0.954, 0.176, 1.000, 0.871, 1.000, 0.911, 235.649
25.200, -1.721, 1.735, 2.965, -0.130, 0.401, -2.759, -2.615, 1.282, 2.863, -2.302, 1.007, 0.086, 0.051, 0.027, 0.131, 0.000, 235.858
25.400, -1.862, 1.683, 2.955, -0.204, 0.202, -2.661, -2.662, 1.227, 2.855, -2.224, 0.927, 0.037, 0.335, 0.284, 0.311, 0.246, 237.035
25.600, -2.028, 1.535, 2.905, -0.098, 0.007, -2.630, -2.707, 1.167, 2.846, -2.151, 0.774, 0.014, 0.003, 0.000, 0.035, 0.000, 237.074
25.800, -2.179, 1.354, 2.856, 0.014, -0.101, -2.660, -2.748, 1.102, 2.837, -2.085, 0.623, 0.065, 0.017, 0.035, 0.008, 0.000, 237.134
26.000, -2.296, 1.195, 2.831, 0.084, -0.105, -2.717, -2.787, 1.031, 2.828, -2.025, 0.517, 0.101, 0.000, 0.032, 0.013, 0.000, 237.179
26.200, -2.388, 1.085, 2.821, 0.094, -0.071, -2.780, -2.822, 0.956, 2.818, -1.969, 0.453, 0.074, 0.000, 0.065, 0.002, 0.000, 237.247
26.400, -2.466, 1.018, 2.820, 0.075, -0.014, -2.797, -2.855, 0.877, 2.808, -1.918, 0.414, 0.003, 1.000, 1.000, 1.000, 0.969, 241.216
26.600, -2.542, 0.979, 2.809, 0.034, -0.013, -2.748, -2.884, 0.794, 2.799, -1.871, 0.389, 0.103, 0.000, 0.056, 0.000, 0.000, 241.272
26.800, -2.618, 0.954, 2.792, -0.005, -0.013, -2.623, -2.910, 0.708, 2.788, -1.827, 0.382, 0.181, 0.984, 0.966, 0.980, 1.000, 245.202
27.000, -2.687, 0.930, 2.773, -0.024, -0.015, -2.449, -2.933, 0.618, 2.778, -1.786, 0.397, 0.211, 0.000, 0.063, 0.000, 0.000, 245.265
27.200, -2.745, 0.903, 2.755, -0.013, 0.017, -2.267, -2.952, 0.526, 2.767, -1.747, 0.431, 0.194, 0.013, 0.067, 0.000, 0.000, 245.345
27.400, -2.796, 0.868, 2.742, -0.056, 0.004, -2.103, -2.968, 0.431, 2.757, -1.710, 0.469, 0.157, 0.000, 0.000, 0.054, 0.017, 245.415
27.600, -2.837, 0.817, 2.728, -0.029, 0.027, -1.980, -2.981, 0.334, 2.746, -1.675, 0.504, 0.120, 0.642, 0.647, 0.694, 0.664, 248.062
27.800, -2.872, 0.753, 2.711, -0.031, 0.040, -1.889, -2.991, 0.236, 2.734, -1.640, 0.530, 0.093, 0.727, 0.734, 0.694, 0.645, 250.863
28.000, -2.901, 0.674, 2.696, -0.011, 0.022, -1.820, -2.997, 0.137, 2.723, -1.607, 0.546, 0.072, 1.000, 0.876, 1.000, 1.000, 254.739
28.200, -2.926, 0.586, 2.681, -0.000, 0.017, -1.771, -3.000, 0.037, 2.711, -1.573, 0.554, 0.066, 0.977, 0.944, 1.000, 1.000, 258.660
28.400, -2.950, 0.489, 2.665, -0.009, 0.032, -1.728, -2.999, -0.063, 2.700, -1.540, 0.555, 0.068, 0.025, 0.073, 0.000, 0.000, 258.758
28.600, -2.973, 0.386, 2.650, -0.004, 0.002, -1.682, -2.996, -0.163, 2.688, -1.506, 0.550, 0.069, 0.000, 0.021, 0.010, 0.000, 258.789
28.800, -2.994, 0.278, 2.634, -0.012, 0.015, -1.636, -2.988, -0.261, 2.675, -1.472, 0.541, 0.075, 0.060, 0.062, 0.000, 0.000, 258.911
29.000, -3.013, 0.170, 2.617, -0.010, -0.005, -1.583, -2.978, -0.359, 2.663, -1.436, 0.533, 0.078, 0.971, 0.900, 1.000, 1.000, 262.782
29.200, -3.029, 0.061, 2.600, -0.004, 0.021, -1.532, -2.964, -0.456, 2.651, -1.400, 0.523, 0.086, 0.027, 0.078, 0.000, 0.000, 262.888
29.400, -3.041, -0.051, 2.584, -0.019, -0.024, -1.468, -2.947, -0.550, 2.638, -1.361, 0.510, 0.084, 0.000, 0.000, 0.064, 0.018, 262.970
29.600, -3.049, -0.162, 2.569, -0.012, -0.009, -1.412, -2.927, -0.641, 2.625, -1.320, 0.498, 0.089, 0.000, 0.061, 0.000, 0.000, 263.031
29.800, -3.051, -0.271, 2.555, -0.013, -0.015, -1.349, -2.904, -0.730, 2.612, -1.277, 0.486, 0.088, 0.991, 0.931, 1.000, 1.000, 266.953
30.000, -3.047, -0.376, 2.542, -0.004, 0.027, -1.292, -2.877, -0.816, 2.598, -1.230, 0.475, 0.091, 0.028, 0.087, 0.000, 0.000, 267.068
30.200, -3.038, -0.479, 2.537, -0.017, 0.000, -1.230, -2.847, -0.898, 2.585, -1.180, 0.463, 0.088, 0.000, 0.081, 0.018, 0.000, 267.168
30.400, -3.024, -0.577, 2.520, -0.009, 0.011, -1.170, -2.814, -0.976, 2.571, -1.125, 0.454, 0.084, 1.000, 0.980, 0.972, 1.000, 271.120
30.600, -3.005, -0.673, 2.504, -0.007, -0.015, -1.111, -2.777, -1.050, 2.558, -1.066, 0.444, 0.082, 0.000, 0.043, 0.047, 0.000, 271.211
30.800, -2.982, -0.762, 2.500, -0.013, 0.017, -1.053, -2.738, -1.119, 2.544, -1.000, 0.434, 0.082, 1.000, 0.970, 0.981, 1.000, 275.162
31.000, -2.956, -0.849, 2.483, -0.010, -0.004, -0.992, -2.696, -1.183, 2.530, -0.929, 0.426, 0.083, 0.005, 0.100, 0.005, 0.000, 275.271
31.200, -2.926, -0.932, 2.468, -0.005, -0.005, -0.927, -2.650, -1.242, 2.516, -0.851, 0.418, 0.084, 0.993, 0.914, 1.000, 1.000, 279.178
31.400, -2.895, -1.013, 2.462, -0.010, 0.023, -0.858, -2.602, -1.295, 2.501, -0.766, 0.409, 0.091, 0.040, 0.094, 0.000, 0.000, 279.312
31.600, -2.861, -1.091, 2.445, -0.014, -0.003, -0.781, -2.551, -1.343, 2.487, -0.675, 0.402, 0.100, 0.378, 0.291, 0.316, 0.376, 280.672
31.800, -2.825, -1.166, 2.434, 0.000, 0.018, -0.692, -2.497, -1.384, 2.472, -0.578, 0.396, 0.106, 0.000, 0.083, 0.021, 0.000, 280.777
32.000, -2.785, -1.241, 2.420, -0.018, -0.005, -0.596, -2.440, -1.420, 2.457, -0.476, 0.390, 0.119, 0.995, 0.940, 0.986, 1.000, 284.698
32.200, -2.740, -1.314, 2.403, -0.023, -0.019, -0.484, -2.380, -1.449, 2.442, -0.371, 0.386, 0.126, 0.987, 0.894, 1.000, 1.000, 288.579
32.400, -2.691, -1.380, 2.385, -0.001, 0.019, -0.373, -2.318, -1.471, 2.427, -0.265, 0.386, 0.133, 0.000, 0.106, 0.040, 0.000, 288.724
32.600, -2.635, -1.439, 2.368, -0.021, -0.001, -0.251, -2.254, -1.488, 2.412, -0.161, 0.387, 0.124, 0.996, 0.955, 1.000, 1.000, 292.675
32.800, -2.573, -1.485, 2.357, -0.046, -0.027, -0.137, -2.186, -1.497, 2.397, -0.061, 0.389, 0.106, 0.000, 0.074, 0.105, 0.000, 292.854
33.000, -2.512, -1.511, 2.347, -0.024, 0.007, -0.049, -2.117, -1.500, 2.382, 0.034, 0.397, 0.076, 1.000, 0.916, 1.000, 1.000, 296.771
33.200, -2.451, -1.523, 2.331, -0.016, 0.003, 0.018, -2.045, -1.496, 2.366, 0.123, 0.409, 0.047, 0.000, 0.071, 0.010, 0.000, 296.851
33.400, -2.390, -1.526, 2.314, 0.002, -0.003, 0.067, -1.970, -1.486, 2.351, 0.204, 0.423, 0.028, 0.988, 0.927, 1.000, 1.000, 300.766
33.600, -2.328, -1.524, 2.305, -0.020, 0.011, 0.106, -1.894, -1.469, 2.335, 0.277, 0.439, 0.020, 1.000, 0.845, 0.957, 1.000, 304.568
33.800, -2.262, -1.519, 2.297, -0.021, 0.007, 0.143, -1.815, -1.445, 2.319, 0.344, 0.454, 0.020, 0.021, 0.000, 0.000, 0.043, 304.632
34.000, -2.193, -1.513, 2.286, -0.001, 0.017, 0.183, -1.735, -1.415, 2.303, 0.403, 0.470, 0.027, 0.000, 0.104, 0.000, 0.000, 304.737
34.200, -2.119, -1.507, 2.274, -0.010, 0.009, 0.232, -1.652, -1.379, 2.287, 0.456, 0.484, 0.037, 1.000, 0.933, 1.000, 1.000, 308.670
34.400, -2.040, -1.497, 2.259, -0.005, -0.002, 0.285, -1.568, -1.337, 2.271, 0.503, 0.499, 0.042, 0.975, 0.928, 1.000, 1.000, 312.572
34.600, -1.960, -1.479, 2.243, 0.003, 0.004, 0.341, -1.482, -1.288, 2.255, 0.544, 0.516, 0.039, 0.000, 0.064, 0.074, 0.000, 312.710
34.800, -1.878, -1.456, 2.233, -0.022, 0.015, 0.392, -1.394, -1.234, 2.239, 0.581, 0.533, 0.036, 0.019, 0.063, 0.000, 0.000, 312.792
35.000, -1.795, -1.423, 2.217, -0.011, 0.004, 0.441, -1.304, -1.175, 2.223, 0.614, 0.550, 0.027, 0.999, 0.937, 1.000, 1.000, 316.727
35.200, -1.712, -1.382, 2.200, -0.009, 0.007, 0.480, -1.214, -1.110, 2.207, 0.642, 0.568, 0.020, 0.000, 0.084, 0.000, 0.000, 316.812
35.400, -1.627, -1.336, 2.184, -0.018, 0.014, 0.515, -1.122, -1.040, 2.190, 0.668, 0.586, 0.014, 1.000, 0.914, 0.967, 1.000, 320.693
35.600, -1.542, -1.281, 2.168, 0.000, 0.008, 0.543, -1.028, -0.966, 2.174, 0.690, 0.603, 0.008, 0.000, 0.061, 0.035, 0.000, 320.789
35.800, -1.454, -1.222, 2.154, -0.006, 0.010, 0.567, -0.934, -0.887, 2.158, 0.709, 0.619, 0.004, 1.000, 0.905, 1.000, 1.000, 324.694
36.000, -1.365, -1.158, 2.141, -0.003, 0.014, 0.587, -0.838, -0.805, 2.141, 0.726, 0.634, 0.003, 0.000, 0.051, 0.009, 0.000, 324.754
36.200, -1.272, -1.088, 2.127, -0.002, 0.013, 0.606, -0.742, -0.719, 2.125, 0.740, 0.646, 0.002, 1.000, 0.951, 1.000, 0.997, 328.701
36.400, -1.178, -1.014, 2.116, -0.011, 0.006, 0.622, -0.644, -0.629, 2.108, 0.752, 0.657, 0.002, 1.000, 0.949, 0.953, 1.000, 332.603
36.600, -1.083, -0.936, 2.102, -0.012, 0.008, 0.635, -0.546, -0.537, 2.091, 0.762, 0.669, 0.004, 0.282, 0.240, 0.280, 0.298, 333.702
36.800, -0.988, -0.855, 2.091, -0.002, -0.001, 0.647, -0.448, -0.443, 2.075, 0.770, 0.680, 0.005, 0.000, 0.019, 0.051, 0.003, 333.775
37.000, -0.894, -0.772, 2.077, -0.003, 0.008, 0.657, -0.349, -0.346, 2.058, 0.777, 0.692, 0.005, 0.000, 0.025, 0.015, 0.000, 333.816
37.200, -0.800, -0.686, 2.061, -0.003, 0.006, 0.666, -0.249, -0.248, 2.042, 0.781, 0.704, 0.005, 1.000, 0.985, 0.994, 0.982, 337.777
37.400, -0.706, -0.597, 2.053, -0.007, 0.006, 0.671, -0.149, -0.149, 2.025, 0.784, 0.715, 0.006, 1.000, 0.999, 0.985, 0.999, 341.760
37.600, -0.612, -0.504, 2.042, -0.002, 0.006, 0.677, -0.050, -0.050, 2.008, 0.785, 0.724, 0.003, 0.229, 0.206, 0.195, 0.171, 342.561
37.800, -0.518, -0.408, 2.031, -0.007, 0.005, 0.677, 0.050, 0.050, 1.992, 0.785, 0.732, 0.002, 1.000, 0.990, 0.984, 0.983, 346.518
38.000, -0.425, -0.311, 2.016, 0.002, 0.008, 0.673, 0.150, 0.150, 1.975, 0.783, 0.738, 0.003, 0.000, 0.000, 0.034, 0.002, 346.555
38.200, -0.329, -0.211, 2.007, -0.009, 0.004, 0.668, 0.250, 0.249, 1.958, 0.779, 0.742, 0.003, 1.000, 0.999, 0.980, 0.981, 350.514
38.400, -0.235, -0.110, 1.992, 0.000, 0.001, 0.662, 0.350, 0.347, 1.942, 0.773, 0.744, 0.002, 0.000, 0.000, 0.042, 0.038, 350.594
38.600, -0.141, -0.008, 1.971, 0.001, 0.000, 0.650, 0.449, 0.444, 1.925, 0.766, 0.744, 0.004, 0.000, 0.000, 0.018, 0.051, 350.663
38.800, -0.048, 0.094, 1.951, -0.008, -0.002, 0.640, 0.547, 0.538, 1.908, 0.756, 0.744, 0.002, 0.000, 0.000, 0.025, 0.071, 350.759
39.000, 0.043, 0.197, 1.941, 0.010, 0.000, 0.625, 0.645, 0.630, 1.892, 0.745, 0.743, 0.001, 1.000, 1.000, 1.000, 0.943, 354.703
39.200, 0.136, 0.298, 1.932, -0.004, 0.006, 0.601, 0.743, 0.720, 1.875, 0.732, 0.741, 0.006, 0.039, 0.000, 0.000, 0.029, 354.771
39.400, 0.230, 0.398, 1.920, 0.005, -0.002, 0.582, 0.839, 0.806, 1.859, 0.716, 0.736, 0.008, 0.000, 0.000, 0.000, 0.047, 354.817
39.600, 0.323, 0.495, 1.903, -0.000, -0.007, 0.564, 0.935, 0.888, 1.842, 0.698, 0.729, 0.007, 1.000, 1.000, 1.000, 0.938, 358.755
39.800, 0.414, 0.591, 1.888, 0.007, -0.007, 0.540, 1.029, 0.967, 1.826, 0.677, 0.723, 0.008, 0.000, 0.000, 0.000, 0.075, 358.830
40.000, 0.503, 0.683, 1.867, -0.004, -0.011, 0.514, 1.122, 1.041, 1.809, 0.653, 0.717, 0.010, 0.000, 0.000, 0.000, 0.107, 358.937
40.200, 0.591, 0.771, 1.855, 0.005, -0.008, 0.487, 1.215, 1.111, 1.793, 0.625, 0.713, 0.010, 0.017, 0.000, 0.004, 0.032, 358.990
40.400, 0.676, 0.855, 1.842, 0.013, -0.003, 0.458, 1.305, 1.175, 1.777, 0.594, 0.709, 0.012, 0.000, 0.000, 0.000, 0.047, 359.036
40.600, 0.761, 0.935, 1.831, 0.001, -0.005, 0.429, 1.395, 1.235, 1.761, 0.559, 0.704, 0.013, 1.000, 1.000, 1.000, 0.892, 362.929
40.800, 0.845, 1.013, 1.818, 0.010, -0.004, 0.396, 1.482, 1.289, 1.744, 0.520, 0.699, 0.013, 0.016, 0.044, 0.052, 0.000, 363.040
41.000, 0.927, 1.088, 1.804, 0.012, -0.007, 0.359, 1.568, 1.337, 1.728, 0.475, 0.692, 0.010, 0.003, 0.000, 0.000, 0.041, 363.084
41.200, 1.007, 1.161, 1.791, 0.008, -0.014, 0.318, 1.653, 1.379, 1.712, 0.424, 0.686, 0.008, 0.993, 0.990, 1.000, 0.971, 367.038
41.400, 1.085, 1.229, 1.775, -0.007, -0.007, 0.273, 1.735, 1.416, 1.696, 0.368, 0.681, 0.006, 0.003, 0.000, 0.000, 0.084, 367.125
41.600, 1.160, 1.295, 1.764, 0.006, -0.001, 0.223, 1.816, 1.445, 1.681, 0.304, 0.678, 0.003, 0.988, 1.000, 0.993, 0.975, 371.081
41.800, 1.234, 1.357, 1.751, 0.010, -0.009, 0.171, 1.894, 1.469, 1.665, 0.233, 0.676, 0.003, 0.098, 0.105, 0.164, 0.085, 371.534
42.000, 1.305, 1.416, 1.736, -0.001, 0.002, 0.110, 1.971, 1.486, 1.649, 0.155, 0.675, 0.006, 1.000, 0.988, 0.987, 0.968, 375.477
42.200, 1.376, 1.474, 1.719, 0.010, -0.002, 0.044, 2.045, 1.496, 1.634, 0.070, 0.675, 0.010, 0.994, 1.000, 1.000, 0.954, 379.424
42.400, 1.447, 1.528, 1.709, 0.000, 0.006, -0.027, 2.117, 1.500, 1.618, -0.023, 0.677, 0.014, 0.038, 0.000, 0.000, 0.042, 379.504
42.600, 1.521, 1.580, 1.691, 0.010, 0.005, -0.104, 2.187, 1.497, 1.603, -0.122, 0.677, 0.019, 0.993, 1.000, 1.000, 0.975, 383.472
42.800, 1.595, 1.629, 1.673, 0.005, 0.011, -0.188, 2.254, 1.487, 1.588, -0.224, 0.679, 0.023, 0.002, 0.011, 0.000, 0.026, 383.512
43.000, 1.673, 1.674, 1.658, 0.009, 0.011, -0.276, 2.319, 1.471, 1.572, -0.330, 0.682, 0.028, 1.000, 0.988, 1.000, 0.993, 387.492
43.200, 1.752, 1.713, 1.647, 0.017, 0.007, -0.369, 2.381, 1.448, 1.557, -0.435, 0.688, 0.030, 0.441, 0.372, 0.416, 0.436, 389.158
43.400, 1.832, 1.746, 1.634, 0.020, 0.011, -0.463, 2.441, 1.419, 1.543, -0.538, 0.697, 0.029, 1.000, 1.000, 0.962, 0.970, 393.091
43.600, 1.910, 1.771, 1.623, 0.020, 0.004, -0.556, 2.497, 1.384, 1.528, -0.637, 0.710, 0.026, 0.022, 0.000, 0.009, 0.003, 393.125
43.800, 1.985, 1.787, 1.611, 0.028, 0.011, -0.647, 2.551, 1.342, 1.513, -0.731, 0.727, 0.019, 0.000, 0.041, 0.009, 0.000, 393.175
44.000, 2.058, 1.794, 1.598, 0.023, 0.020, -0.734, 2.602, 1.295, 1.499, -0.819, 0.746, 0.008, 0.968, 1.000, 0.970, 1.000, 397.113
44.200, 2.128, 1.792, 1.588, 0.015, 0.018, -0.812, 2.651, 1.241, 1.484, -0.899, 0.766, 0.000, 0.000, 0.044, 0.000, 0.000, 397.157
44.400, 2.199, 1.782, 1.569, 0.010, 0.024, -0.885, 2.696, 1.182, 1.470, -0.973, 0.786, 0.007, 0.011, 0.045, 0.000, 0.000, 397.214
44.600, 2.269, 1.764, 1.560, 0.011, 0.017, -0.953, 2.738, 1.118, 1.456, -1.041, 0.805, 0.011, 0.017, 0.043, 0.000, 0.000, 397.274
44.800, 2.338, 1.739, 1.544, 0.007, 0.021, -1.019, 2.778, 1.049, 1.442, -1.103, 0.824, 0.016, 1.000, 0.974, 0.996, 1.000, 401.244
45.000, 2.406, 1.706, 1.532, 0.005, 0.010, -1.080, 2.814, 0.975, 1.428, -1.159, 0.843, 0.018, 0.004, 0.036, 0.000, 0.000, 401.285
45.200, 2.474, 1.667, 1.518, 0.001, 0.003, -1.137, 2.847, 0.897, 1.415, -1.211, 0.861, 0.018, 0.004, 0.000, 0.016, 0.015, 401.321
45.400, 2.540, 1.622, 1.504, 0.013, 0.019, -1.193, 2.877, 0.815, 1.401, -1.259, 0.880, 0.018, 1.000, 0.981, 1.000, 1.000, 405.302
45.600, 2.606, 1.571, 1.488, 0.002, 0.020, -1.247, 2.904, 0.730, 1.388, -1.304, 0.898, 0.017, 0.004, 0.038, 0.000, 0.005, 405.349
45.800, 2.670, 1.513, 1.478, 0.001, 0.011, -1.299, 2.927, 0.641, 1.375, -1.346, 0.916, 0.014, 0.026, 0.025, 0.000, 0.000, 405.400
46.000, 2.733, 1.450, 1.464, 0.009, 0.010, -1.350, 2.948, 0.549, 1.362, -1.385, 0.932, 0.013, 0.006, 0.028, 0.000, 0.000, 405.434
46.200, 2.793, 1.381, 1.450, 0.009, 0.019, -1.398, 2.965, 0.455, 1.349, -1.422, 0.947, 0.010, 0.175, 0.177, 0.126, 0.135, 406.047
46.400, 2.851, 1.306, 1.439, 0.015, 0.016, -1.443, 2.978, 0.358, 1.337, -1.458, 0.961, 0.006, 0.001, 0.046, 0.000, 0.000, 406.094
46.600, 2.905, 1.225, 1.428, 0.014, 0.021, -1.488, 2.989, 0.261, 1.324, -1.493, 0.973, 0.004, 0.826, 0.850, 0.862, 0.858, 409.490
46.800, 2.954, 1.137, 1.414, -0.001, 0.022, -1.528, 2.996, 0.162, 1.312, -1.527, 0.982, 0.000, 0.055, 0.039, 0.000, 0.000, 409.584
47.000, 2.999, 1.043, 1.392, 0.000, 0.009, -1.565, 2.999, 0.062, 1.300, -1.560, 0.986, 0.005, 0.987, 0.941, 1.000, 1.000, 413.513
47.200, 3.041, 0.945, 1.381, 0.035, 0.011, -1.602, 3.000, -0.038, 1.288, -1.594, 0.988, 0.011, 0.052, 0.007, 0.057, 0.000, 413.629
47.400, 3.078, 0.843, 1.369, 0.065, 0.012, -1.640, 2.997, -0.138, 1.277, -1.627, 0.989, 0.014, 0.972, 1.000, 1.000, 0.914, 417.514
47.600, 3.110, 0.738, 1.350, 0.057, 0.010, -1.673, 2.991, -0.237, 1.265, -1.661, 0.986, 0.020, 0.000, 0.109, 0.081, 0.000, 417.704
47.800, 3.136, 0.630, 1.337, 0.008, 0.008, -1.702, 2.981, -0.335, 1.254, -1.696, 0.981, 0.028, 0.943, 0.986, 1.000, 1.000, 421.633
48.000, 3.159, 0.520, 1.331, -0.013, -0.010, -1.739, 2.968, -0.432, 1.243, -1.733, 0.975, 0.029, 0.931, 0.954, 0.956, 1.000, 425.475
48.200, 3.179, 0.412, 1.319, -0.014, 0.001, -1.773, 2.952, -0.527, 1.232, -1.771, 0.970, 0.035, 0.926, 0.991, 0.954, 1.000, 429.346
48.400, 3.195, 0.306, 1.308, -0.005, -0.005, -1.803, 2.932, -0.619, 1.222, -1.811, 0.965, 0.045, 0.000, 0.000, 0.003, 0.065, 429.414
48.600, 3.209, 0.200, 1.294, -0.003, -0.002, -1.834, 2.910, -0.709, 1.211, -1.854, 0.960, 0.056, 0.078, 0.000, 0.000, 0.000, 429.492
48.800, 3.221, 0.095, 1.278, 0.017, 0.008, -1.866, 2.884, -0.795, 1.201, -1.899, 0.955, 0.067, 0.062, 0.036, 0.016, 0.000, 429.606
49.000, 3.229, -0.010, 1.260, 0.025, 0.007, -1.903, 2.855, -0.878, 1.191, -1.949, 0.948, 0.075, 0.962, 1.000, 1.000, 0.981, 433.549
49.200, 3.236, -0.117, 1.242, 0.033, -0.001, -1.945, 2.822, -0.957, 1.182, -2.002, 0.939, 0.083, 0.038, 0.022, 0.037, 0.000, 433.645
49.400, 3.241, -0.222, 1.228, 0.011, -0.009, -1.991, 2.787, -1.032, 1.172, -2.061, 0.931, 0.091, 0.937, 0.972, 1.000, 1.000, 437.554
49.600, 3.246, -0.324, 1.220, -0.009, -0.010, -2.042, 2.748, -1.102, 1.163, -2.125, 0.926, 0.098, 0.057, 0.000, 0.000, 0.000, 437.610
49.800, 3.250, -0.423, 1.211, -0.028, -0.000, -2.099, 2.707, -1.168, 1.154, -2.194, 0.924, 0.102, 0.060, 0.000, 0.000, 0.032, 437.702
50.000, 3.253, -0.520, 1.203, -0.022, -0.001, -2.156, 2.662, -1.228, 1.145, -2.271, 0.924, 0.111, 0.926, 0.947, 0.982, 1.000, 441.557
50.200, 3.255, -0.617, 1.199, 0.014, 0.012, -2.221, 2.614, -1.282, 1.137, -2.354, 0.926, 0.116, 0.200, 0.239, 0.323, 0.354, 442.673
50.400, 3.250, -0.714, 1.189, 0.002, 0.014, -2.284, 2.564, -1.331, 1.128, -2.444, 0.925, 0.124, 0.965, 1.000, 0.989, 1.000, 446.627
50.600, 3.241, -0.812, 1.174, 0.009, 0.007, -2.352, 2.510, -1.374, 1.120, -2.539, 0.923, 0.133, 0.917, 0.980, 1.000, 1.000, 450.524
50.800, 3.229, -0.909, 1.160, -0.026, -0.005, -2.424, 2.454, -1.411, 1.113, -2.640, 0.924, 0.143, 0.909, 0.928, 1.000, 1.000, 454.361
51.000, 3.218, -1.010, 1.147, -0.003, 0.014, -2.509, 2.395, -1.442, 1.105, -2.744, 0.930, 0.148, 0.107, 0.015, 0.000, 0.000, 454.483
51.200, 3.201, -1.112, 1.142, 0.018, 0.022, -2.598, 2.334, -1.466, 1.098, -2.850, 0.937, 0.156, 0.177, 0.115, 0.000, 0.000, 454.774
51.400, 3.179, -1.216, 1.126, -0.005, 0.011, -2.692, 2.270, -1.484, 1.091, -2.955, 0.949, 0.163, 0.118, 0.029, 0.000, 0.000, 454.922
51.600, 3.155, -1.322, 1.120, -0.005, 0.014, -2.794, 2.203, -1.495, 1.084, -3.056, 0.968, 0.167, 0.130, 0.022, 0.000, 0.000, 455.074
51.800, 3.127, -1.427, 1.126, -0.007, 0.024, -2.900, 2.134, -1.500, 1.077, 3.130, 0.997, 0.168, 0.055, 0.000, 0.000, 0.000, 455.128
52.000, 3.090, -1.535, 1.129, 0.006, 0.014, -3.007, 2.063, -1.498, 1.071, 3.040, 1.029, 0.171, 0.000, 0.005, 0.000, 0.026, 455.159
52.200, 3.039, -1.644, 1.122, 0.018, 0.066, -3.112, 1.989, -1.489, 1.065, 2.957, 1.063, 0.177, 1.000, 1.000, 0.838, 0.857, 458.854
52.400, 2.940, -1.730, 1.152, 0.357, 0.316, 3.076, 1.913, -1.474, 1.059, 2.882, 1.063, 0.179, 0.032, 0.115, 0.000, 0.000, 459.001
52.600, 2.758, -1.729, 1.143, 0.161, 0.073, 2.929, 1.835, -1.452, 1.054, 2.814, 0.968, 0.080, 0.972, 0.995, 1.000, 1.000, 462.967
52.800, 2.557, -1.663, 1.114, 0.029, -0.036, 2.868, 1.755, -1.423, 1.048, 2.753, 0.839, 0.017, 1.000, 1.000, 0.971, 1.000, 466.938
53.000, 2.373, -1.586, 1.079, -0.026, -0.086, 2.845, 1.673, -1.389, 1.043, 2.698, 0.729, 0.021, 0.000, 0.037, 0.000, 0.052, 467.027
53.200, 2.220, -1.529, 1.065, -0.033, -0.075, 2.852, 1.589, -1.348, 1.039, 2.650, 0.657, 0.011, 0.553, 0.510, 0.539, 0.524, 469.153
53.400, 2.092, -1.490, 1.043, -0.019, -0.058, 2.847, 1.503, -1.301, 1.034, 2.607, 0.619, 0.017, 1.000, 0.972, 1.000, 0.986, 473.112
53.600, 1.984, -1.466, 1.035, -0.005, -0.027, 2.823, 1.416, -1.248, 1.030, 2.569, 0.608, 0.048, 1.000, 0.969, 1.000, 0.998, 477.079
53.800, 1.886, -1.447, 1.030, 0.018, -0.002, 2.780, 1.327, -1.190, 1.026, 2.536, 0.616, 0.070, 1.000, 0.968, 1.000, 0.966, 481.013
54.000, 1.794, -1.425, 1.031, 0.024, 0.008, 2.725, 1.236, -1.126, 1.022, 2.506, 0.632, 0.075, 1.000, 1.000, 0.867, 0.972, 484.851
54.200, 1.703, -1.396, 1.030, 0.016, 0.012, 2.669, 1.145, -1.058, 1.019, 2.480, 0.653, 0.072, 0.000, 0.037, 0.000, 0.017, 484.905
54.400, 1.611, -1.358, 1.025, 0.020, 0.019, 2.617, 1.052, -0.985, 1.016, 2.457, 0.672, 0.063, 1.000, 0.979, 1.000, 1.000, 488.884
54.600, 1.517, -1.309, 1.025, 0.010, 0.015, 2.575, 0.957, -0.907, 1.013, 2.437, 0.690, 0.056, 1.000, 0.950, 0.958, 1.000, 492.793
54.800, 1.422, -1.252, 1.022, 0.011, 0.020, 2.537, 0.862, -0.826, 1.011, 2.420, 0.703, 0.045, 0.811, 0.762, 0.785, 0.788, 495.938
55.000, 1.323, -1.186, 1.023, 0.009, 0.021, 2.506, 0.766, -0.740, 1.008, 2.405, 0.714, 0.039, 1.000, 0.996, 0.968, 0.998, 499.901
55.200, 1.221, -1.114, 1.020, 0.003, 0.010, 2.480, 0.669, -0.652, 1.006, 2.392, 0.720, 0.035, 1.000, 0.969, 1.000, 1.000, 503.870
55.400, 1.115, -1.036, 1.016, 0.002, -0.001, 2.455, 0.571, -0.560, 1.005, 2.382, 0.723, 0.031, 0.000, 0.022, 0.005, 0.038, 503.935
55.600, 1.010, -0.954, 1.011, 0.010, 0.011, 2.434, 0.472, -0.466, 1.003, 2.373, 0.726, 0.029, 1.000, 1.000, 0.840, 1.000, 507.775
55.800, 0.903, -0.869, 1.016, 0.015, 0.011, 2.411, 0.373, -0.370, 1.002, 2.366, 0.727, 0.024, 0.847, 0.920, 1.000, 0.821, 511.363
56.000, 0.797, -0.783, 1.015, 0.010, -0.003, 2.393, 0.274, -0.273, 1.001, 2.361, 0.731, 0.024, 1.000, 0.980, 0.956, 1.000, 515.299
56.200, 0.695, -0.694, 1.012, 0.013, -0.000, 2.376, 0.174, -0.174, 1.000, 2.358, 0.736, 0.020, 0.000, 0.001, 0.126, 0.000, 515.427
56.400, 0.595, -0.603, 1.019, 0.006, 0.008, 2.363, 0.074, -0.074, 1.000, 2.356, 0.742, 0.015, 0.000, 0.000, 0.197, 0.000, 515.624
56.600, 0.494, -0.512, 1.023, 0.014, -0.005, 2.351, -0.026, 0.026, 1.000, 2.356, 0.748, 0.011, 1.000, 1.000, 0.860, 1.000, 519.484
56.800, 0.398, -0.420, 1.024, 0.011, 0.000, 2.343, -0.126, 0.126, 1.000, 2.358, 0.757, 0.007, 0.000, 0.001, 0.077, 0.013, 519.575
57.000, 0.305, -0.325, 1.019, 0.008, 0.012, 2.340, -0.225, 0.225, 1.001, 2.362, 0.764, 0.001, 0.000, 0.000, 0.232, 0.000, 519.807
57.200, 0.212, -0.227, 1.024, 0.006, 0.001, 2.340, -0.325, 0.323, 1.001, 2.367, 0.769, 0.005, 1.000, 0.952, 0.936, 0.999, 523.694
57.400, 0.120, -0.127, 1.028, 0.005, -0.004, 2.343, -0.424, 0.420, 1.003, 2.374, 0.772, 0.010, 0.433, 0.417, 0.414, 0.406, 525.363
57.600, 0.030, -0.028, 1.028, 0.003, -0.002, 2.351, -0.523, 0.515, 1.004, 2.383, 0.775, 0.015, 1.000, 0.986, 0.988, 0.994, 529.331
57.800, -0.059, 0.071, 1.031, -0.003, -0.005, 2.362, -0.621, 0.608, 1.005, 2.394, 0.778, 0.017, 0.000, 0.000, 0.061, 0.032, 529.423
58.000, -0.147, 0.170, 1.030, -0.005, -0.013, 2.374, -0.719, 0.698, 1.007, 2.406, 0.778, 0.022, 1.000, 0.961, 1.000, 1.000, 533.385
58.200, -0.233, 0.266, 1.027, 0.007, -0.008, 2.388, -0.815, 0.785, 1.009, 2.422, 0.780, 0.026, 1.000, 0.960, 1.000, 0.986, 537.331
58.400, -0.316, 0.361, 1.031, 0.002, 0.004, 2.406, -0.911, 0.868, 1.012, 2.439, 0.782, 0.031, 0.337, 0.402, 0.384, 0.359, 538.813
58.600, -0.398, 0.454, 1.036, -0.006, -0.014, 2.426, -1.006, 0.948, 1.015, 2.459, 0.783, 0.033, 1.000, 0.985, 0.995, 0.997, 542.791
58.800, -0.480, 0.546, 1.044, 0.000, -0.003, 2.448, -1.099, 1.023, 1.018, 2.483, 0.783, 0.037, 1.000, 1.000, 0.965, 0.991, 546.747
59.000, -0.561, 0.636, 1.046, -0.000, -0.012, 2.473, -1.192, 1.094, 1.021, 2.509, 0.780, 0.041, 0.000, 0.049, 0.010, 0.037, 546.842
59.200, -0.640, 0.723, 1.054, 0.005, -0.011, 2.499, -1.283, 1.160, 1.024, 2.539, 0.778, 0.046, 0.000, 0.064, 0.014, 0.024, 546.944
59.400, -0.716, 0.807, 1.058, -0.003, 0.004, 2.529, -1.373, 1.221, 1.028, 2.573, 0.777, 0.050, 1.000, 0.940, 0.983, 0.986, 550.854
59.600, -0.792, 0.888, 1.066, -0.003, -0.006, 2.562, -1.461, 1.276, 1.032, 2.612, 0.774, 0.055, 0.000, 0.059, 0.000, 0.026, 550.939
59.800, -0.864, 0.968, 1.066, 0.006, -0.009, 2.596, -1.547, 1.326, 1.036, 2.655, 0.771, 0.064, 1.000, 0.961, 1.000, 0.989, 554.888
60.000, -0.933, 1.046, 1.073, 0.008, -0.008, 2.636, -1.632, 1.369, 1.041, 2.704, 0.771, 0.072, 0.000, 0.066, 0.028, 0.018, 555.001
60.200, -1.001, 1.120, 1.081, 0.011, -0.000, 2.683, -1.715, 1.407, 1.046, 2.759, 0.771, 0.077, 0.000, 0.071, 0.008, 0.004, 555.084
60.400, -1.067, 1.194, 1.084, 0.002, -0.004, 2.732, -1.796, 1.439, 1.051, 2.821, 0.770, 0.085, 0.000, 0.060, 0.000, 0.019, 555.163
60.600, -1.131, 1.265, 1.093, -0.005, 0.004, 2.790, -1.875, 1.464, 1.056, 2.890, 0.771, 0.091, 0.000, 0.065, 0.000, 0.014, 555.242
60.800, -1.196, 1.334, 1.099, -0.009, -0.001, 2.852, -1.952, 1.482, 1.062, 2.966, 0.771, 0.096, 0.301, 0.212, 0.263, 0.258, 556.276
61.000, -1.261, 1.402, 1.110, 0.006, 0.001, 2.916, -2.027, 1.494, 1.068, 3.050, 0.773, 0.106, 0.000, 0.080, 0.000, 0.027, 556.383
61.200, -1.326, 1.470, 1.112, 0.001, -0.001, 2.989, -2.100, 1.500, 1.074, 3.141, 0.775, 0.114, 0.851, 0.811, 0.877, 0.838, 559.760
61.400, -1.392, 1.536, 1.124, -0.005, 0.007, 3.069, -2.170, 1.498, 1.081, -3.045, 0.780, 0.120, 1.000, 0.938, 0.974, 0.972, 563.644
61.600, -1.460, 1.602, 1.123, -0.064, 0.015, -3.130, -2.238, 1.490, 1.087, -2.943, 0.786, 0.131, 0.622, 1.000, 1.000, 0.886, 567.153
61.800, -1.555, 1.624, 1.129, -0.135, 0.103, -3.032, -2.303, 1.476, 1.094, -2.838, 0.763, 0.085, 1.000, 0.961, 1.000, 0.907, 571.021
62.000, -1.681, 1.585, 1.117, -0.079, -0.012, -2.972, -2.366, 1.455, 1.101, -2.732, 0.697, 0.018, 0.000, 0.031, 0.000, 0.000, 571.052
62.200, -1.800, 1.519, 1.109, 0.017, -0.056, -2.968, -2.426, 1.427, 1.109, -2.629, 0.633, 0.027, 0.000, 0.039, 0.000, 0.000, 571.091
62.400, -1.898, 1.464, 1.113, 0.056, -0.052, -2.984, -2.483, 1.393, 1.117, -2.528, 0.590, 0.038, 0.000, 0.000, 0.004, 0.045, 571.141
62.600, -1.981, 1.433, 1.121, 0.063, -0.019, -2.991, -2.538, 1.353, 1.124, -2.433, 0.563, 0.008, 0.980, 0.986, 1.000, 1.000, 575.106
62.800, -2.060, 1.427, 1.133, 0.039, 0.004, -2.964, -2.590, 1.307, 1.133, -2.344, 0.543, 0.046, 0.000, 0.059, 0.000, 0.018, 575.184
63.000, -2.144, 1.437, 1.135, 0.014, 0.001, -2.895, -2.639, 1.255, 1.141, -2.262, 0.528, 0.106, 0.000, 0.000, 0.004, 0.047, 575.235
63.200, -2.231, 1.452, 1.135, -0.011, 0.004, -2.785, -2.685, 1.197, 1.150, -2.186, 0.521, 0.154, 1.000, 0.960, 0.994, 0.995, 579.184
63.400, -2.316, 1.466, 1.140, -0.025, -0.005, -2.643, -2.728, 1.135, 1.159, -2.117, 0.529, 0.179, 1.000, 0.926, 1.000, 1.000, 583.110
63.600, -2.397, 1.474, 1.143, -0.043, -0.008, -2.492, -2.768, 1.067, 1.168, -2.054, 0.552, 0.183, 0.000, 0.000, 0.024, 0.069, 583.204
63.800, -2.473, 1.472, 1.147, -0.033, 0.026, -2.353, -2.805, 0.994, 1.177, -1.996, 0.583, 0.175, 0.003, 0.053, 0.000, 0.000, 583.260
64.000, -2.546, 1.455, 1.152, -0.027, 0.039, -2.228, -2.839, 0.917, 1.187, -1.943, 0.613, 0.159, 0.893, 0.819, 0.902, 0.879, 586.752
64.200, -2.620, 1.419, 1.156, -0.027, 0.042, -2.120, -2.870, 0.836, 1.196, -1.894, 0.636, 0.144, 0.195, 0.208, 0.140, 0.058, 587.353
64.400, -2.692, 1.363, 1.162, -0.009, 0.049, -2.031, -2.897, 0.751, 1.207, -1.849, 0.647, 0.136, 0.714, 0.720, 0.790, 0.868, 590.446
64.600, -2.769, 1.289, 1.163, 0.003, 0.048, -1.946, -2.922, 0.663, 1.217, -1.806, 0.647, 0.136, 1.000, 0.959, 1.000, 1.000, 594.404
64.800, -2.853, 1.199, 1.167, -0.010, 0.041, -1.861, -2.943, 0.572, 1.227, -1.766, 0.636, 0.148, 0.004, 0.053, 0.000, 0.000, 594.462
65.000, -2.936, 1.094, 1.161, -0.013, 0.034, -1.769, -2.961, 0.478, 1.238, -1.728, 0.621, 0.159, 0.011, 0.024, 0.000, 0.000, 594.497
65.200, -3.016, 0.977, 1.164, -0.020, 0.027, -1.669, -2.975, 0.382, 1.249, -1.692, 0.602, 0.168, 0.978, 0.978, 1.000, 1.000, 598.454
65.400, -3.088, 0.849, 1.165, -0.032, 0.027, -1.566, -2.986, 0.285, 1.260, -1.657, 0.581, 0.173, 0.018, 0.030, 0.000, 0.000, 598.502
65.600, -3.147, 0.712, 1.168, -0.028, 0.028, -1.459, -2.994, 0.186, 1.271, -1.623, 0.557, 0.170, 0.969, 0.997, 1.000, 1.000, 602.469
65.800, -3.191, 0.567, 1.177, -0.041, 0.025, -1.353, -2.999, 0.087, 1.283, -1.590, 0.528, 0.163, 1.000, 0.998, 1.000, 0.955, 606.422
66.000, -3.217, 0.418, 1.192, -0.055, 0.011, -1.254, -3.000, -0.013, 1.294, -1.556, 0.493, 0.150, 0.984, 0.939, 1.000, 1.000, 610.345
66.200, -3.223, 0.270, 1.205, -0.063, -0.005, -1.169, -2.998, -0.113, 1.306, -1.523, 0.456, 0.128, 0.000, 0.000, 0.000, 0.073, 610.418
66.400, -3.209, 0.131, 1.217, -0.041, -0.006, -1.108, -2.992, -0.213, 1.318, -1.489, 0.418, 0.100, 0.041, 0.039, 0.013, 0.000, 610.511
66.600, -3.181, 0.003, 1.234, -0.036, -0.021, -1.070, -2.984, -0.311, 1.331, -1.454, 0.383, 0.061, 0.015, 0.044, 0.022, 0.000, 610.592
66.800, -3.146, -0.111, 1.248, -0.023, -0.027, -1.062, -2.972, -0.408, 1.343, -1.418, 0.357, 0.022, 1.000, 0.999, 1.000, 0.913, 614.504
67.000, -3.108, -0.210, 1.263, -0.008, -0.036, -1.081, -2.956, -0.503, 1.356, -1.381, 0.343, 0.012, 0.083, 0.018, 0.074, 0.116, 614.794
67.200, -3.074, -0.296, 1.280, -0.000, -0.032, -1.117, -2.938, -0.596, 1.369, -1.341, 0.342, 0.027, 0.000, 0.044, 0.020, 0.000, 614.859
67.400, -3.047, -0.372, 1.298, 0.010, -0.028, -1.154, -2.916, -0.687, 1.382, -1.299, 0.352, 0.020, 0.104, 0.066, 0.090, 0.194, 615.312
67.600, -3.029, -0.440, 1.314, 0.017, -0.006, -1.178, -2.890, -0.774, 1.395, -1.254, 0.371, 0.001, 0.291, 0.294, 0.310, 0.159, 616.366
67.800, -3.019, -0.504, 1.324, 0.008, -0.003, -1.177, -2.862, -0.858, 1.408, -1.206, 0.396, 0.025, 0.001, 0.000, 0.000, 0.032, 616.399
68.000, -3.014, -0.573, 1.337, 0.018, 0.022, -1.152, -2.830, -0.938, 1.422, -1.153, 0.417, 0.049, 0.989, 0.975, 0.953, 1.000, 620.315
68.200, -3.012, -0.651, 1.347, 0.014, 0.042, -1.106, -2.796, -1.014, 1.435, -1.096, 0.431, 0.074, 0.036, 0.068, 0.000, 0.000, 620.419
68.400, -3.009, -0.739, 1.357, 0.015, 0.042, -1.037, -2.758, -1.085, 1.449, -1.033, 0.437, 0.094, 1.000, 0.985, 1.000, 0.999, 624.403
68.600, -3.000, -0.838, 1.367, 0.006, 0.043, -0.947, -2.717, -1.152, 1.463, -0.965, 0.433, 0.111, 0.019, 0.054, 0.067, 0.000, 624.543
68.800, -2.982, -0.944, 1.372, -0.031, 0.028, -0.846, -2.673, -1.213, 1.477, -0.890, 0.423, 0.129, 1.000, 0.890, 0.996, 1.000, 628.429
69.000, -2.949, -1.051, 1.386, -0.040, 0.001, -0.727, -2.626, -1.269, 1.492, -0.809, 0.403, 0.132, 0.911, 0.845, 0.982, 1.000, 632.168
69.200, -2.903, -1.152, 1.395, -0.040, 0.018, -0.606, -2.577, -1.320, 1.506, -0.721, 0.384, 0.133, 0.009, 0.092, 0.000, 0.000, 632.268
69.400, -2.846, -1.240, 1.415, -0.046, -0.008, -0.482, -2.524, -1.364, 1.521, -0.627, 0.361, 0.115, 0.000, 0.091, 0.053, 0.000, 632.412
69.600, -2.781, -1.306, 1.436, -0.063, -0.017, -0.375, -2.468, -1.403, 1.535, -0.527, 0.342, 0.075, 1.000, 0.862, 0.988, 1.000, 636.261
69.800, -2.711, -1.349, 1.456, -0.058, -0.021, -0.306, -2.410, -1.435, 1.550, -0.423, 0.327, 0.026, 0.618, 0.461, 0.566, 0.677, 638.584
70.000, -2.645, -1.371, 1.464, -0.020, -0.029, -0.283, -2.349, -1.461, 1.565, -0.318, 0.325, 0.013, 1.000, 0.778, 1.000, 1.000, 642.362
70.200, -2.586, -1.382, 1.480, 0.033, -0.033, -0.289, -2.286, -1.480, 1.580, -0.213, 0.331, 0.026, 0.980, 0.902, 1.000, 1.000, 646.243
70.400, -2.538, -1.401, 1.506, 0.019, 0.014, -0.275, -2.220, -1.493, 1.595, -0.110, 0.343, 0.008, 1.000, 0.935, 0.937, 1.000, 650.115
70.600, -2.490, -1.430, 1.522, 0.029, 0.032, -0.231, -2.151, -1.499, 1.611, -0.012, 0.357, 0.029, 0.040, 0.162, 0.000, 0.000, 650.316
70.800, -2.441, -1.471, 1.533, 0.014, 0.012, -0.148, -2.081, -1.499, 1.626, 0.080, 0.373, 0.070, 0.133, 0.167, 0.061, 0.082, 650.760
71.000, -2.386, -1.516, 1.549, -0.004, 0.005, -0.034, -2.007, -1.492, 1.642, 0.164, 0.391, 0.096, 0.960, 0.926, 1.000, 1.000, 654.647
71.200, -2.326, -1.555, 1.568, -0.013, 0.022, 0.091, -1.932, -1.478, 1.657, 0.242, 0.411, 0.101, 1.000, 1.000, 1.000, 0.885, 658.532
71.400, -2.261, -1.579, 1.584, -0.034, 0.043, 0.206, -1.854, -1.458, 1.673, 0.312, 0.433, 0.084, 0.054, 0.067, 0.000, 0.000, 658.653
71.600, -2.190, -1.582, 1.601, -0.029, 0.022, 0.303, -1.775, -1.431, 1.689, 0.374, 0.450, 0.047, 1.000, 0.947, 1.000, 0.980, 662.580
71.800, -2.115, -1.567, 1.622, -0.028, 0.005, 0.367, -1.693, -1.398, 1.705, 0.430, 0.462, 0.014, 0.000, 0.090, 0.085, 0.000, 662.755
72.000, -2.040, -1.535, 1.640, 0.000, 0.007, 0.405, -1.610, -1.358, 1.721, 0.480, 0.472, 0.014, 1.000, 0.948, 1.000, 0.975, 666.678
72.200, -1.963, -1.497, 1.656, 0.004, 0.004, 0.426, -1.524, -1.313, 1.737, 0.524, 0.482, 0.028, 0.000, 0.081, 0.031, 0.000, 666.790
72.400, -1.883, -1.457, 1.677, -0.000, 0.016, 0.440, -1.437, -1.262, 1.753, 0.563, 0.492, 0.027, 1.000, 1.000, 0.951, 0.972, 670.713
72.600, -1.800, -1.415, 1.696, -0.002, 0.013, 0.458, -1.349, -1.205, 1.769, 0.598, 0.503, 0.022, 0.003, 0.056, 0.000, 0.000, 670.773
72.800, -1.714, -1.373, 1.710, -0.008, 0.007, 0.478, -1.259, -1.143, 1.785, 0.629, 0.516, 0.010, 0.614, 0.584, 0.635, 0.709, 673.314
73.000, -1.627, -1.328, 1.723, -0.004, 0.000, 0.505, -1.167, -1.075, 1.801, 0.656, 0.530, 0.002, 0.994, 0.954, 0.991, 1.000, 677.253
73.200, -1.541, -1.281, 1.738, 0.007, 0.014, 0.538, -1.075, -1.003, 1.818, 0.679, 0.548, 0.000, 0.000, 0.065, 0.030, 0.000, 677.349
73.400, -1.452, -1.230, 1.753, 0.002, 0.005, 0.572, -0.981, -0.927, 1.834, 0.700, 0.566, 0.001, 0.993, 0.953, 1.000, 1.000, 681.295
73.600, -1.361, -1.174, 1.775, -0.009, 0.008, 0.602, -0.886, -0.846, 1.851, 0.718, 0.582, 0.002, 0.000, 0.061, 0.064, 0.000, 681.420
73.800, -1.270, -1.111, 1.789, -0.016, 0.012, 0.629, -0.790, -0.762, 1.867, 0.733, 0.599, 0.000, 1.000, 0.967, 1.000, 1.000, 685.387
74.000, -1.180, -1.043, 1.805, -0.014, 0.011, 0.652, -0.693, -0.674, 1.884, 0.746, 0.616, 0.004, 0.004, 0.029, 0.000, 0.000, 685.420
74.200, -1.090, -0.969, 1.821, -0.011, 0.008, 0.669, -0.595, -0.583, 1.900, 0.758, 0.632, 0.007, 1.000, 0.976, 0.990, 1.000, 689.386
74.400, -1.000, -0.891, 1.836, -0.007, 0.009, 0.682, -0.497, -0.490, 1.917, 0.767, 0.649, 0.009, 1.000, 0.988, 0.976, 0.994, 693.343
74.600, -0.911, -0.809, 1.862, -0.006, 0.006, 0.689, -0.398, -0.394, 1.934, 0.774, 0.663, 0.009, 1.000, 0.996, 0.983, 1.000, 697.322
74.800, -0.821, -0.723, 1.880, -0.002, 0.006, 0.693, -0.299, -0.297, 1.950, 0.779, 0.678, 0.008, 0.000, 0.000, 0.052, 0.027, 697.401
75.000, -0.730, -0.635, 1.902, -0.002, 0.007, 0.695, -0.199, -0.199, 1.967, 0.783, 0.691, 0.007, 0.000, 0.000, 0.046, 0.026, 697.474
75.200, -0.638, -0.543, 1.918, -0.014, 0.006, 0.697, -0.099, -0.099, 1.983, 0.785, 0.702, 0.008, 0.000, 0.000, 0.036, 0.035, 697.545
75.400, -0.547, -0.447, 1.936, -0.003, 0.003, 0.697, 0.001, 0.001, 2.000, 0.785, 0.710, 0.012, 1.000, 1.000, 0.961, 0.945, 701.451
75.600, -0.456, -0.348, 1.958, 0.009, 0.003, 0.690, 0.101, 0.101, 2.017, 0.784, 0.717, 0.011, 1.000, 1.000, 0.964, 0.937, 705.352
75.800, -0.362, -0.250, 1.975, 0.000, 0.003, 0.678, 0.201, 0.200, 2.033, 0.781, 0.723, 0.004, 0.000, 0.000, 0.034, 0.050, 705.435
76.000, -0.268, -0.151, 1.993, -0.004, 0.002, 0.669, 0.300, 0.299, 2.050, 0.776, 0.727, 0.001, 0.000, 0.000, 0.050, 0.098, 705.583
76.200, -0.172, -0.052, 2.015, 0.003, 0.001, 0.660, 0.400, 0.396, 2.067, 0.770, 0.728, 0.004, 0.000, 0.000, 0.031, 0.051, 705.665
76.400, -0.077, 0.048, 2.028, -0.009, -0.003, 0.655, 0.499, 0.492, 2.083, 0.761, 0.729, 0.002, 1.000, 1.000, 0.991, 0.954, 709.609
76.600, 0.016, 0.149, 2.051, -0.003, -0.004, 0.645, 0.597, 0.585, 2.100, 0.751, 0.728, 0.002, 1.000, 0.971, 1.000, 0.969, 713.549
76.800, 0.106, 0.250, 2.070, -0.005, -0.004, 0.629, 0.695, 0.676, 2.117, 0.739, 0.728, 0.003, 0.010, 0.000, 0.000, 0.053, 713.612
77.000, 0.195, 0.350, 2.090, 0.008, -0.002, 0.609, 0.791, 0.763, 2.133, 0.724, 0.727, 0.003, 0.990, 1.000, 1.000, 0.962, 717.564
77.200, 0.284, 0.448, 2.098, 0.010, -0.003, 0.584, 0.887, 0.848, 2.150, 0.707, 0.726, 0.002, 0.989, 1.000, 1.000, 0.947, 721.501
77.400, 0.373, 0.542, 2.116, -0.005, 0.004, 0.559, 0.982, 0.928, 2.166, 0.687, 0.723, 0.006, 0.012, 0.004, 0.000, 0.038, 721.555
77.600, 0.463, 0.634, 2.129, -0.011, -0.007, 0.535, 1.076, 1.005, 2.182, 0.665, 0.719, 0.008, 1.000, 1.000, 0.965, 0.936, 725.456
77.800, 0.552, 0.724, 2.148, 0.008, -0.008, 0.512, 1.169, 1.077, 2.199, 0.639, 0.713, 0.007, 0.000, 0.000, 0.034, 0.000, 725.490
78.000, 0.638, 0.811, 2.164, 0.010, -0.009, 0.486, 1.261, 1.144, 2.215, 0.610, 0.708, 0.005, 0.011, 0.000, 0.000, 0.022, 725.523
78.200, 0.722, 0.895, 2.180, -0.010, -0.008, 0.453, 1.351, 1.206, 2.231, 0.577, 0.703, 0.006, 0.013, 0.000, 0.000, 0.076, 725.612
78.400, 0.803, 0.976, 2.196, -0.010, -0.009, 0.419, 1.439, 1.263, 2.248, 0.540, 0.699, 0.005, 1.000, 1.000, 1.000, 0.972, 729.585
78.600, 0.883, 1.056, 2.214, -0.012, -0.009, 0.382, 1.526, 1.314, 2.264, 0.498, 0.695, 0.000, 0.072, 0.000, 0.000, 0.098, 729.754
78.800, 0.961, 1.133, 2.231, 0.008, -0.006, 0.340, 1.611, 1.359, 2.280, 0.450, 0.690, 0.006, 0.039, 0.000, 0.000, 0.006, 729.800
79.000, 1.038, 1.207, 2.250, 0.008, -0.009, 0.291, 1.695, 1.398, 2.296, 0.396, 0.686, 0.007, 0.000, 0.000, 0.000, 0.029, 729.828
79.200, 1.113, 1.277, 2.273, 0.003, 0.003, 0.236, 1.776, 1.431, 2.312, 0.336, 0.682, 0.008, 0.095, 0.025, 0.000, 0.000, 729.949
79.400, 1.187, 1.346, 2.287, 0.009, -0.007, 0.181, 1.856, 1.458, 2.327, 0.269, 0.679, 0.015, 0.040, 0.000, 0.000, 0.000, 729.988
79.600, 1.260, 1.412, 2.302, -0.003, -0.003, 0.116, 1.933, 1.478, 2.343, 0.195, 0.678, 0.018, 1.000, 1.000, 1.000, 0.964, 733.953
79.800, 1.333, 1.477, 2.320, -0.007, 0.002, 0.047, 2.009, 1.492, 2.359, 0.113, 0.677, 0.026, 0.080, 0.000, 0.000, 0.043, 734.075
