time, drone_x, drone_y, drone_z, drone_roll, drone_pitch, drone_yaw, target_x, target_y, target_z, target_direction, distance_to_target, aiming_error, m1_power, m2_power, m3_power, m4_power, cumulative_energy
0.000, 0.000, -0.000, 1.001, 0.079, 0.081, -0.010, 0.000, 0.000, 2.000, 0.785, 0.999, 2.367, 1.000, 0.000, 1.000, 1.000, 3.000
0.050, 0.020, -0.092, 1.082, 0.072, -0.283, 0.447, 0.025, 0.025, 2.004, 0.785, 0.930, 1.084, 0.680, 1.000, 0.611, 1.000, 6.291
0.100, 0.022, -0.310, 1.277, -0.102, 0.218, 1.307, 0.050, 0.050, 2.008, 0.785, 0.816, 0.186, 1.000, 0.910, 0.852, 0.389, 9.442
0.150, 0.006, -0.488, 1.476, -0.097, 0.246, 1.460, 0.075, 0.075, 2.012, 0.785, 0.781, 0.011, 1.000, 0.861, 1.000, 0.926, 13.229
0.200, -0.037, -0.578, 1.627, -0.047, 0.283, 1.446, 0.100, 0.100, 2.017, 0.784, 0.794, 0.075, 0.021, 0.112, 0.000, 0.000, 13.362
0.250, -0.088, -0.569, 1.740, -0.003, 0.211, 1.369, 0.125, 0.125, 2.021, 0.784, 0.778, 0.096, 0.000, 0.001, 0.080, 0.000, 13.443
0.300, -0.127, -0.485, 1.816, -0.001, 0.105, 1.268, 0.150, 0.150, 2.025, 0.783, 0.724, 0.109, 1.000, 0.985, 0.992, 0.986, 17.406
0.350, -0.154, -0.364, 1.869, 0.013, 0.018, 1.159, 0.175, 0.175, 2.029, 0.782, 0.651, 0.138, 0.000, 0.000, 0.031, 0.041, 17.478
0.400, -0.172, -0.239, 1.909, 0.039, -0.032, 1.030, 0.200, 0.199, 2.033, 0.782, 0.588, 0.162, 1.000, 1.000, 0.962, 0.990, 21.430
0.450, -0.179, -0.133, 1.940, 0.062, -0.037, 0.890, 0.225, 0.224, 2.037, 0.781, 0.547, 0.166, 0.000, 0.170, 0.000, 0.005, 21.605
0.500, -0.173, -0.052, 1.970, 0.060, -0.030, 0.753, 0.250, 0.249, 2.042, 0.780, 0.524, 0.133, 0.000, 0.000, 0.021, 0.089, 21.715
0.550, -0.159, 0.003, 1.988, 0.054, -0.019, 0.654, 0.275, 0.273, 2.046, 0.778, 0.514, 0.096, 0.088, 0.060, 0.100, 0.069, 22.032
0.600, -0.139, 0.038, 2.002, 0.038, -0.015, 0.588, 0.300, 0.298, 2.050, 0.777, 0.512, 0.053, 0.053, 0.002, 0.000, 0.000, 22.087
0.650, -0.117, 0.056, 2.011, 0.024, -0.015, 0.557, 0.324, 0.322, 2.054, 0.776, 0.518, 0.014, 1.000, 0.941, 1.000, 1.000, 26.029
0.700, -0.094, 0.061, 2.013, 0.006, -0.008, 0.553, 0.349, 0.347, 2.058, 0.774, 0.529, 0.020, 0.000, 0.079, 0.000, 0.031, 26.138
0.750, -0.071, 0.061, 2.017, -0.004, 0.006, 0.573, 0.374, 0.371, 2.062, 0.773, 0.544, 0.037, 1.000, 0.925, 0.998, 1.000, 30.061
0.800, -0.047, 0.061, 2.023, -0.008, -0.000, 0.602, 0.399, 0.395, 2.067, 0.771, 0.559, 0.042, 0.000, 0.078, 0.000, 0.000, 30.138
0.850, -0.024, 0.064, 2.029, -0.014, 0.013, 0.629, 0.424, 0.419, 2.071, 0.769, 0.573, 0.043, 0.795, 0.693, 0.765, 0.786, 33.178
0.900, -0.000, 0.073, 2.031, -0.020, 0.014, 0.653, 0.448, 0.443, 2.075, 0.767, 0.584, 0.037, 0.000, 0.036, 0.000, 0.006, 33.221
0.950, 0.023, 0.090, 2.038, -0.018, 0.010, 0.671, 0.473, 0.467, 2.079, 0.765, 0.589, 0.027, 1.000, 0.966, 1.000, 0.963, 37.150
1.000, 0.046, 0.115, 2.041, -0.016, 0.009, 0.678, 0.498, 0.491, 2.083, 0.763, 0.589, 0.015, 0.005, 0.033, 0.000, 0.004, 37.192
1.050, 0.067, 0.146, 2.047, 0.000, 0.007, 0.675, 0.522, 0.514, 2.087, 0.760, 0.587, 0.005, 0.991, 1.000, 0.995, 0.971, 41.149
1.100, 0.089, 0.180, 2.055, 0.003, -0.003, 0.666, 0.547, 0.538, 2.092, 0.758, 0.582, 0.002, 0.000, 0.000, 0.029, 0.000, 41.177
1.150, 0.111, 0.213, 2.057, 0.006, -0.006, 0.650, 0.571, 0.561, 2.096, 0.755, 0.578, 0.003, 0.000, 0.000, 0.000, 0.027, 41.204
1.200, 0.132, 0.244, 2.061, 0.006, -0.004, 0.635, 0.596, 0.584, 2.100, 0.753, 0.576, 0.002, 1.000, 1.000, 1.000, 0.978, 45.182
1.250, 0.154, 0.273, 2.068, 0.007, -0.004, 0.621, 0.620, 0.607, 2.104, 0.750, 0.575, 0.001, 0.000, 0.018, 0.000, 0.020, 45.219
1.300, 0.175, 0.299, 2.068, 0.007, -0.004, 0.609, 0.645, 0.630, 2.108, 0.747, 0.576, 0.004, 0.994, 0.999, 1.000, 0.987, 49.200
1.350, 0.196, 0.324, 2.079, 0.003, -0.001, 0.600, 0.669, 0.652, 2.112, 0.744, 0.577, 0.007, 0.413, 0.374, 0.412, 0.411, 50.809
1.400, 0.218, 0.347, 2.078, -0.000, 0.003, 0.593, 0.694, 0.675, 2.116, 0.741, 0.579, 0.011, 1.000, 0.976, 1.000, 0.995, 54.781
1.450, 0.239, 0.371, 2.084, 0.001, -0.003, 0.587, 0.718, 0.697, 2.121, 0.737, 0.580, 0.012, 1.000, 0.987, 1.000, 0.966, 58.734
1.500, 0.261, 0.393, 2.089, 0.001, -0.000, 0.582, 0.742, 0.719, 2.125, 0.734, 0.582, 0.014, 0.609, 0.594, 0.610, 0.605, 61.152
1.550, 0.283, 0.415, 2.095, -0.003, 0.004, 0.578, 0.766, 0.741, 2.129, 0.730, 0.584, 0.016, 1.000, 0.951, 1.000, 1.000, 65.103
1.600, 0.305, 0.437, 2.104, 0.007, -0.005, 0.577, 0.791, 0.763, 2.133, 0.726, 0.585, 0.015, 0.997, 0.962, 1.000, 0.991, 69.053
1.650, 0.327, 0.459, 2.101, 0.005, -0.004, 0.572, 0.815, 0.784, 2.137, 0.723, 0.587, 0.016, 0.000, 0.000, 0.007, 0.022, 69.081
1.700, 0.348, 0.480, 2.104, -0.007, 0.004, 0.567, 0.839, 0.805, 2.141, 0.718, 0.590, 0.018, 1.000, 1.000, 0.988, 0.968, 73.037
1.750, 0.369, 0.503, 2.114, -0.002, 0.001, 0.564, 0.863, 0.826, 2.145, 0.714, 0.591, 0.016, 0.000, 0.020, 0.000, 0.017, 73.075
1.800, 0.390, 0.527, 2.115, 0.000, 0.002, 0.557, 0.887, 0.847, 2.149, 0.710, 0.591, 0.015, 1.000, 1.000, 1.000, 0.971, 77.045
1.850, 0.411, 0.552, 2.117, 0.005, -0.002, 0.549, 0.910, 0.867, 2.154, 0.705, 0.591, 0.015, 0.992, 1.000, 1.000, 0.964, 81.002
1.900, 0.433, 0.576, 2.122, -0.003, 0.001, 0.540, 0.934, 0.888, 2.158, 0.701, 0.592, 0.016, 0.000, 0.000, 0.000, 0.039, 81.041
1.950, 0.454, 0.600, 2.130, 0.004, -0.003, 0.533, 0.958, 0.908, 2.162, 0.696, 0.591, 0.015, 0.000, 0.000, 0.000, 0.018, 81.059
2.000, 0.475, 0.623, 2.134, -0.002, 0.001, 0.524, 0.982, 0.928, 2.166, 0.691, 0.592, 0.018, 1.000, 1.000, 0.994, 0.963, 85.016
2.050, 0.496, 0.646, 2.136, -0.000, -0.004, 0.517, 1.005, 0.947, 2.170, 0.685, 0.593, 0.018, 0.000, 0.000, 0.000, 0.048, 85.063
2.100, 0.516, 0.668, 2.140, 0.002, -0.002, 0.509, 1.029, 0.966, 2.174, 0.680, 0.594, 0.019, 0.000, 0.002, 0.000, 0.038, 85.103
2.150, 0.537, 0.689, 2.149, -0.000, 0.001, 0.501, 1.052, 0.985, 2.178, 0.674, 0.595, 0.020, 0.028, 0.002, 0.000, 0.000, 85.133
2.200, 0.557, 0.711, 2.154, -0.001, -0.003, 0.495, 1.076, 1.004, 2.182, 0.669, 0.596, 0.020, 1.000, 0.988, 1.000, 0.954, 89.076
2.250, 0.578, 0.732, 2.158, 0.001, 0.002, 0.487, 1.099, 1.022, 2.186, 0.663, 0.597, 0.021, 0.096, 0.098, 0.123, 0.110, 89.503
2.300, 0.598, 0.755, 2.163, -0.005, 0.002, 0.480, 1.122, 1.041, 2.190, 0.657, 0.598, 0.019, 1.000, 0.994, 1.000, 0.956, 93.453
2.350, 0.618, 0.778, 2.170, 0.005, -0.005, 0.472, 1.145, 1.058, 2.195, 0.650, 0.597, 0.017, 0.994, 0.989, 1.000, 0.982, 97.419
2.400, 0.638, 0.800, 2.171, -0.004, 0.004, 0.460, 1.168, 1.076, 2.199, 0.644, 0.598, 0.020, 0.000, 0.004, 0.000, 0.041, 97.464
2.450, 0.658, 0.822, 2.176, -0.003, 0.002, 0.451, 1.191, 1.093, 2.203, 0.637, 0.599, 0.019, 1.000, 0.999, 1.000, 0.985, 101.449
2.500, 0.678, 0.845, 2.176, -0.001, 0.000, 0.440, 1.214, 1.110, 2.207, 0.630, 0.599, 0.019, 0.000, 0.000, 0.000, 0.043, 101.492
2.550, 0.698, 0.868, 2.181, 0.004, -0.002, 0.429, 1.237, 1.127, 2.211, 0.623, 0.599, 0.019, 0.000, 0.000, 0.000, 0.029, 101.521
2.600, 0.718, 0.889, 2.188, 0.004, -0.004, 0.419, 1.260, 1.143, 2.215, 0.615, 0.599, 0.020, 0.990, 0.989, 1.000, 0.987, 105.487
2.650, 0.739, 0.908, 2.193, 0.000, -0.005, 0.410, 1.282, 1.159, 2.219, 0.607, 0.600, 0.024, 0.000, 0.000, 0.000, 0.032, 105.520
2.700, 0.758, 0.926, 2.197, -0.002, -0.005, 0.402, 1.305, 1.175, 2.223, 0.599, 0.602, 0.025, 0.999, 1.000, 1.000, 0.963, 109.481
2.750, 0.776, 0.944, 2.199, -0.010, 0.002, 0.394, 1.327, 1.190, 2.227, 0.591, 0.604, 0.026, 0.024, 0.000, 0.000, 0.061, 109.566
2.800, 0.795, 0.964, 2.203, 0.001, -0.002, 0.385, 1.350, 1.205, 2.231, 0.583, 0.605, 0.025, 1.000, 1.000, 1.000, 0.947, 113.512
2.850, 0.815, 0.984, 2.208, -0.000, 0.004, 0.376, 1.372, 1.220, 2.235, 0.574, 0.606, 0.025, 0.729, 0.753, 0.757, 0.746, 116.497
2.900, 0.835, 1.004, 2.210, -0.006, 0.000, 0.365, 1.394, 1.234, 2.239, 0.565, 0.605, 0.025, 0.000, 0.000, 0.000, 0.047, 116.545
2.950, 0.855, 1.026, 2.218, -0.006, 0.000, 0.354, 1.416, 1.249, 2.243, 0.556, 0.604, 0.023, 0.957, 1.000, 1.000, 1.000, 120.502
3.000, 0.876, 1.048, 2.219, -0.001, -0.006, 0.343, 1.438, 1.262, 2.247, 0.546, 0.603, 0.021, 0.004, 0.000, 0.000, 0.046, 120.552
3.050, 0.895, 1.069, 2.229, 0.002, 0.002, 0.330, 1.460, 1.276, 2.251, 0.536, 0.603, 0.021, 0.023, 0.007, 0.000, 0.012, 120.594
3.100, 0.914, 1.088, 2.230, -0.001, 0.002, 0.315, 1.482, 1.289, 2.255, 0.526, 0.603, 0.023, 1.000, 1.000, 1.000, 0.964, 124.559
3.150, 0.933, 1.108, 2.234, 0.001, 0.002, 0.302, 1.504, 1.301, 2.259, 0.515, 0.603, 0.024, 0.011, 0.004, 0.000, 0.023, 124.597
3.200, 0.953, 1.128, 2.239, 0.002, -0.000, 0.289, 1.525, 1.313, 2.264, 0.505, 0.602, 0.024, 0.014, 0.000, 0.000, 0.023, 124.634
3.250, 0.972, 1.148, 2.247, -0.005, -0.002, 0.277, 1.547, 1.325, 2.268, 0.494, 0.601, 0.024, 0.049, 0.000, 0.000, 0.042, 124.725
3.300, 0.992, 1.167, 2.250, -0.001, -0.004, 0.263, 1.568, 1.337, 2.272, 0.482, 0.601, 0.024, 1.000, 1.000, 1.000, 0.963, 128.687
3.350, 1.010, 1.185, 2.251, -0.001, -0.005, 0.249, 1.589, 1.348, 2.276, 0.470, 0.602, 0.025, 0.000, 0.000, 0.000, 0.049, 128.736
3.400, 1.028, 1.203, 2.260, -0.003, 0.004, 0.235, 1.610, 1.359, 2.280, 0.458, 0.603, 0.026, 0.955, 1.000, 1.000, 1.000, 132.691
3.450, 1.047, 1.222, 2.264, 0.005, -0.003, 0.222, 1.632, 1.369, 2.284, 0.445, 0.603, 0.025, 0.994, 1.000, 1.000, 0.947, 136.632
3.500, 1.065, 1.240, 2.267, 0.003, 0.003, 0.207, 1.652, 1.379, 2.288, 0.432, 0.604, 0.026, 0.229, 0.257, 0.279, 0.273, 137.670
3.550, 1.085, 1.258, 2.271, 0.003, -0.003, 0.194, 1.673, 1.389, 2.292, 0.419, 0.603, 0.025, 0.012, 0.000, 0.000, 0.016, 137.697
3.600, 1.104, 1.275, 2.277, 0.004, -0.000, 0.179, 1.694, 1.398, 2.296, 0.405, 0.603, 0.026, 0.026, 0.001, 0.000, 0.000, 137.724
3.650, 1.123, 1.292, 2.281, 0.005, -0.003, 0.164, 1.715, 1.407, 2.299, 0.391, 0.603, 0.028, 0.973, 1.000, 1.000, 0.950, 141.647
3.700, 1.142, 1.308, 2.285, 0.006, -0.003, 0.150, 1.735, 1.415, 2.303, 0.377, 0.603, 0.029, 0.000, 0.000, 0.024, 0.020, 141.690
3.750, 1.161, 1.325, 2.288, 0.001, 0.001, 0.135, 1.755, 1.423, 2.307, 0.362, 0.603, 0.029, 0.033, 0.010, 0.000, 0.006, 141.738
3.800, 1.180, 1.343, 2.297, 0.007, -0.002, 0.121, 1.776, 1.431, 2.311, 0.346, 0.602, 0.026, 0.956, 0.996, 1.000, 1.000, 145.690
3.850, 1.200, 1.361, 2.301, 0.004, -0.000, 0.104, 1.796, 1.438, 2.315, 0.331, 0.600, 0.025, 0.026, 0.010, 0.000, 0.003, 145.729
3.900, 1.221, 1.380, 2.300, -0.001, -0.001, 0.085, 1.816, 1.445, 2.319, 0.314, 0.599, 0.025, 0.017, 0.004, 0.000, 0.028, 145.779
3.950, 1.240, 1.397, 2.301, -0.003, -0.000, 0.065, 1.835, 1.452, 2.323, 0.298, 0.598, 0.026, 0.995, 1.000, 1.000, 0.972, 149.746
4.000, 1.260, 1.414, 2.311, -0.003, 0.000, 0.047, 1.855, 1.458, 2.327, 0.280, 0.597, 0.026, 0.043, 0.009, 0.000, 0.018, 149.816
4.050, 1.279, 1.431, 2.316, 0.005, -0.004, 0.030, 1.875, 1.464, 2.331, 0.263, 0.597, 0.025, 0.029, 0.003, 0.000, 0.006, 149.854
4.100, 1.297, 1.446, 2.317, -0.002, 0.005, 0.010, 1.894, 1.469, 2.335, 0.245, 0.597, 0.028, 0.981, 1.000, 1.000, 1.000, 153.835
4.150, 1.317, 1.462, 2.319, -0.003, 0.003, -0.008, 1.913, 1.474, 2.339, 0.226, 0.597, 0.028, 0.021, 0.016, 0.000, 0.021, 153.892
4.200, 1.335, 1.477, 2.321, -0.003, 0.003, -0.027, 1.933, 1.478, 2.343, 0.207, 0.598, 0.029, 0.990, 1.000, 1.000, 0.979, 157.861
4.250, 1.354, 1.492, 2.323, -0.004, 0.001, -0.045, 1.952, 1.482, 2.347, 0.188, 0.598, 0.029, 0.010, 0.000, 0.000, 0.035, 157.907
4.300, 1.374, 1.506, 2.331, -0.006, 0.005, -0.064, 1.971, 1.486, 2.351, 0.168, 0.598, 0.030, 0.964, 1.000, 1.000, 1.000, 161.871
4.350, 1.395, 1.521, 2.334, 0.000, 0.002, -0.083, 1.989, 1.489, 2.355, 0.147, 0.596, 0.029, 0.029, 0.011, 0.000, 0.010, 161.920
4.400, 1.416, 1.536, 2.336, -0.001, 0.000, -0.103, 2.008, 1.492, 2.359, 0.126, 0.595, 0.028, 0.982, 1.000, 1.000, 0.988, 165.890
4.450, 1.436, 1.550, 2.344, 0.009, -0.008, -0.123, 2.027, 1.494, 2.362, 0.105, 0.593, 0.028, 0.943, 1.000, 1.000, 0.982, 169.815
4.500, 1.455, 1.563, 2.349, -0.002, 0.003, -0.143, 2.045, 1.496, 2.366, 0.083, 0.594, 0.030, 1.000, 0.986, 1.000, 0.983, 173.783
4.550, 1.474, 1.576, 2.350, -0.006, 0.002, -0.163, 2.063, 1.498, 2.370, 0.061, 0.595, 0.031, 0.017, 0.003, 0.000, 0.030, 173.832
4.600, 1.493, 1.589, 2.359, -0.004, 0.002, -0.183, 2.081, 1.499, 2.374, 0.038, 0.595, 0.031, 0.973, 0.993, 1.000, 1.000, 177.799
4.650, 1.513, 1.602, 2.369, 0.000, 0.001, -0.203, 2.099, 1.500, 2.378, 0.015, 0.595, 0.030, 0.049, 0.022, 0.000, 0.000, 177.870
4.700, 1.534, 1.615, 2.367, 0.003, -0.001, -0.225, 2.117, 1.500, 2.382, -0.008, 0.595, 0.031, 0.970, 0.985, 1.000, 1.000, 181.824
4.750, 1.555, 1.627, 2.375, 0.001, -0.003, -0.247, 2.135, 1.500, 2.386, -0.032, 0.594, 0.031, 0.546, 0.563, 0.596, 0.606, 184.135
4.800, 1.575, 1.639, 2.381, -0.002, -0.002, -0.269, 2.152, 1.499, 2.389, -0.056, 0.594, 0.032, 0.969, 0.990, 1.000, 1.000, 188.094
4.850, 1.596, 1.651, 2.381, 0.003, -0.001, -0.292, 2.169, 1.498, 2.393, -0.081, 0.593, 0.031, 0.029, 0.019, 0.000, 0.000, 188.143
4.900, 1.617, 1.663, 2.380, -0.000, 0.004, -0.315, 2.187, 1.497, 2.397, -0.106, 0.593, 0.031, 0.980, 0.989, 1.000, 1.000, 192.111
4.950, 1.638, 1.675, 2.391, 0.000, -0.005, -0.339, 2.204, 1.495, 2.401, -0.131, 0.593, 0.032, 0.035, 0.023, 0.000, 0.005, 192.175
5.000, 1.660, 1.686, 2.391, 0.006, -0.004, -0.363, 2.221, 1.493, 2.405, -0.157, 0.593, 0.032, 0.973, 0.979, 1.000, 1.000, 196.126
5.050, 1.681, 1.696, 2.392, 0.003, 0.001, -0.387, 2.237, 1.491, 2.409, -0.182, 0.594, 0.033, 0.029, 0.023, 0.000, 0.000, 196.178
5.100, 1.702, 1.706, 2.394, 0.002, 0.003, -0.410, 2.254, 1.487, 2.412, -0.208, 0.594, 0.034, 0.980, 0.984, 1.000, 1.000, 200.141
5.150, 1.722, 1.715, 2.396, -0.002, 0.005, -0.434, 2.270, 1.484, 2.416, -0.234, 0.595, 0.035, 0.026, 0.023, 0.000, 0.009, 200.199
5.200, 1.743, 1.723, 2.399, -0.003, 0.007, -0.457, 2.287, 1.480, 2.420, -0.261, 0.595, 0.036, 0.990, 0.988, 1.000, 1.000, 204.177
5.250, 1.764, 1.731, 2.404, 0.010, 0.001, -0.478, 2.303, 1.476, 2.424, -0.287, 0.596, 0.035, 0.004, 0.018, 0.000, 0.000, 204.199
5.300, 1.783, 1.737, 2.412, -0.002, 0.004, -0.500, 2.319, 1.471, 2.427, -0.313, 0.598, 0.039, 0.982, 1.000, 1.000, 0.980, 208.161
5.350, 1.801, 1.742, 2.413, -0.015, 0.008, -0.519, 2.334, 1.466, 2.431, -0.340, 0.601, 0.042, 0.032, 0.016, 0.000, 0.024, 208.233
5.400, 1.821, 1.748, 2.418, 0.003, 0.001, -0.538, 2.350, 1.461, 2.435, -0.366, 0.602, 0.040, 0.982, 0.960, 1.000, 0.993, 212.168
5.450, 1.840, 1.754, 2.425, -0.004, 0.004, -0.558, 2.365, 1.455, 2.439, -0.393, 0.604, 0.041, 0.000, 0.023, 0.000, 0.010, 212.201
5.500, 1.861, 1.759, 2.429, -0.003, 0.006, -0.581, 2.381, 1.449, 2.442, -0.419, 0.606, 0.042, 0.987, 1.000, 1.000, 0.989, 216.177
5.550, 1.884, 1.766, 2.438, 0.002, -0.008, -0.604, 2.396, 1.442, 2.446, -0.445, 0.606, 0.039, 0.000, 0.000, 0.032, 0.018, 216.227
5.600, 1.906, 1.773, 2.441, 0.003, 0.003, -0.628, 2.411, 1.435, 2.450, -0.471, 0.608, 0.037, 0.019, 0.011, 0.000, 0.000, 216.256
5.650, 1.928, 1.780, 2.448, -0.004, -0.004, -0.654, 2.426, 1.427, 2.454, -0.497, 0.610, 0.038, 0.596, 0.590, 0.639, 0.662, 218.743
5.700, 1.950, 1.785, 2.452, -0.010, 0.005, -0.680, 2.440, 1.419, 2.457, -0.523, 0.611, 0.039, 0.040, 0.024, 0.000, 0.006, 218.813
5.750, 1.973, 1.791, 2.460, 0.021, 0.000, -0.704, 2.455, 1.411, 2.461, -0.548, 0.613, 0.037, 0.021, 0.029, 0.003, 0.000, 218.866
5.800, 1.994, 1.796, 2.462, 0.002, -0.000, -0.731, 2.469, 1.403, 2.465, -0.573, 0.616, 0.039, 0.978, 0.973, 1.000, 1.000, 222.817
5.850, 2.017, 1.800, 2.466, 0.001, -0.007, -0.758, 2.483, 1.393, 2.468, -0.598, 0.618, 0.041, 0.017, 0.031, 0.000, 0.000, 222.865
5.900, 2.041, 1.803, 2.466, 0.003, 0.001, -0.783, 2.497, 1.384, 2.472, -0.623, 0.620, 0.041, 0.018, 0.028, 0.000, 0.000, 222.911
5.950, 2.063, 1.805, 2.475, 0.004, 0.005, -0.809, 2.511, 1.374, 2.476, -0.647, 0.621, 0.043, 0.981, 1.000, 1.000, 1.000, 226.892
6.000, 2.085, 1.807, 2.480, 0.016, 0.003, -0.831, 2.524, 1.364, 2.479, -0.671, 0.624, 0.042, 0.038, 0.032, 0.000, 0.000, 226.962
6.050, 2.104, 1.807, 2.485, 0.017, 0.005, -0.852, 2.538, 1.353, 2.483, -0.694, 0.628, 0.043, 0.987, 0.981, 1.000, 0.968, 230.898
6.100, 2.124, 1.808, 2.487, 0.003, 0.010, -0.874, 2.551, 1.342, 2.487, -0.717, 0.632, 0.046, 0.034, 0.037, 0.000, 0.000, 230.969
6.150, 2.145, 1.808, 2.491, 0.003, 0.008, -0.895, 2.564, 1.331, 2.490, -0.740, 0.635, 0.045, 0.023, 0.033, 0.000, 0.000, 231.025
6.200, 2.167, 1.807, 2.499, -0.005, -0.005, -0.918, 2.577, 1.319, 2.494, -0.762, 0.638, 0.046, 0.019, 0.031, 0.000, 0.000, 231.075
6.250, 2.190, 1.807, 2.500, -0.010, 0.008, -0.941, 2.590, 1.307, 2.498, -0.784, 0.640, 0.045, 0.039, 0.012, 0.000, 0.000, 231.126
6.300, 2.214, 1.807, 2.503, 0.001, 0.011, -0.966, 2.602, 1.295, 2.501, -0.805, 0.643, 0.045, 0.021, 0.035, 0.000, 0.000, 231.181
6.350, 2.237, 1.804, 2.509, 0.001, -0.001, -0.989, 2.615, 1.282, 2.505, -0.827, 0.644, 0.045, 0.747, 0.725, 0.773, 0.760, 234.187
6.400, 2.260, 1.802, 2.518, 0.009, 0.000, -1.012, 2.627, 1.269, 2.508, -0.847, 0.647, 0.045, 0.037, 0.039, 0.000, 0.000, 234.264
6.450, 2.283, 1.799, 2.516, 0.005, -0.003, -1.036, 2.639, 1.255, 2.512, -0.867, 0.650, 0.045, 0.981, 0.973, 1.000, 1.000, 238.218
6.500, 2.306, 1.796, 2.520, 0.006, -0.009, -1.059, 2.651, 1.241, 2.516, -0.887, 0.653, 0.044, 0.014, 0.033, 0.000, 0.000, 238.265
6.550, 2.329, 1.793, 2.521, 0.018, 0.008, -1.081, 2.662, 1.227, 2.519, -0.907, 0.656, 0.042, 0.029, 0.037, 0.000, 0.000, 238.331
6.600, 2.349, 1.788, 2.524, 0.022, 0.008, -1.100, 2.674, 1.213, 2.523, -0.925, 0.660, 0.043, 0.991, 0.984, 1.000, 0.956, 242.262
6.650, 2.369, 1.782, 2.524, 0.031, 0.018, -1.118, 2.685, 1.198, 2.526, -0.944, 0.664, 0.043, 0.024, 0.039, 0.022, 0.000, 242.348
6.700, 2.389, 1.776, 2.527, 0.013, 0.020, -1.138, 2.696, 1.183, 2.530, -0.962, 0.668, 0.045, 0.986, 0.999, 1.000, 0.989, 246.322
6.750, 2.410, 1.769, 2.530, 0.005, 0.010, -1.156, 2.707, 1.167, 2.533, -0.980, 0.671, 0.043, 0.000, 0.016, 0.000, 0.004, 246.342
6.800, 2.432, 1.762, 2.532, -0.014, 0.002, -1.174, 2.717, 1.151, 2.537, -0.997, 0.674, 0.042, 0.980, 0.929, 1.000, 1.000, 250.250
6.850, 2.454, 1.755, 2.543, -0.001, -0.004, -1.195, 2.728, 1.135, 2.540, -1.014, 0.678, 0.041, 0.922, 0.930, 0.786, 0.886, 253.774
6.900, 2.476, 1.750, 2.550, -0.011, 0.008, -1.218, 2.738, 1.119, 2.544, -1.031, 0.684, 0.041, 0.033, 0.041, 0.000, 0.000, 253.847
6.950, 2.500, 1.744, 2.559, -0.014, 0.004, -1.241, 2.748, 1.102, 2.547, -1.047, 0.689, 0.040, 0.032, 0.027, 0.000, 0.005, 253.910
7.000, 2.525, 1.738, 2.572, 0.005, 0.002, -1.266, 2.758, 1.085, 2.551, -1.063, 0.694, 0.038, 0.034, 0.050, 0.000, 0.000, 253.994
7.050, 2.550, 1.731, 2.571, 0.003, 0.011, -1.291, 2.768, 1.067, 2.554, -1.078, 0.699, 0.037, 0.995, 0.970, 1.000, 1.000, 257.959
7.100, 2.574, 1.722, 2.579, -0.001, -0.001, -1.314, 2.778, 1.049, 2.558, -1.093, 0.703, 0.038, 0.019, 0.031, 0.000, 0.000, 258.009
7.150, 2.597, 1.712, 2.580, -0.005, 0.012, -1.337, 2.787, 1.031, 2.561, -1.108, 0.707, 0.039, 0.036, 0.012, 0.000, 0.000, 258.057
7.200, 2.619, 1.700, 2.580, -0.026, 0.008, -1.358, 2.796, 1.013, 2.565, -1.123, 0.709, 0.039, 1.000, 0.984, 0.936, 1.000, 261.978
7.250, 2.641, 1.686, 2.578, -0.028, -0.002, -1.376, 2.805, 0.995, 2.568, -1.137, 0.711, 0.039, 0.020, 0.024, 0.000, 0.055, 262.076
7.300, 2.662, 1.671, 2.584, -0.013, -0.002, -1.391, 2.814, 0.976, 2.572, -1.151, 0.712, 0.035, 0.076, 0.042, 0.000, 0.000, 262.195
7.350, 2.680, 1.657, 2.588, -0.027, -0.014, -1.407, 2.822, 0.957, 2.575, -1.164, 0.715, 0.037, 1.000, 0.968, 0.973, 1.000, 266.135
7.400, 2.698, 1.645, 2.594, -0.029, -0.024, -1.420, 2.831, 0.937, 2.578, -1.178, 0.720, 0.035, 0.942, 0.929, 1.000, 1.000, 270.006
7.450, 2.717, 1.632, 2.601, -0.035, -0.012, -1.435, 2.839, 0.918, 2.582, -1.191, 0.725, 0.033, 0.038, 0.000, 0.000, 0.041, 270.085
7.500, 2.737, 1.617, 2.609, 0.001, -0.035, -1.452, 2.847, 0.898, 2.585, -1.203, 0.728, 0.033, 0.080, 0.000, 0.000, 0.000, 270.165
7.550, 2.755, 1.603, 2.609, 0.004, 0.004, -1.470, 2.855, 0.878, 2.588, -1.216, 0.733, 0.036, 0.050, 0.076, 0.000, 0.000, 270.291
7.600, 2.775, 1.590, 2.617, 0.018, -0.002, -1.485, 2.862, 0.857, 2.592, -1.228, 0.738, 0.033, 0.061, 0.047, 0.022, 0.000, 270.421
7.650, 2.795, 1.577, 2.630, 0.038, 0.013, -1.502, 2.870, 0.837, 2.595, -1.240, 0.745, 0.031, 0.030, 0.094, 0.018, 0.000, 270.563
7.700, 2.817, 1.563, 2.634, 0.037, 0.015, -1.519, 2.877, 0.816, 2.599, -1.252, 0.751, 0.028, 0.040, 0.101, 0.003, 0.000, 270.707
7.750, 2.839, 1.550, 2.645, 0.050, 0.026, -1.539, 2.884, 0.795, 2.602, -1.264, 0.758, 0.029, 0.011, 0.039, 0.102, 0.000, 270.858
7.800, 2.863, 1.536, 2.647, 0.072, 0.027, -1.559, 2.891, 0.773, 2.605, -1.275, 0.764, 0.024, 0.421, 0.483, 0.471, 0.273, 272.507
7.850, 2.888, 1.520, 2.646, 0.090, 0.031, -1.580, 2.897, 0.752, 2.608, -1.286, 0.769, 0.021, 0.980, 1.000, 1.000, 0.903, 276.390
7.900, 2.908, 1.503, 2.647, 0.065, 0.032, -1.598, 2.904, 0.730, 2.612, -1.297, 0.773, 0.021, 0.000, 0.017, 0.035, 0.000, 276.442
7.950, 2.925, 1.484, 2.646, -0.005, 0.014, -1.616, 2.910, 0.708, 2.615, -1.308, 0.777, 0.025, 1.000, 1.000, 0.829, 1.000, 280.271
8.000, 2.940, 1.466, 2.651, -0.079, -0.030, -1.630, 2.916, 0.686, 2.618, -1.319, 0.781, 0.028, 0.000, 0.000, 0.000, 0.148, 280.419
8.050, 2.953, 1.450, 2.665, -0.069, -0.077, -1.633, 2.922, 0.664, 2.622, -1.329, 0.788, 0.023, 0.805, 0.824, 1.000, 1.000, 284.047
8.100, 2.964, 1.437, 2.682, -0.038, -0.003, -1.646, 2.927, 0.641, 2.625, -1.339, 0.799, 0.029, 0.090, 0.000, 0.000, 0.078, 284.215
8.150, 2.978, 1.417, 2.694, 0.027, 0.009, -1.661, 2.933, 0.618, 2.628, -1.349, 0.803, 0.033, 0.061, 0.098, 0.000, 0.000, 284.373
8.200, 2.993, 1.394, 2.691, 0.035, 0.041, -1.673, 2.938, 0.596, 2.631, -1.359, 0.803, 0.033, 0.007, 0.081, 0.052, 0.000, 284.514
8.250, 3.008, 1.367, 2.696, 0.109, 0.040, -1.680, 2.943, 0.572, 2.635, -1.369, 0.800, 0.027, 0.000, 0.145, 0.220, 0.000, 284.880
8.300, 3.024, 1.344, 2.693, 0.135, 0.042, -1.690, 2.947, 0.549, 2.638, -1.379, 0.800, 0.023, 0.951, 1.000, 1.000, 0.882, 288.712
8.350, 3.039, 1.320, 2.692, 0.022, 0.017, -1.701, 2.952, 0.526, 2.641, -1.389, 0.800, 0.021, 0.673, 0.676, 0.774, 0.743, 291.578
8.400, 3.054, 1.293, 2.691, 0.023, 0.003, -1.715, 2.956, 0.502, 2.644, -1.398, 0.798, 0.021, 0.018, 0.000, 0.000, 0.002, 291.599
8.450, 3.067, 1.266, 2.689, 0.015, 0.019, -1.728, 2.960, 0.479, 2.647, -1.407, 0.796, 0.022, 1.000, 0.932, 0.999, 1.000, 295.530
8.500, 3.082, 1.240, 2.688, 0.015, 0.003, -1.736, 2.964, 0.455, 2.651, -1.417, 0.795, 0.016, 0.998, 1.000, 0.916, 1.000, 299.443
8.550, 3.096, 1.214, 2.686, 0.014, -0.005, -1.751, 2.968, 0.431, 2.654, -1.426, 0.794, 0.019, 0.963, 0.912, 1.000, 1.000, 303.318
8.600, 3.104, 1.194, 2.699, -0.081, -0.041, -1.757, 2.972, 0.407, 2.657, -1.435, 0.799, 0.020, 0.003, 0.000, 0.046, 0.106, 303.472
8.650, 3.116, 1.179, 2.707, -0.094, -0.030, -1.759, 2.975, 0.383, 2.660, -1.444, 0.810, 0.013, 0.000, 0.000, 0.000, 0.143, 303.616
8.700, 3.133, 1.161, 2.716, -0.002, 0.041, -1.765, 2.978, 0.359, 2.663, -1.453, 0.818, 0.004, 1.000, 1.000, 0.974, 0.977, 307.566
8.750, 3.148, 1.136, 2.719, -0.003, 0.018, -1.785, 2.981, 0.335, 2.666, -1.461, 0.821, 0.009, 0.253, 0.302, 0.267, 0.226, 308.614
8.800, 3.167, 1.112, 2.722, 0.096, 0.054, -1.798, 2.984, 0.310, 2.669, -1.470, 0.824, 0.003, 0.000, 0.139, 0.140, 0.000, 308.892
8.850, 3.183, 1.087, 2.728, 0.132, 0.063, -1.811, 2.986, 0.286, 2.672, -1.479, 0.826, 0.001, 1.000, 1.000, 1.000, 0.645, 312.537
8.900, 3.192, 1.065, 2.737, 0.114, 0.052, -1.829, 2.989, 0.261, 2.676, -1.487, 0.832, 0.010, 0.006, 0.026, 0.161, 0.000, 312.730
8.950, 3.201, 1.044, 2.742, 0.127, 0.043, -1.842, 2.991, 0.236, 2.679, -1.496, 0.836, 0.016, 0.000, 0.042, 0.143, 0.000, 312.916
9.000, 3.210, 1.018, 2.741, 0.064, 0.026, -1.844, 2.992, 0.212, 2.682, -1.505, 0.838, 0.011, 1.000, 1.000, 0.925, 0.963, 316.804
9.050, 3.219, 0.995, 2.748, -0.047, 0.001, -1.855, 2.994, 0.187, 2.685, -1.513, 0.841, 0.013, 1.000, 0.926, 0.884, 1.000, 320.614
9.100, 3.232, 0.973, 2.752, -0.107, -0.004, -1.857, 2.996, 0.162, 2.688, -1.521, 0.847, 0.003, 0.942, 0.913, 0.942, 1.000, 324.411
9.150, 3.243, 0.944, 2.755, -0.074, -0.058, -1.868, 2.997, 0.137, 2.691, -1.530, 0.846, 0.002, 0.882, 0.844, 1.000, 1.000, 328.137
9.200, 3.252, 0.916, 2.764, -0.049, 0.005, -1.871, 2.998, 0.112, 2.694, -1.538, 0.846, 0.006, 0.242, 0.000, 0.000, 0.000, 328.379
9.250, 3.256, 0.885, 2.756, 0.004, 0.057, -1.881, 2.999, 0.087, 2.697, -1.547, 0.840, 0.002, 1.000, 1.000, 0.906, 0.882, 332.166
9.300, 3.268, 0.852, 2.761, 0.175, 0.038, -1.894, 2.999, 0.062, 2.700, -1.555, 0.836, 0.005, 0.000, 0.104, 0.235, 0.000, 332.505
9.350, 3.278, 0.824, 2.760, 0.101, 0.017, -1.909, 3.000, 0.037, 2.703, -1.563, 0.837, 0.002, 0.000, 0.011, 0.118, 0.000, 332.633
9.400, 3.287, 0.797, 2.758, 0.108, 0.027, -1.918, 3.000, 0.012, 2.706, -1.572, 0.838, 0.003, 0.000, 0.015, 0.051, 0.000, 332.699
9.450, 3.293, 0.769, 2.756, 0.008, 0.001, -1.926, 3.000, -0.013, 2.709, -1.580, 0.836, 0.003, 0.344, 0.227, 0.215, 0.350, 333.835
9.500, 3.296, 0.742, 2.758, -0.113, -0.040, -1.931, 3.000, -0.038, 2.712, -1.588, 0.835, 0.003, 0.049, 0.000, 0.000, 0.146, 334.031
9.550, 3.309, 0.719, 2.764, -0.089, -0.026, -1.945, 2.999, -0.063, 2.714, -1.597, 0.842, 0.003, 0.000, 0.000, 0.000, 0.243, 334.274
9.600, 3.317, 0.697, 2.777, -0.062, -0.053, -1.949, 2.999, -0.088, 2.717, -1.605, 0.848, 0.007, 0.000, 0.000, 0.000, 0.248, 334.522
9.650, 3.324, 0.675, 2.794, -0.044, 0.008, -1.963, 2.998, -0.113, 2.720, -1.613, 0.856, 0.001, 0.173, 0.000, 0.000, 0.061, 334.756
9.700, 3.338, 0.651, 2.799, 0.173, 0.038, -1.968, 2.997, -0.137, 2.723, -1.622, 0.862, 0.011, 0.729, 0.873, 0.707, 0.151, 337.215
9.750, 3.348, 0.632, 2.801, 0.161, 0.085, -1.985, 2.996, -0.162, 2.726, -1.630, 0.872, 0.004, 1.000, 1.000, 1.000, 0.716, 340.931
9.800, 3.357, 0.610, 2.801, 0.077, 0.013, -1.994, 2.994, -0.187, 2.729, -1.639, 0.878, 0.004, 0.000, 0.000, 0.022, 0.032, 340.985
9.850, 3.368, 0.586, 2.801, -0.087, -0.015, -2.014, 2.992, -0.212, 2.732, -1.647, 0.885, 0.003, 0.966, 0.783, 1.000, 1.000, 344.734
9.900, 3.379, 0.564, 2.816, -0.124, 0.024, -2.031, 2.991, -0.237, 2.735, -1.656, 0.894, 0.009, 0.865, 1.000, 0.876, 1.000, 348.475
9.950, 3.380, 0.531, 2.823, -0.090, -0.108, -2.035, 2.989, -0.261, 2.737, -1.665, 0.887, 0.006, 0.000, 0.000, 0.124, 0.243, 348.842
10.000, 3.381, 0.501, 2.821, 0.003, -0.051, -2.041, 2.986, -0.286, 2.740, -1.673, 0.884, 0.005, 0.000, 0.000, 0.107, 0.134, 349.083
10.050, 3.386, 0.470, 2.830, 0.122, 0.059, -2.041, 2.984, -0.310, 2.743, -1.682, 0.882, 0.005, 0.119, 0.037, 0.250, 0.000, 349.489
10.100, 3.387, 0.436, 2.828, 0.170, 0.048, -2.044, 2.981, -0.335, 2.746, -1.691, 0.875, 0.011, 0.000, 0.087, 0.390, 0.000, 349.966
10.150, 3.390, 0.402, 2.822, 0.188, 0.018, -2.056, 2.978, -0.359, 2.749, -1.700, 0.869, 0.010, 0.937, 1.000, 1.000, 0.918, 353.821
10.200, 3.390, 0.369, 2.813, 0.004, -0.009, -2.061, 2.975, -0.383, 2.751, -1.709, 0.862, 0.014, 1.000, 0.985, 0.864, 1.000, 357.670
10.250, 3.394, 0.341, 2.807, -0.054, -0.002, -2.087, 2.972, -0.407, 2.754, -1.718, 0.861, 0.002, 0.974, 0.839, 0.977, 1.000, 361.461
10.300, 3.400, 0.314, 2.812, -0.101, -0.053, -2.081, 2.968, -0.431, 2.757, -1.727, 0.864, 0.016, 0.780, 0.874, 1.000, 1.000, 365.114
10.350, 3.410, 0.292, 2.818, -0.018, -0.095, -2.091, 2.964, -0.455, 2.759, -1.736, 0.872, 0.017, 0.000, 0.000, 0.150, 0.378, 365.643
10.400, 3.411, 0.271, 2.829, -0.016, 0.030, -2.103, 2.960, -0.479, 2.762, -1.746, 0.878, 0.009, 0.067, 0.000, 0.000, 0.000, 365.709
10.450, 3.416, 0.239, 2.827, 0.152, 0.054, -2.105, 2.956, -0.503, 2.765, -1.755, 0.875, 0.021, 0.009, 0.185, 0.295, 0.000, 366.198
10.500, 3.423, 0.209, 2.823, 0.188, -0.007, -2.117, 2.952, -0.526, 2.768, -1.765, 0.875, 0.024, 0.906, 1.000, 1.000, 1.000, 370.104
10.550, 3.423, 0.189, 2.826, -0.085, 0.014, -2.135, 2.947, -0.550, 2.770, -1.774, 0.880, 0.008, 0.028, 0.000, 0.000, 0.137, 370.269
10.600, 3.422, 0.159, 2.826, -0.122, -0.011, -2.142, 2.943, -0.573, 2.773, -1.784, 0.876, 0.009, 0.000, 0.000, 0.000, 0.204, 370.473
10.650, 3.423, 0.125, 2.840, -0.037, -0.061, -2.160, 2.938, -0.596, 2.775, -1.794, 0.872, 0.003, 0.000, 0.000, 0.000, 0.189, 370.662
10.700, 3.418, 0.096, 2.854, 0.040, 0.022, -2.165, 2.932, -0.619, 2.778, -1.804, 0.867, 0.003, 0.146, 0.013, 0.091, 0.000, 370.912
10.750, 3.420, 0.063, 2.841, 0.223, 0.014, -2.162, 2.927, -0.641, 2.781, -1.815, 0.862, 0.020, 0.668, 0.839, 0.935, 0.494, 373.848
10.800, 3.424, 0.038, 2.838, 0.073, -0.038, -2.171, 2.922, -0.664, 2.783, -1.825, 0.865, 0.022, 0.000, 0.000, 0.000, 0.101, 373.949
10.850, 3.429, 0.025, 2.842, -0.093, 0.010, -2.189, 2.916, -0.686, 2.786, -1.836, 0.879, 0.007, 0.969, 0.881, 0.851, 1.000, 377.649
10.900, 3.431, 0.009, 2.845, -0.144, -0.003, -2.188, 2.910, -0.708, 2.788, -1.847, 0.888, 0.011, 0.882, 0.940, 0.914, 1.000, 381.386
10.950, 3.436, -0.018, 2.847, -0.048, -0.031, -2.191, 2.904, -0.730, 2.791, -1.858, 0.891, 0.022, 0.000, 0.000, 0.088, 0.179, 381.653
11.000, 3.449, -0.045, 2.861, 0.251, 0.042, -2.202, 2.897, -0.752, 2.794, -1.869, 0.900, 0.032, 0.000, 0.133, 0.533, 0.000, 382.319
11.050, 3.453, -0.064, 2.870, 0.257, 0.056, -2.222, 2.891, -0.773, 2.796, -1.880, 0.908, 0.019, 0.000, 0.118, 0.218, 0.000, 382.654
11.100, 3.450, -0.088, 2.868, 0.066, 0.046, -2.226, 2.884, -0.795, 2.799, -1.892, 0.909, 0.020, 1.000, 1.000, 0.938, 0.971, 386.563
11.150, 3.441, -0.118, 2.868, -0.093, 0.004, -2.249, 2.877, -0.816, 2.801, -1.904, 0.900, 0.002, 0.694, 0.542, 0.642, 0.900, 389.341
11.200, 3.435, -0.152, 2.864, -0.137, -0.062, -2.245, 2.870, -0.837, 2.804, -1.916, 0.890, 0.016, 0.749, 0.895, 1.000, 1.000, 392.985
11.250, 3.444, -0.180, 2.882, 0.070, 0.017, -2.261, 2.862, -0.857, 2.806, -1.928, 0.896, 0.019, 0.070, 0.087, 0.000, 0.000, 393.142
11.300, 3.449, -0.204, 2.882, 0.266, 0.034, -2.275, 2.855, -0.878, 2.809, -1.941, 0.901, 0.019, 0.000, 0.115, 0.193, 0.000, 393.450
11.350, 3.446, -0.226, 2.877, 0.014, -0.007, -2.297, 2.847, -0.898, 2.811, -1.954, 0.902, 0.002, 0.986, 0.934, 0.910, 1.000, 397.279
11.400, 3.441, -0.250, 2.877, -0.187, 0.022, -2.328, 2.839, -0.918, 2.813, -1.967, 0.901, 0.024, 1.000, 1.000, 0.602, 1.000, 400.881
11.450, 3.436, -0.279, 2.885, -0.099, -0.101, -2.320, 2.831, -0.937, 2.816, -1.980, 0.897, 0.007, 0.000, 0.000, 0.111, 0.262, 401.254
11.500, 3.432, -0.300, 2.886, 0.032, -0.002, -2.319, 2.822, -0.957, 2.818, -1.994, 0.898, 0.000, 0.281, 0.000, 0.005, 0.000, 401.540
11.550, 3.431, -0.323, 2.883, 0.141, 0.070, -2.314, 2.814, -0.976, 2.821, -2.008, 0.901, 0.014, 0.062, 0.270, 0.187, 0.000, 402.059
11.600, 3.433, -0.349, 2.877, 0.192, 0.038, -2.322, 2.805, -0.995, 2.823, -2.022, 0.902, 0.020, 0.995, 1.000, 1.000, 0.827, 405.881
11.650, 3.432, -0.377, 2.870, 0.071, -0.009, -2.346, 2.796, -1.013, 2.825, -2.036, 0.901, 0.010, 1.000, 1.000, 0.819, 1.000, 409.700
11.700, 3.428, -0.398, 2.869, -0.141, 0.003, -2.378, 2.787, -1.032, 2.828, -2.051, 0.902, 0.017, 0.083, 0.000, 0.000, 0.057, 409.840
11.750, 3.428, -0.423, 2.870, -0.122, -0.075, -2.371, 2.778, -1.050, 2.830, -2.067, 0.904, 0.003, 0.793, 0.889, 1.000, 1.000, 413.522
11.800, 3.436, -0.443, 2.887, 0.005, 0.025, -2.378, 2.768, -1.067, 2.832, -2.082, 0.916, 0.012, 0.225, 0.000, 0.000, 0.000, 413.746
11.850, 3.449, -0.466, 2.895, 0.318, 0.017, -2.389, 2.758, -1.085, 2.835, -2.098, 0.929, 0.023, 0.943, 1.000, 1.000, 0.711, 417.400
11.900, 3.453, -0.481, 2.897, 0.134, 0.030, -2.417, 2.748, -1.102, 2.837, -2.114, 0.942, 0.003, 0.830, 0.956, 0.818, 0.849, 420.853
11.950, 3.449, -0.501, 2.911, -0.035, 0.042, -2.439, 2.738, -1.119, 2.839, -2.131, 0.944, 0.013, 0.111, 0.000, 0.000, 0.000, 420.964
12.000, 3.443, -0.537, 2.903, -0.106, -0.004, -2.444, 2.728, -1.135, 2.841, -2.148, 0.934, 0.001, 0.190, 0.032, 0.026, 0.276, 421.488
12.050, 3.439, -0.574, 2.896, -0.137, -0.032, -2.457, 2.717, -1.151, 2.844, -2.165, 0.926, 0.010, 0.758, 0.683, 0.510, 0.921, 424.361
12.100, 3.446, -0.606, 2.898, -0.060, -0.012, -2.467, 2.707, -1.167, 2.846, -2.183, 0.929, 0.026, 0.053, 0.000, 0.000, 0.028, 424.443
12.150, 3.448, -0.637, 2.902, 0.023, 0.025, -2.493, 2.696, -1.183, 2.848, -2.201, 0.931, 0.020, 0.121, 0.000, 0.066, 0.000, 424.631
12.200, 3.450, -0.672, 2.908, 0.194, 0.019, -2.517, 2.685, -1.198, 2.850, -2.220, 0.931, 0.023, 0.954, 1.000, 1.000, 0.811, 428.396
12.250, 3.454, -0.705, 2.895, 0.063, -0.045, -2.536, 2.674, -1.213, 2.853, -2.239, 0.932, 0.028, 0.049, 0.000, 0.000, 0.101, 428.546
12.300, 3.462, -0.727, 2.894, -0.166, -0.011, -2.563, 2.662, -1.227, 2.855, -2.259, 0.945, 0.020, 0.054, 0.000, 0.000, 0.195, 428.795
12.350, 3.468, -0.738, 2.910, -0.082, -0.011, -2.585, 2.650, -1.242, 2.857, -2.278, 0.962, 0.005, 0.000, 0.000, 0.000, 0.320, 429.114
12.400, 3.461, -0.758, 2.921, 0.109, 0.075, -2.597, 2.639, -1.255, 2.859, -2.299, 0.963, 0.001, 1.000, 1.000, 1.000, 0.566, 432.680
12.450, 3.445, -0.795, 2.911, 0.130, 0.014, -2.615, 2.627, -1.269, 2.861, -2.319, 0.948, 0.002, 0.958, 1.000, 1.000, 0.961, 436.599
12.500, 3.434, -0.842, 2.892, 0.000, -0.016, -2.626, 2.615, -1.282, 2.863, -2.341, 0.931, 0.023, 1.000, 1.000, 0.759, 1.000, 440.357
12.550, 3.427, -0.886, 2.886, -0.158, -0.052, -2.653, 2.602, -1.295, 2.865, -2.362, 0.921, 0.028, 0.118, 0.000, 0.000, 0.117, 440.592
12.600, 3.442, -0.928, 2.890, -0.078, -0.120, -2.689, 2.590, -1.307, 2.867, -2.384, 0.934, 0.033, 0.765, 0.910, 1.000, 1.000, 444.267
12.650, 3.474, -0.937, 2.911, -0.038, -0.078, -2.709, 2.577, -1.319, 2.869, -2.406, 0.976, 0.031, 0.000, 0.000, 0.178, 0.447, 444.891
12.700, 3.500, -0.935, 2.948, 0.166, 0.140, -2.727, 2.564, -1.331, 2.872, -2.429, 1.019, 0.015, 0.133, 0.116, 0.159, 0.000, 445.299
12.750, 3.496, -0.948, 2.950, 0.067, 0.070, -2.741, 2.551, -1.342, 2.874, -2.452, 1.027, 0.005, 1.000, 1.000, 0.913, 0.995, 449.207
12.800, 3.477, -0.997, 2.935, -0.121, -0.011, -2.767, 2.538, -1.353, 2.876, -2.476, 1.007, 0.012, 0.108, 0.000, 0.000, 0.031, 449.347
12.850, 3.462, -1.054, 2.930, -0.064, -0.049, -2.822, 2.524, -1.364, 2.878, -2.500, 0.989, 0.000, 0.685, 1.000, 0.960, 1.000, 452.992
12.900, 3.452, -1.104, 2.933, 0.035, -0.101, -2.847, 2.511, -1.374, 2.880, -2.524, 0.980, 0.015, 0.262, 0.000, 0.008, 0.101, 453.364
12.950, 3.452, -1.144, 2.938, 0.275, 0.032, -2.874, 2.497, -1.384, 2.882, -2.549, 0.987, 0.021, 0.000, 0.114, 0.273, 0.000, 453.751
13.000, 3.451, -1.173, 2.935, 0.055, 0.030, -2.903, 2.483, -1.394, 2.884, -2.574, 0.995, 0.014, 0.081, 0.004, 0.000, 0.011, 453.847
13.050, 3.438, -1.201, 2.934, -0.082, 0.066, -2.936, 2.469, -1.403, 2.885, -2.599, 0.991, 0.000, 0.046, 0.034, 0.000, 0.000, 453.927
13.100, 3.412, -1.252, 2.918, -0.101, -0.034, -2.938, 2.455, -1.411, 2.887, -2.624, 0.972, 0.038, 0.220, 0.142, 0.000, 0.119, 454.407
13.150, 3.400, -1.312, 2.922, -0.006, -0.057, -2.974, 2.440, -1.420, 2.889, -2.650, 0.966, 0.057, 0.212, 0.000, 0.000, 0.000, 454.619
13.200, 3.400, -1.362, 2.925, 0.293, 0.014, -3.017, 2.425, -1.427, 2.891, -2.676, 0.977, 0.058, 0.000, 0.152, 0.350, 0.000, 455.121
13.250, 3.396, -1.385, 2.925, 0.036, 0.065, -3.068, 2.411, -1.435, 2.893, -2.702, 0.987, 0.024, 0.594, 0.610, 0.648, 0.599, 457.572
13.300, 3.371, -1.416, 2.918, -0.150, 0.027, -3.088, 2.396, -1.442, 2.895, -2.728, 0.976, 0.027, 0.931, 0.940, 0.900, 1.000, 461.343
13.350, 3.340, -1.473, 2.925, -0.039, -0.050, -3.124, 2.381, -1.449, 2.897, -2.754, 0.960, 0.042, 0.010, 0.000, 0.000, 0.036, 461.390
13.400, 3.295, -1.526, 2.945, 0.365, 0.370, 3.117, 2.365, -1.455, 2.899, -2.781, 0.934, 0.052, 0.853, 1.000, 1.000, 0.000, 464.242
13.450, 3.147, -1.484, 2.972, 0.342, 0.120, 3.094, 2.350, -1.461, 2.900, -2.807, 0.801, 0.018, 0.211, 0.000, 0.000, 0.000, 464.454
13.500, 2.982, -1.353, 2.918, 0.033, -0.137, 3.101, 2.334, -1.466, 2.902, -2.834, 0.658, 0.214, 0.000, 0.000, 0.022, 0.035, 464.511
13.550, 2.861, -1.230, 2.920, -0.433, 0.079, -2.971, 2.318, -1.471, 2.904, -2.860, 0.594, 0.248, 0.837, 1.000, 1.000, 1.000, 468.348
13.600, 2.768, -1.245, 2.913, -0.279, -0.201, -2.630, 2.302, -1.476, 2.906, -2.886, 0.520, 0.051, 1.000, 0.832, 1.000, 0.932, 472.112
13.650, 2.783, -1.315, 2.899, -0.157, -0.323, -2.726, 2.286, -1.480, 2.908, -2.913, 0.524, 0.094, 0.933, 0.995, 0.765, 1.000, 475.805
13.700, 2.904, -1.320, 2.895, 0.017, -0.124, -2.815, 2.270, -1.484, 2.909, -2.939, 0.655, 0.074, 0.853, 0.868, 0.840, 1.000, 479.366
13.750, 3.046, -1.240, 2.922, -0.039, 0.147, -2.855, 2.254, -1.488, 2.911, -2.965, 0.830, 0.016, 0.317, 0.000, 0.000, 0.073, 479.756
13.800, 3.137, -1.173, 2.950, 0.037, 0.174, -2.883, 2.237, -1.491, 2.913, -2.990, 0.955, 0.081, 1.000, 1.000, 1.000, 0.596, 483.352
13.850, 3.179, -1.172, 2.966, 0.155, 0.071, -2.876, 2.220, -1.493, 2.914, -3.016, 1.012, 0.057, 0.000, 0.098, 0.258, 0.000, 483.708
13.900, 3.199, -1.219, 2.959, -0.214, 0.001, -2.905, 2.203, -1.495, 2.916, -3.041, 1.034, 0.034, 1.000, 0.927, 0.773, 1.000, 487.408
13.950, 3.230, -1.305, 2.941, -0.113, -0.082, -2.950, 2.186, -1.497, 2.918, -3.066, 1.062, 0.009, 0.000, 0.000, 0.055, 0.291, 487.754
14.000, 3.284, -1.400, 2.933, 0.289, -0.063, -3.030, 2.169, -1.498, 2.919, -3.090, 1.120, 0.023, 0.000, 0.033, 0.254, 0.000, 488.042
14.050, 3.340, -1.455, 2.937, 0.075, 0.092, -3.112, 2.152, -1.499, 2.921, -3.114, 1.189, 0.008, 0.013, 0.000, 0.057, 0.000, 488.112
14.100, 3.358, -1.510, 2.950, 0.080, 0.453, 3.098, 2.134, -1.500, 2.923, -3.138, 1.224, 0.035, 1.000, 1.000, 0.737, 1.000, 491.849
14.150, 3.225, -1.529, 2.979, 0.237, 0.336, 3.122, 2.117, -1.500, 2.924, 3.122, 1.110, 0.006, 0.987, 0.994, 0.992, 1.000, 495.821
14.200, 2.981, -1.460, 2.948, 0.144, 0.104, 3.131, 2.099, -1.500, 2.926, 3.099, 0.883, 0.056, 0.898, 0.904, 0.899, 0.886, 499.407
14.250, 2.698, -1.360, 2.910, -0.388, 0.153, -3.121, 2.081, -1.499, 2.927, 3.076, 0.632, 0.201, 1.000, 0.872, 0.125, 1.000, 502.404
14.300, 2.422, -1.405, 2.884, -0.593, -0.300, -2.692, 2.063, -1.498, 2.929, 3.054, 0.374, 0.197, 1.000, 0.856, 0.931, 0.943, 506.134
14.350, 2.350, -1.608, 2.882, 0.015, -0.598, -2.905, 2.045, -1.496, 2.931, 3.032, 0.328, 0.589, 0.838, 0.712, 0.776, 0.950, 509.411
14.400, 2.512, -1.724, 2.913, 0.057, 0.033, 3.107, 2.026, -1.494, 2.932, 3.011, 0.538, 0.407, 0.809, 0.000, 0.000, 0.000, 510.220
14.450, 2.677, -1.776, 2.955, 0.112, 0.387, 2.884, 2.008, -1.492, 2.934, 2.990, 0.728, 0.144, 0.134, 0.040, 0.000, 0.000, 510.394
14.500, 2.721, -1.774, 2.966, 0.192, 0.235, 2.846, 1.989, -1.489, 2.935, 2.970, 0.786, 0.075, 0.065, 0.020, 0.002, 0.000, 510.480
14.550, 2.703, -1.689, 2.944, 0.062, 0.067, 2.823, 1.970, -1.486, 2.936, 2.950, 0.760, 0.048, 0.984, 1.000, 0.965, 1.000, 514.429
14.600, 2.665, -1.570, 2.922, -0.034, -0.004, 2.886, 1.952, -1.482, 2.938, 2.930, 0.719, 0.133, 0.966, 1.000, 0.966, 1.000, 518.361
14.650, 2.623, -1.466, 2.911, -0.087, 0.014, 3.005, 1.932, -1.478, 2.939, 2.911, 0.691, 0.154, 0.000, 0.015, 0.000, 0.000, 518.376
14.700, 2.572, -1.394, 2.905, -0.077, 0.050, -3.140, 1.913, -1.474, 2.941, 2.893, 0.664, 0.118, 0.011, 0.006, 0.008, 0.000, 518.401
14.750, 2.523, -1.404, 2.917, -0.191, -0.125, -3.037, 1.894, -1.469, 2.942, 2.875, 0.632, 0.002, 1.000, 1.000, 0.860, 0.850, 522.111
14.800, 2.532, -1.508, 2.914, -0.059, -0.292, -3.116, 1.875, -1.464, 2.944, 2.857, 0.659, 0.093, 0.079, 0.000, 0.000, 0.167, 522.356
14.850, 2.616, -1.617, 2.912, -0.003, 0.412, 3.067, 1.855, -1.458, 2.945, 2.840, 0.778, 0.131, 0.505, 0.451, 0.000, 0.420, 523.732
14.900, 2.593, -1.668, 2.924, 0.202, 0.264, 2.982, 1.835, -1.452, 2.946, 2.824, 0.788, 0.118, 0.370, 0.339, 0.216, 0.379, 525.037
14.950, 2.487, -1.629, 2.899, 0.124, 0.047, 2.899, 1.815, -1.445, 2.948, 2.808, 0.698, 0.024, 0.000, 0.004, 0.000, 0.038, 525.079
15.000, 2.372, -1.537, 2.876, 0.010, -0.081, 2.894, 1.795, -1.438, 2.949, 2.792, 0.590, 0.078, 0.000, 0.047, 0.000, 0.054, 525.180
15.050, 2.288, -1.446, 2.868, -0.059, -0.098, 2.979, 1.775, -1.431, 2.950, 2.777, 0.519, 0.133, 0.000, 0.020, 0.025, 0.008, 525.233
15.100, 2.236, -1.386, 2.873, -0.093, -0.032, 3.103, 1.755, -1.423, 2.952, 2.762, 0.489, 0.116, 0.000, 0.005, 0.023, 0.000, 525.262
15.150, 2.204, -1.374, 2.886, -0.383, -0.151, -3.076, 1.735, -1.415, 2.953, 2.747, 0.476, 0.023, 0.240, 0.000, 0.000, 0.000, 525.502
15.200, 2.238, -1.457, 2.897, -0.094, -0.292, -3.127, 1.714, -1.407, 2.954, 2.733, 0.529, 0.110, 0.228, 0.000, 0.003, 0.000, 525.733
15.250, 2.296, -1.575, 2.896, 0.149, 0.376, 3.005, 1.694, -1.398, 2.955, 2.720, 0.630, 0.149, 0.091, 0.000, 0.084, 0.000, 525.907
15.300, 2.246, -1.639, 2.889, 0.232, 0.185, 2.894, 1.673, -1.389, 2.957, 2.706, 0.628, 0.164, 0.953, 0.987, 1.000, 0.977, 529.825
15.350, 2.145, -1.607, 2.874, 0.126, -0.015, 2.778, 1.652, -1.379, 2.958, 2.694, 0.549, 0.071, 0.000, 0.029, 0.000, 0.045, 529.899
15.400, 2.063, -1.528, 2.866, 0.029, -0.116, 2.753, 1.631, -1.369, 2.959, 2.681, 0.469, 0.035, 0.954, 1.000, 0.975, 1.000, 533.828
15.450, 2.026, -1.455, 2.874, -0.049, -0.095, 2.822, 1.610, -1.359, 2.960, 2.669, 0.435, 0.093, 0.000, 0.031, 0.001, 0.000, 533.861
15.500, 2.016, -1.409, 2.873, -0.071, -0.022, 2.932, 1.589, -1.348, 2.961, 2.657, 0.440, 0.067, 1.000, 0.970, 1.000, 1.000, 537.831
15.550, 2.010, -1.392, 2.879, -0.043, 0.048, 3.014, 1.568, -1.337, 2.962, 2.646, 0.453, 0.004, 0.731, 0.700, 0.794, 0.714, 540.770
15.600, 1.985, -1.387, 2.876, 0.003, 0.056, 3.044, 1.547, -1.325, 2.964, 2.635, 0.451, 0.044, 0.997, 0.968, 1.000, 0.972, 544.707
15.650, 1.939, -1.383, 2.870, 0.016, 0.031, 3.037, 1.525, -1.313, 2.965, 2.624, 0.430, 0.062, 0.001, 0.034, 0.000, 0.000, 544.742
15.700, 1.883, -1.374, 2.866, 0.017, 0.001, 3.014, 1.503, -1.301, 2.966, 2.613, 0.399, 0.063, 1.000, 0.990, 1.000, 0.986, 548.718
15.750, 1.828, -1.363, 2.863, -0.000, -0.029, 2.993, 1.482, -1.288, 2.967, 2.603, 0.369, 0.062, 0.384, 0.358, 0.414, 0.398, 550.272
15.800, 1.784, -1.353, 2.865, 0.004, -0.027, 2.973, 1.460, -1.275, 2.968, 2.593, 0.348, 0.065, 0.663, 0.673, 0.574, 0.611, 552.793
15.850, 1.751, -1.345, 2.867, -0.015, -0.023, 2.951, 1.438, -1.262, 2.969, 2.584, 0.339, 0.070, 0.032, 0.039, 0.000, 0.001, 552.864
15.900, 1.726, -1.343, 2.870, 0.007, -0.015, 2.928, 1.416, -1.248, 2.970, 2.575, 0.340, 0.083, 0.000, 0.000, 0.134, 0.000, 552.999
15.950, 1.706, -1.343, 2.875, 0.011, -0.002, 2.896, 1.394, -1.234, 2.971, 2.566, 0.344, 0.090, 0.000, 0.047, 0.000, 0.000, 553.046
16.000, 1.688, -1.343, 2.875, 0.008, 0.001, 2.863, 1.372, -1.220, 2.972, 2.557, 0.353, 0.091, 0.035, 0.033, 0.000, 0.000, 553.114
16.050, 1.672, -1.339, 2.879, 0.014, -0.004, 2.831, 1.350, -1.205, 2.973, 2.549, 0.361, 0.083, 0.000, 0.037, 0.000, 0.000, 553.151
16.100, 1.657, -1.333, 2.877, 0.003, -0.003, 2.805, 1.327, -1.190, 2.974, 2.541, 0.372, 0.071, 0.995, 0.972, 1.000, 1.000, 557.118
16.150, 1.643, -1.324, 2.877, 0.001, -0.000, 2.790, 1.305, -1.175, 2.975, 2.533, 0.382, 0.063, 0.519, 0.482, 0.501, 0.546, 559.166
16.200, 1.629, -1.313, 2.879, -0.001, -0.001, 2.779, 1.282, -1.159, 2.976, 2.525, 0.392, 0.055, 0.991, 0.966, 1.000, 1.000, 563.124
16.250, 1.614, -1.302, 2.881, 0.011, -0.000, 2.774, 1.259, -1.143, 2.977, 2.518, 0.400, 0.053, 0.000, 0.023, 0.072, 0.000, 563.219
16.300, 1.598, -1.289, 2.879, -0.003, 0.006, 2.768, 1.237, -1.127, 2.978, 2.510, 0.408, 0.047, 0.495, 0.464, 0.498, 0.524, 565.201
16.350, 1.579, -1.275, 2.880, 0.002, 0.007, 2.765, 1.214, -1.110, 2.978, 2.503, 0.412, 0.048, 0.636, 0.608, 0.673, 0.660, 567.778
16.400, 1.556, -1.259, 2.881, 0.002, 0.006, 2.761, 1.191, -1.093, 2.979, 2.497, 0.413, 0.045, 0.612, 0.580, 0.624, 0.610, 570.204
16.450, 1.532, -1.241, 2.879, -0.006, 0.001, 2.757, 1.168, -1.076, 2.980, 2.490, 0.412, 0.042, 1.000, 0.972, 0.986, 1.000, 574.161
16.500, 1.507, -1.224, 2.876, -0.005, -0.002, 2.752, 1.145, -1.058, 2.981, 2.484, 0.412, 0.040, 1.000, 0.966, 0.995, 1.000, 578.122
16.550, 1.482, -1.208, 2.882, 0.007, 0.001, 2.751, 1.122, -1.040, 2.982, 2.478, 0.410, 0.045, 0.000, 0.000, 0.084, 0.000, 578.206
16.600, 1.456, -1.193, 2.880, 0.009, 0.010, 2.743, 1.099, -1.022, 2.982, 2.472, 0.409, 0.047, 1.000, 0.979, 1.000, 0.987, 582.173
16.650, 1.429, -1.176, 2.884, -0.001, -0.000, 2.735, 1.075, -1.004, 2.983, 2.466, 0.406, 0.047, 0.005, 0.043, 0.000, 0.000, 582.221
16.700, 1.403, -1.160, 2.886, -0.009, -0.002, 2.725, 1.052, -0.985, 2.984, 2.460, 0.404, 0.046, 1.000, 0.966, 0.971, 1.000, 586.157
16.750, 1.377, -1.145, 2.884, -0.003, -0.005, 2.714, 1.028, -0.966, 2.985, 2.455, 0.404, 0.047, 1.000, 0.962, 0.999, 1.000, 590.118
16.800, 1.352, -1.130, 2.883, 0.006, 0.005, 2.704, 1.005, -0.947, 2.985, 2.450, 0.405, 0.049, 0.000, 0.048, 0.000, 0.000, 590.166
16.850, 1.327, -1.115, 2.884, 0.009, -0.007, 2.692, 0.981, -0.927, 2.986, 2.445, 0.406, 0.048, 0.000, 0.008, 0.069, 0.000, 590.243
16.900, 1.303, -1.099, 2.887, -0.005, 0.000, 2.681, 0.958, -0.908, 2.987, 2.440, 0.407, 0.045, 1.000, 0.964, 0.977, 1.000, 594.185
16.950, 1.280, -1.083, 2.890, 0.003, 0.004, 2.672, 0.934, -0.888, 2.987, 2.435, 0.409, 0.046, 0.005, 0.044, 0.000, 0.000, 594.234
17.000, 1.256, -1.067, 2.889, -0.006, -0.001, 2.664, 0.910, -0.867, 2.988, 2.431, 0.412, 0.046, 1.000, 0.917, 0.993, 1.000, 598.145
17.050, 1.233, -1.051, 2.891, 0.003, -0.003, 2.655, 0.886, -0.847, 2.989, 2.426, 0.414, 0.045, 0.647, 0.649, 0.667, 0.683, 600.791
17.100, 1.210, -1.034, 2.892, 0.007, 0.005, 2.645, 0.862, -0.826, 2.989, 2.422, 0.417, 0.043, 0.000, 0.067, 0.000, 0.000, 600.858
17.150, 1.186, -1.017, 2.892, 0.008, 0.001, 2.637, 0.838, -0.805, 2.990, 2.418, 0.418, 0.042, 0.000, 0.065, 0.000, 0.000, 600.924
17.200, 1.161, -0.998, 2.891, 0.006, -0.005, 2.629, 0.814, -0.784, 2.991, 2.414, 0.419, 0.040, 0.995, 0.962, 1.000, 1.000, 604.882
17.250, 1.138, -0.978, 2.889, -0.003, -0.001, 2.623, 0.790, -0.762, 2.991, 2.411, 0.421, 0.037, 0.015, 0.042, 0.000, 0.000, 604.939
17.300, 1.115, -0.959, 2.890, -0.007, 0.004, 2.618, 0.766, -0.741, 2.992, 2.407, 0.424, 0.036, 1.000, 0.917, 0.982, 1.000, 608.838
17.350, 1.091, -0.942, 2.893, -0.000, 0.001, 2.612, 0.742, -0.719, 2.992, 2.404, 0.426, 0.039, 0.185, 0.147, 0.226, 0.215, 609.609
17.400, 1.066, -0.923, 2.892, -0.001, -0.005, 2.605, 0.718, -0.697, 2.993, 2.400, 0.428, 0.040, 0.003, 0.000, 0.030, 0.017, 609.658
17.450, 1.041, -0.904, 2.894, 0.004, -0.005, 2.595, 0.693, -0.675, 2.993, 2.397, 0.428, 0.036, 0.000, 0.056, 0.000, 0.000, 609.714
17.500, 1.017, -0.885, 2.898, 0.008, -0.008, 2.587, 0.669, -0.652, 2.994, 2.394, 0.429, 0.035, 0.000, 0.000, 0.113, 0.000, 609.827
17.550, 0.993, -0.866, 2.900, 0.016, 0.004, 2.580, 0.645, -0.630, 2.994, 2.391, 0.432, 0.035, 0.000, 0.094, 0.007, 0.000, 609.928
17.600, 0.969, -0.848, 2.897, 0.006, 0.007, 2.572, 0.620, -0.607, 2.995, 2.388, 0.435, 0.036, 0.000, 0.047, 0.000, 0.000, 609.975
17.650, 0.944, -0.827, 2.900, 0.006, -0.004, 2.565, 0.596, -0.584, 2.995, 2.386, 0.435, 0.033, 0.356, 0.357, 0.264, 0.302, 611.254
17.700, 0.920, -0.806, 2.895, 0.003, 0.005, 2.558, 0.571, -0.561, 2.995, 2.383, 0.438, 0.030, 0.000, 0.044, 0.000, 0.000, 611.298
17.750, 0.896, -0.785, 2.896, 0.007, -0.005, 2.554, 0.547, -0.538, 2.996, 2.381, 0.439, 0.028, 1.000, 0.950, 1.000, 1.000, 615.248
17.800, 0.873, -0.763, 2.898, -0.010, 0.002, 2.549, 0.522, -0.514, 2.996, 2.378, 0.441, 0.025, 0.995, 0.995, 0.955, 1.000, 619.192
17.850, 0.849, -0.744, 2.901, 0.004, -0.004, 2.543, 0.497, -0.491, 2.997, 2.376, 0.444, 0.025, 0.999, 0.946, 1.000, 1.000, 623.137
17.900, 0.827, -0.725, 2.903, -0.004, 0.004, 2.540, 0.473, -0.467, 2.997, 2.374, 0.448, 0.029, 1.000, 0.923, 0.960, 1.000, 627.019
17.950, 0.802, -0.705, 2.903, 0.010, -0.001, 2.534, 0.448, -0.443, 2.997, 2.372, 0.450, 0.031, 0.000, 0.000, 0.097, 0.000, 627.116
18.000, 0.775, -0.683, 2.901, 0.002, -0.005, 2.527, 0.423, -0.419, 2.997, 2.370, 0.451, 0.029, 0.000, 0.000, 0.048, 0.011, 627.175
18.050, 0.750, -0.660, 2.901, 0.007, -0.006, 2.519, 0.399, -0.395, 2.998, 2.369, 0.451, 0.024, 0.000, 0.066, 0.000, 0.000, 627.241
18.100, 0.726, -0.638, 2.904, -0.000, -0.002, 2.514, 0.374, -0.371, 2.998, 2.367, 0.452, 0.022, 0.000, 0.066, 0.000, 0.000, 627.307
18.150, 0.703, -0.617, 2.906, 0.009, 0.001, 2.513, 0.349, -0.347, 2.998, 2.366, 0.454, 0.023, 0.000, 0.068, 0.000, 0.000, 627.375
18.200, 0.679, -0.595, 2.906, -0.006, 0.001, 2.509, 0.324, -0.322, 2.999, 2.364, 0.456, 0.023, 0.000, 0.048, 0.000, 0.014, 627.436
18.250, 0.654, -0.573, 2.906, -0.003, -0.002, 2.504, 0.299, -0.298, 2.999, 2.363, 0.458, 0.023, 1.000, 0.909, 0.952, 1.000, 631.297
18.300, 0.629, -0.551, 2.904, -0.004, -0.001, 2.500, 0.274, -0.273, 2.999, 2.362, 0.460, 0.022, 1.000, 0.888, 0.975, 1.000, 635.160
18.350, 0.605, -0.528, 2.908, -0.002, -0.006, 2.496, 0.249, -0.249, 2.999, 2.361, 0.461, 0.022, 0.001, 0.000, 0.042, 0.018, 635.221
18.400, 0.580, -0.506, 2.910, 0.006, -0.002, 2.491, 0.225, -0.224, 2.999, 2.360, 0.463, 0.020, 0.000, 0.072, 0.000, 0.000, 635.293
18.450, 0.557, -0.483, 2.907, 0.003, -0.004, 2.487, 0.200, -0.199, 2.999, 2.359, 0.465, 0.017, 0.000, 0.063, 0.000, 0.000, 635.356
18.500, 0.534, -0.460, 2.905, 0.002, 0.000, 2.484, 0.175, -0.174, 3.000, 2.358, 0.469, 0.014, 1.000, 0.939, 1.000, 1.000, 639.296
18.550, 0.511, -0.438, 2.905, -0.005, -0.002, 2.484, 0.150, -0.150, 3.000, 2.358, 0.472, 0.015, 1.000, 0.902, 0.949, 1.000, 643.147
18.600, 0.488, -0.415, 2.907, -0.009, -0.002, 2.483, 0.125, -0.125, 3.000, 2.357, 0.474, 0.016, 1.000, 0.880, 0.959, 1.000, 646.986
18.650, 0.464, -0.392, 2.907, 0.010, -0.008, 2.479, 0.100, -0.100, 3.000, 2.357, 0.476, 0.014, 0.971, 0.967, 1.000, 1.000, 650.924
18.700, 0.441, -0.368, 2.909, 0.003, 0.002, 2.477, 0.075, -0.075, 3.000, 2.356, 0.478, 0.010, 1.000, 1.000, 0.948, 0.976, 654.848
18.750, 0.420, -0.345, 2.909, -0.004, 0.006, 2.477, 0.050, -0.050, 3.000, 2.356, 0.482, 0.009, 0.000, 0.073, 0.000, 0.000, 654.921
18.800, 0.397, -0.322, 2.906, 0.001, -0.008, 2.476, 0.025, -0.025, 3.000, 2.356, 0.486, 0.009, 0.000, 0.052, 0.000, 0.039, 655.011
18.850, 0.374, -0.300, 2.912, -0.005, -0.000, 2.475, -0.000, 0.000, 3.000, 2.356, 0.487, 0.009, 0.000, 0.054, 0.000, 0.022, 655.087
18.900, 0.349, -0.276, 2.910, 0.001, 0.000, 2.474, -0.025, 0.025, 3.000, 2.356, 0.489, 0.010, 0.287, 0.216, 0.314, 0.319, 656.223
18.950, 0.325, -0.251, 2.907, 0.003, -0.006, 2.472, -0.050, 0.050, 3.000, 2.357, 0.490, 0.007, 1.000, 0.928, 1.000, 1.000, 660.151
19.000, 0.302, -0.226, 2.908, -0.011, -0.001, 2.472, -0.075, 0.075, 3.000, 2.357, 0.492, 0.005, 0.000, 0.058, 0.000, 0.026, 660.235
19.050, 0.279, -0.203, 2.908, 0.003, -0.001, 2.473, -0.100, 0.100, 3.000, 2.357, 0.494, 0.007, 0.850, 0.790, 0.923, 0.894, 663.693
19.100, 0.255, -0.180, 2.911, 0.003, -0.004, 2.473, -0.125, 0.125, 3.000, 2.358, 0.495, 0.008, 0.000, 0.006, 0.106, 0.000, 663.804
19.150, 0.230, -0.157, 2.914, 0.003, 0.001, 2.471, -0.150, 0.150, 3.000, 2.358, 0.496, 0.008, 1.000, 0.934, 1.000, 1.000, 667.739
19.200, 0.206, -0.134, 2.913, -0.004, 0.010, 2.470, -0.175, 0.175, 3.000, 2.359, 0.498, 0.009, 1.000, 0.907, 0.958, 0.963, 671.567
19.250, 0.182, -0.109, 2.912, 0.008, -0.016, 2.468, -0.200, 0.200, 2.999, 2.360, 0.499, 0.006, 0.000, 0.076, 0.000, 0.000, 671.643
19.300, 0.161, -0.085, 2.908, -0.007, 0.003, 2.466, -0.225, 0.224, 2.999, 2.361, 0.503, 0.001, 1.000, 0.948, 0.978, 1.000, 675.569
19.350, 0.140, -0.062, 2.910, -0.012, 0.002, 2.469, -0.250, 0.249, 2.999, 2.362, 0.507, 0.000, 0.000, 0.061, 0.000, 0.030, 675.660
19.400, 0.118, -0.039, 2.906, 0.016, 0.002, 2.472, -0.275, 0.274, 2.999, 2.363, 0.510, 0.004, 1.000, 0.924, 1.000, 1.000, 679.583
19.450, 0.095, -0.014, 2.906, -0.008, -0.000, 2.472, -0.300, 0.298, 2.999, 2.365, 0.512, 0.000, 0.000, 0.068, 0.000, 0.022, 679.673
19.500, 0.072, 0.010, 2.909, 0.000, -0.001, 2.474, -0.325, 0.323, 2.999, 2.366, 0.513, 0.000, 0.651, 0.729, 0.570, 0.650, 682.273
19.550, 0.049, 0.033, 2.914, 0.018, 0.001, 2.475, -0.349, 0.347, 2.998, 2.367, 0.514, 0.001, 0.000, 0.133, 0.043, 0.000, 682.449
19.600, 0.024, 0.056, 2.913, 0.021, 0.012, 2.475, -0.374, 0.371, 2.998, 2.369, 0.515, 0.002, 0.994, 1.000, 0.926, 0.967, 686.337
19.650, -0.001, 0.080, 2.910, -0.000, 0.004, 2.475, -0.399, 0.395, 2.998, 2.371, 0.516, 0.003, 1.000, 0.871, 0.980, 1.000, 690.188
19.700, -0.025, 0.104, 2.912, 0.004, -0.002, 2.473, -0.424, 0.420, 2.997, 2.373, 0.516, 0.000, 0.430, 0.331, 0.448, 0.441, 691.837
19.750, -0.048, 0.129, 2.912, -0.004, 0.000, 2.473, -0.449, 0.443, 2.997, 2.375, 0.517, 0.003, 1.000, 0.935, 0.980, 1.000, 695.752
19.800, -0.070, 0.152, 2.908, 0.009, -0.016, 2.474, -0.473, 0.467, 2.997, 2.377, 0.520, 0.004, 0.000, 0.086, 0.000, 0.006, 695.844
19.850, -0.088, 0.174, 2.909, -0.001, -0.007, 2.477, -0.498, 0.491, 2.997, 2.379, 0.526, 0.006, 0.000, 0.000, 0.097, 0.013, 695.954
19.900, -0.108, 0.195, 2.908, 0.007, 0.011, 2.481, -0.523, 0.515, 2.996, 2.381, 0.531, 0.004, 0.000, 0.095, 0.000, 0.000, 696.050
19.950, -0.130, 0.218, 2.912, -0.001, -0.007, 2.485, -0.547, 0.538, 2.996, 2.384, 0.532, 0.003, 0.008, 0.000, 0.001, 0.020, 696.079
20.000, -0.153, 0.242, 2.913, 0.010, 0.013, 2.488, -0.572, 0.561, 2.995, 2.386, 0.533, 0.003, 1.000, 0.928, 1.000, 0.976, 699.983
20.050, -0.176, 0.269, 2.912, -0.003, 0.000, 2.491, -0.596, 0.584, 2.995, 2.389, 0.532, 0.006, 0.000, 0.075, 0.000, 0.020, 700.078
20.100, -0.200, 0.295, 2.904, 0.014, -0.015, 2.494, -0.621, 0.607, 2.995, 2.392, 0.532, 0.009, 0.997, 0.914, 1.000, 1.000, 703.989
20.150, -0.219, 0.320, 2.905, 0.003, 0.005, 2.499, -0.645, 0.630, 2.994, 2.395, 0.535, 0.014, 0.964, 1.000, 0.991, 0.989, 707.933
20.200, -0.237, 0.342, 2.906, -0.013, 0.016, 2.509, -0.670, 0.653, 2.994, 2.398, 0.539, 0.009, 0.079, 0.074, 0.000, 0.000, 708.086
20.250, -0.259, 0.363, 2.906, 0.008, 0.000, 2.514, -0.694, 0.675, 2.993, 2.401, 0.543, 0.006, 0.819, 0.728, 0.871, 0.805, 711.309
20.300, -0.280, 0.386, 2.911, 0.004, -0.004, 2.517, -0.718, 0.697, 2.993, 2.404, 0.543, 0.006, 0.000, 0.000, 0.135, 0.000, 711.444
20.350, -0.305, 0.408, 2.914, 0.024, 0.005, 2.519, -0.742, 0.719, 2.992, 2.408, 0.543, 0.005, 0.000, 0.129, 0.063, 0.000, 711.636
20.400, -0.330, 0.432, 2.909, 0.015, -0.004, 2.519, -0.767, 0.741, 2.992, 2.411, 0.541, 0.006, 0.000, 0.077, 0.000, 0.004, 711.718
20.450, -0.351, 0.457, 2.904, 0.003, -0.009, 2.520, -0.791, 0.763, 2.991, 2.415, 0.542, 0.014, 1.000, 0.950, 1.000, 1.000, 715.667
20.500, -0.367, 0.479, 2.905, -0.015, 0.000, 2.527, -0.815, 0.784, 2.991, 2.419, 0.548, 0.017, 1.000, 0.900, 0.974, 0.991, 719.532
20.550, -0.383, 0.498, 2.907, -0.002, 0.007, 2.534, -0.839, 0.805, 2.990, 2.423, 0.556, 0.014, 0.717, 0.628, 0.789, 0.729, 722.396
20.600, -0.402, 0.516, 2.907, 0.007, 0.020, 2.538, -0.863, 0.826, 2.989, 2.427, 0.562, 0.010, 1.000, 0.910, 1.000, 0.997, 726.303
20.650, -0.426, 0.538, 2.909, -0.007, 0.011, 2.542, -0.887, 0.847, 2.989, 2.432, 0.561, 0.008, 0.008, 0.057, 0.000, 0.020, 726.388
20.700, -0.451, 0.563, 2.904, 0.022, -0.011, 2.545, -0.911, 0.868, 2.988, 2.436, 0.558, 0.011, 0.989, 0.912, 1.000, 1.000, 730.289
20.750, -0.471, 0.590, 2.905, 0.002, -0.022, 2.551, -0.934, 0.888, 2.987, 2.441, 0.557, 0.019, 0.000, 0.092, 0.000, 0.006, 730.387
20.800, -0.488, 0.614, 2.901, -0.008, -0.007, 2.561, -0.958, 0.908, 2.987, 2.446, 0.561, 0.022, 0.404, 0.338, 0.502, 0.447, 732.079
20.850, -0.505, 0.634, 2.910, 0.007, 0.007, 2.571, -0.982, 0.928, 2.986, 2.451, 0.565, 0.018, 0.000, 0.115, 0.050, 0.000, 732.244
20.900, -0.528, 0.653, 2.908, 0.016, 0.011, 2.578, -1.005, 0.947, 2.985, 2.456, 0.566, 0.011, 0.000, 0.090, 0.000, 0.001, 732.335
20.950, -0.551, 0.675, 2.908, 0.003, -0.006, 2.580, -1.029, 0.966, 2.985, 2.462, 0.564, 0.014, 0.000, 0.090, 0.000, 0.020, 732.445
21.000, -0.574, 0.697, 2.906, 0.006, 0.007, 2.584, -1.052, 0.985, 2.984, 2.467, 0.564, 0.015, 1.000, 0.926, 1.000, 1.000, 736.371
21.050, -0.598, 0.720, 2.907, -0.003, -0.001, 2.591, -1.076, 1.004, 2.983, 2.473, 0.561, 0.013, 0.000, 0.076, 0.000, 0.009, 736.456
21.100, -0.622, 0.742, 2.910, -0.006, 0.003, 2.597, -1.099, 1.023, 2.982, 2.479, 0.558, 0.013, 0.010, 0.112, 0.000, 0.000, 736.578
21.150, -0.646, 0.765, 2.910, 0.003, -0.011, 2.602, -1.122, 1.041, 2.982, 2.485, 0.555, 0.014, 0.458, 0.289, 0.369, 0.382, 738.075
21.200, -0.667, 0.787, 2.912, -0.012, -0.014, 2.609, -1.145, 1.059, 2.981, 2.491, 0.555, 0.016, 1.000, 0.986, 0.879, 0.979, 741.919
21.250, -0.685, 0.805, 2.913, -0.010, 0.002, 2.616, -1.168, 1.076, 2.980, 2.498, 0.558, 0.014, 0.000, 0.078, 0.000, 0.004, 742.001
21.300, -0.706, 0.821, 2.910, 0.002, 0.007, 2.619, -1.191, 1.093, 2.979, 2.505, 0.561, 0.012, 1.000, 0.901, 1.000, 1.000, 745.903
21.350, -0.728, 0.840, 2.909, 0.015, 0.003, 2.621, -1.214, 1.110, 2.978, 2.512, 0.561, 0.012, 1.000, 1.000, 0.906, 0.992, 749.801
21.400, -0.750, 0.859, 2.910, 0.015, 0.004, 2.625, -1.237, 1.127, 2.977, 2.519, 0.561, 0.013, 0.973, 1.000, 0.993, 0.990, 753.758
21.450, -0.768, 0.880, 2.905, -0.004, -0.010, 2.630, -1.260, 1.143, 2.977, 2.527, 0.562, 0.020, 0.111, 0.099, 0.000, 0.000, 753.967
21.500, -0.781, 0.898, 2.908, -0.012, -0.009, 2.641, -1.283, 1.159, 2.976, 2.534, 0.569, 0.020, 0.007, 0.000, 0.069, 0.004, 754.047
21.550, -0.796, 0.913, 2.912, -0.005, 0.018, 2.649, -1.305, 1.175, 2.975, 2.542, 0.576, 0.017, 0.000, 0.089, 0.000, 0.000, 754.136
21.600, -0.815, 0.929, 2.902, 0.024, -0.004, 2.655, -1.328, 1.191, 2.974, 2.550, 0.580, 0.016, 0.000, 0.098, 0.003, 0.000, 754.236
21.650, -0.831, 0.951, 2.905, -0.004, -0.003, 2.662, -1.350, 1.206, 2.973, 2.559, 0.582, 0.023, 0.698, 0.611, 0.689, 0.695, 756.930
21.700, -0.847, 0.972, 2.905, -0.012, 0.008, 2.673, -1.372, 1.220, 2.972, 2.568, 0.585, 0.026, 1.000, 0.931, 0.997, 1.000, 760.858
21.750, -0.865, 0.990, 2.899, 0.006, 0.010, 2.685, -1.394, 1.235, 2.971, 2.577, 0.587, 0.024, 1.000, 0.943, 1.000, 0.996, 764.797
21.800, -0.885, 1.011, 2.903, -0.006, 0.004, 2.697, -1.416, 1.249, 2.970, 2.586, 0.586, 0.024, 1.000, 0.952, 0.996, 1.000, 768.745
21.850, -0.907, 1.032, 2.901, 0.010, 0.007, 2.711, -1.438, 1.262, 2.969, 2.596, 0.584, 0.021, 1.000, 0.939, 1.000, 1.000, 772.684
21.900, -0.930, 1.054, 2.898, -0.020, 0.002, 2.724, -1.460, 1.276, 2.968, 2.605, 0.579, 0.022, 0.000, 0.000, 0.007, 0.086, 772.776
21.950, -0.954, 1.076, 2.893, -0.004, -0.005, 2.734, -1.482, 1.289, 2.967, 2.616, 0.574, 0.025, 1.000, 0.933, 0.960, 0.927, 776.596
22.000, -0.976, 1.097, 2.896, -0.008, -0.001, 2.747, -1.504, 1.301, 2.966, 2.626, 0.570, 0.025, 1.000, 0.920, 0.996, 1.000, 780.512
22.050, -0.996, 1.116, 2.893, 0.002, -0.004, 2.759, -1.525, 1.314, 2.965, 2.637, 0.569, 0.025, 0.000, 0.093, 0.000, 0.003, 780.609
22.100, -1.015, 1.133, 2.894, -0.006, -0.006, 2.773, -1.547, 1.325, 2.964, 2.648, 0.570, 0.022, 0.000, 0.034, 0.000, 0.028, 780.671
22.150, -1.033, 1.149, 2.897, -0.003, 0.003, 2.783, -1.568, 1.337, 2.962, 2.660, 0.572, 0.021, 0.000, 0.078, 0.000, 0.035, 780.784
22.200, -1.051, 1.163, 2.899, -0.004, 0.012, 2.792, -1.590, 1.348, 2.961, 2.672, 0.573, 0.019, 0.000, 0.084, 0.000, 0.008, 780.875
22.250, -1.072, 1.179, 2.898, 0.011, -0.006, 2.803, -1.611, 1.359, 2.960, 2.684, 0.571, 0.017, 0.885, 0.810, 0.966, 0.897, 784.433
22.300, -1.090, 1.199, 2.897, -0.011, -0.007, 2.812, -1.632, 1.369, 2.959, 2.696, 0.571, 0.024, 0.324, 0.372, 0.621, 0.527, 786.277
22.350, -1.107, 1.215, 2.895, 0.003, -0.004, 2.828, -1.653, 1.379, 2.958, 2.709, 0.573, 0.020, 0.000, 0.000, 0.230, 0.050, 786.556
22.400, -1.125, 1.230, 2.891, 0.005, -0.012, 2.839, -1.673, 1.389, 2.957, 2.723, 0.574, 0.021, 0.299, 0.231, 0.376, 0.314, 787.777
22.450, -1.140, 1.247, 2.897, -0.013, 0.001, 2.850, -1.694, 1.398, 2.955, 2.736, 0.578, 0.026, 0.000, 0.073, 0.000, 0.024, 787.874
22.500, -1.155, 1.261, 2.897, -0.004, 0.017, 2.864, -1.715, 1.407, 2.954, 2.750, 0.581, 0.022, 0.000, 0.081, 0.000, 0.010, 787.965
22.550, -1.176, 1.276, 2.896, 0.006, -0.011, 2.877, -1.735, 1.415, 2.953, 2.765, 0.579, 0.020, 0.881, 0.908, 1.000, 1.000, 791.754
22.600, -1.195, 1.292, 2.900, -0.007, 0.005, 2.888, -1.755, 1.424, 2.952, 2.780, 0.578, 0.024, 1.000, 0.925, 0.967, 0.998, 795.645
22.650, -1.216, 1.309, 2.889, 0.012, 0.000, 2.901, -1.776, 1.431, 2.950, 2.795, 0.576, 0.026, 1.000, 0.922, 1.000, 1.000, 799.567
22.700, -1.234, 1.328, 2.888, 0.005, -0.007, 2.919, -1.796, 1.439, 2.949, 2.811, 0.576, 0.028, 0.000, 0.066, 0.000, 0.000, 799.632
22.750, -1.250, 1.345, 2.892, -0.016, -0.004, 2.936, -1.816, 1.445, 2.948, 2.827, 0.578, 0.031, 1.000, 0.944, 0.972, 1.000, 803.549
22.800, -1.265, 1.360, 2.895, -0.003, 0.007, 2.956, -1.836, 1.452, 2.946, 2.844, 0.581, 0.027, 1.000, 1.000, 0.932, 0.950, 807.430
22.850, -1.281, 1.374, 2.894, -0.005, 0.012, 2.971, -1.855, 1.458, 2.945, 2.861, 0.582, 0.027, 1.000, 0.930, 1.000, 1.000, 811.360
