time, drone_x, drone_y, drone_z, drone_roll, drone_pitch, drone_yaw, target_x, target_y, target_z, target_direction, distance_to_target, aiming_error, m1_power, m2_power, m3_power, m4_power, cumulative_energy
0.000, 0.000, 0.000, 1.000, -0.034, 0.005, 0.008, 0.000, 0.000, 2.000, 0.785, 1.000, 1.708, 0.000, 0.839, 0.222, 0.661, 1.722
0.100, -0.008, -0.006, 1.029, 0.170, -0.210, 0.206, 0.050, 0.050, 2.008, 0.785, 0.983, 0.563, 0.763, 1.000, 0.898, 1.000, 5.384
0.200, -0.043, -0.047, 1.139, 0.115, -0.020, 0.501, 0.100, 0.100, 2.017, 0.784, 0.901, 0.298, 0.171, 0.000, 0.258, 0.000, 5.812
0.300, -0.079, -0.101, 1.263, 0.073, 0.074, 0.674, 0.150, 0.150, 2.025, 0.783, 0.834, 0.156, 0.283, 0.066, 0.053, 0.000, 6.214
0.400, -0.110, -0.155, 1.362, 0.009, 0.067, 0.777, 0.200, 0.199, 2.033, 0.781, 0.820, 0.076, 0.000, 0.000, 0.141, 0.103, 6.458
0.500, -0.133, -0.204, 1.457, -0.016, 0.148, 0.829, 0.250, 0.249, 2.042, 0.779, 0.833, 0.040, 0.995, 0.951, 1.000, 1.000, 10.403
0.600, -0.148, -0.242, 1.544, -0.030, 0.198, 0.866, 0.300, 0.298, 2.050, 0.776, 0.865, 0.013, 1.000, 0.902, 1.000, 1.000, 14.305
0.700, -0.154, -0.265, 1.624, -0.034, 0.219, 0.883, 0.349, 0.347, 2.058, 0.773, 0.903, 0.001, 0.000, 0.080, 0.000, 0.000, 14.385
0.800, -0.149, -0.270, 1.699, -0.033, 0.239, 0.893, 0.399, 0.395, 2.067, 0.770, 0.937, 0.011, 0.049, 0.005, 0.010, 0.000, 14.449
0.900, -0.133, -0.255, 1.768, -0.034, 0.227, 0.889, 0.448, 0.443, 2.075, 0.766, 0.959, 0.013, 0.000, 0.038, 0.064, 0.074, 14.624
1.000, -0.107, -0.223, 1.827, -0.031, 0.214, 0.884, 0.498, 0.491, 2.083, 0.761, 0.970, 0.016, 0.883, 1.000, 1.000, 1.000, 18.506
1.100, -0.070, -0.174, 1.876, -0.036, 0.181, 0.871, 0.547, 0.538, 2.092, 0.756, 0.966, 0.015, 1.000, 1.000, 0.949, 0.976, 22.431
1.200, -0.025, -0.110, 1.920, -0.026, 0.134, 0.861, 0.596, 0.584, 2.100, 0.751, 0.949, 0.019, 0.972, 1.000, 1.000, 0.974, 26.377
1.300, 0.027, -0.036, 1.959, -0.022, 0.094, 0.848, 0.645, 0.630, 2.108, 0.745, 0.920, 0.026, 0.016, 0.000, 0.000, 0.000, 26.393
1.400, 0.081, 0.047, 1.986, -0.043, 0.050, 0.832, 0.694, 0.675, 2.116, 0.739, 0.887, 0.034, 0.030, 0.000, 0.000, 0.089, 26.513
1.500, 0.137, 0.134, 2.010, -0.030, 0.011, 0.816, 0.742, 0.719, 2.125, 0.732, 0.850, 0.048, 0.000, 0.000, 0.086, 0.104, 26.702
1.600, 0.191, 0.224, 2.035, 0.011, -0.015, 0.793, 0.791, 0.763, 2.133, 0.724, 0.811, 0.062, 0.963, 1.000, 1.000, 0.929, 30.595
1.700, 0.244, 0.314, 2.054, -0.017, -0.035, 0.763, 0.839, 0.805, 2.141, 0.716, 0.776, 0.072, 1.000, 1.000, 0.959, 0.915, 34.469
1.800, 0.294, 0.401, 2.073, 0.007, -0.051, 0.732, 0.887, 0.847, 2.149, 0.707, 0.745, 0.086, 0.023, 0.000, 0.098, 0.013, 34.603
1.900, 0.341, 0.485, 2.092, 0.053, -0.048, 0.690, 0.934, 0.888, 2.158, 0.698, 0.720, 0.093, 0.913, 1.000, 1.000, 0.921, 38.437
2.000, 0.387, 0.563, 2.102, 0.010, -0.059, 0.649, 0.982, 0.928, 2.166, 0.688, 0.701, 0.099, 1.000, 0.979, 0.983, 0.940, 42.338
2.100, 0.429, 0.635, 2.119, 0.059, -0.050, 0.604, 1.029, 0.966, 2.174, 0.677, 0.687, 0.100, 0.000, 0.000, 0.029, 0.050, 42.418
2.200, 0.470, 0.702, 2.125, 0.030, -0.050, 0.560, 1.076, 1.004, 2.182, 0.665, 0.679, 0.097, 1.000, 1.000, 0.971, 0.927, 46.316
2.300, 0.509, 0.762, 2.139, 0.058, -0.033, 0.516, 1.122, 1.041, 2.190, 0.653, 0.676, 0.089, 0.000, 0.000, 0.000, 0.073, 46.389
2.400, 0.547, 0.815, 2.153, 0.058, -0.021, 0.472, 1.168, 1.076, 2.199, 0.640, 0.675, 0.075, 0.000, 0.070, 0.000, 0.023, 46.482
2.500, 0.586, 0.862, 2.167, 0.063, -0.013, 0.433, 1.214, 1.110, 2.207, 0.625, 0.676, 0.057, 0.000, 0.054, 0.005, 0.000, 46.541
2.600, 0.626, 0.904, 2.174, 0.048, -0.009, 0.397, 1.260, 1.143, 2.215, 0.610, 0.678, 0.036, 0.997, 1.000, 0.974, 0.954, 50.466
2.700, 0.667, 0.941, 2.181, 0.041, -0.005, 0.368, 1.305, 1.175, 2.223, 0.594, 0.680, 0.016, 0.985, 1.000, 1.000, 0.953, 54.404
2.800, 0.709, 0.974, 2.185, 0.030, 0.001, 0.343, 1.350, 1.205, 2.231, 0.577, 0.683, 0.004, 0.000, 0.034, 0.000, 0.028, 54.465
2.900, 0.752, 1.004, 2.194, 0.026, -0.003, 0.327, 1.394, 1.234, 2.239, 0.559, 0.684, 0.018, 0.000, 0.000, 0.013, 0.027, 54.504
3.000, 0.795, 1.031, 2.196, 0.012, -0.004, 0.314, 1.438, 1.262, 2.247, 0.540, 0.685, 0.030, 1.000, 1.000, 0.996, 0.968, 58.468
3.100, 0.839, 1.058, 2.206, 0.010, -0.005, 0.306, 1.482, 1.289, 2.255, 0.520, 0.685, 0.039, 0.031, 0.019, 0.000, 0.000, 58.518
3.200, 0.882, 1.083, 2.217, -0.004, -0.011, 0.300, 1.525, 1.313, 2.264, 0.498, 0.685, 0.044, 0.064, 0.000, 0.000, 0.005, 58.587
3.300, 0.924, 1.108, 2.225, -0.010, -0.013, 0.296, 1.568, 1.337, 2.272, 0.475, 0.685, 0.046, 0.060, 0.000, 0.000, 0.002, 58.649
3.400, 0.965, 1.133, 2.231, -0.004, -0.012, 0.290, 1.610, 1.359, 2.280, 0.450, 0.686, 0.046, 0.015, 0.000, 0.000, 0.001, 58.665
3.500, 1.004, 1.159, 2.238, -0.015, -0.007, 0.282, 1.652, 1.379, 2.288, 0.425, 0.686, 0.045, 0.987, 1.000, 1.000, 0.986, 62.638
3.600, 1.042, 1.186, 2.245, -0.021, -0.004, 0.275, 1.694, 1.398, 2.296, 0.397, 0.687, 0.040, 1.000, 1.000, 1.000, 0.898, 66.536
3.700, 1.079, 1.214, 2.251, -0.018, -0.002, 0.264, 1.735, 1.415, 2.303, 0.368, 0.688, 0.034, 0.009, 0.004, 0.000, 0.025, 66.574
3.800, 1.116, 1.244, 2.262, -0.007, -0.001, 0.253, 1.776, 1.431, 2.311, 0.337, 0.688, 0.024, 0.000, 0.036, 0.103, 0.044, 66.756
3.900, 1.151, 1.275, 2.266, -0.022, 0.002, 0.235, 1.816, 1.445, 2.319, 0.304, 0.688, 0.016, 0.992, 1.000, 1.000, 0.964, 70.713
4.000, 1.187, 1.309, 2.280, -0.002, -0.001, 0.216, 1.855, 1.458, 2.327, 0.270, 0.687, 0.003, 0.058, 0.000, 0.000, 0.000, 70.771
4.100, 1.221, 1.343, 2.283, -0.023, -0.000, 0.189, 1.894, 1.469, 2.335, 0.234, 0.686, 0.004, 0.016, 0.000, 0.000, 0.061, 70.848
4.200, 1.256, 1.379, 2.295, -0.005, 0.005, 0.161, 1.933, 1.478, 2.343, 0.196, 0.685, 0.015, 0.960, 1.000, 1.000, 0.991, 74.799
4.300, 1.291, 1.416, 2.300, -0.020, 0.006, 0.128, 1.971, 1.486, 2.351, 0.156, 0.685, 0.025, 0.972, 0.988, 1.000, 1.000, 78.759
4.400, 1.327, 1.454, 2.311, 0.002, 0.009, 0.091, 2.008, 1.492, 2.359, 0.114, 0.684, 0.035, 0.042, 0.000, 0.000, 0.001, 78.802
4.500, 1.363, 1.491, 2.322, -0.010, 0.006, 0.052, 2.045, 1.496, 2.366, 0.070, 0.683, 0.045, 0.100, 0.000, 0.000, 0.047, 78.950
4.600, 1.401, 1.529, 2.335, 0.010, 0.015, 0.007, 2.081, 1.499, 2.374, 0.024, 0.682, 0.052, 0.124, 0.166, 0.226, 0.177, 79.643
4.700, 1.439, 1.567, 2.345, 0.008, 0.013, -0.041, 2.117, 1.500, 2.382, -0.023, 0.682, 0.058, 0.976, 1.000, 1.000, 0.995, 83.614
4.800, 1.479, 1.604, 2.357, 0.016, 0.016, -0.092, 2.152, 1.499, 2.389, -0.071, 0.682, 0.062, 0.006, 0.019, 0.000, 0.006, 83.646
4.900, 1.520, 1.639, 2.369, 0.018, -0.006, -0.144, 2.187, 1.497, 2.397, -0.121, 0.683, 0.066, 0.001, 0.000, 0.059, 0.022, 83.727
5.000, 1.561, 1.672, 2.375, 0.030, 0.014, -0.200, 2.221, 1.493, 2.405, -0.172, 0.684, 0.065, 0.041, 0.014, 0.000, 0.000, 83.782
5.100, 1.603, 1.702, 2.389, 0.029, 0.012, -0.256, 2.254, 1.487, 2.412, -0.224, 0.685, 0.062, 0.045, 0.015, 0.000, 0.000, 83.842
5.200, 1.646, 1.729, 2.393, 0.014, 0.015, -0.313, 2.287, 1.480, 2.420, -0.276, 0.688, 0.057, 0.019, 0.026, 0.000, 0.023, 83.910
5.300, 1.689, 1.753, 2.403, 0.023, 0.010, -0.369, 2.319, 1.471, 2.427, -0.329, 0.691, 0.053, 0.000, 0.000, 0.039, 0.049, 83.998
5.400, 1.732, 1.776, 2.406, 0.021, 0.017, -0.424, 2.350, 1.461, 2.435, -0.382, 0.694, 0.048, 1.000, 0.977, 1.000, 1.000, 87.976
5.500, 1.776, 1.796, 2.418, 0.028, 0.004, -0.478, 2.381, 1.449, 2.442, -0.435, 0.697, 0.043, 0.014, 0.033, 0.000, 0.000, 88.022
5.600, 1.819, 1.813, 2.423, 0.032, 0.015, -0.530, 2.411, 1.435, 2.450, -0.487, 0.702, 0.039, 0.999, 1.000, 0.978, 0.997, 91.997
5.700, 1.862, 1.827, 2.428, 0.022, 0.012, -0.581, 2.440, 1.419, 2.457, -0.538, 0.708, 0.032, 1.000, 0.983, 0.997, 1.000, 95.977
5.800, 1.903, 1.838, 2.438, 0.020, 0.005, -0.632, 2.469, 1.403, 2.465, -0.588, 0.714, 0.025, 0.010, 0.036, 0.000, 0.000, 96.023
5.900, 1.945, 1.848, 2.446, 0.030, 0.010, -0.679, 2.497, 1.384, 2.472, -0.637, 0.722, 0.019, 0.995, 0.970, 1.000, 1.000, 99.988
6.000, 1.985, 1.854, 2.453, 0.016, 0.008, -0.726, 2.524, 1.364, 2.479, -0.685, 0.730, 0.012, 0.008, 0.034, 0.000, 0.006, 100.036
6.100, 2.024, 1.859, 2.462, 0.025, 0.018, -0.771, 2.551, 1.342, 2.487, -0.731, 0.738, 0.005, 0.015, 0.051, 0.000, 0.000, 100.103
6.200, 2.063, 1.862, 2.473, 0.021, 0.012, -0.813, 2.577, 1.319, 2.494, -0.775, 0.747, 0.001, 0.029, 0.053, 0.000, 0.000, 100.185
6.300, 2.101, 1.862, 2.478, 0.022, 0.009, -0.853, 2.602, 1.295, 2.501, -0.818, 0.757, 0.006, 0.000, 0.000, 0.049, 0.000, 100.234
6.400, 2.138, 1.861, 2.484, 0.008, 0.016, -0.893, 2.627, 1.269, 2.508, -0.859, 0.768, 0.012, 1.000, 0.966, 1.000, 1.000, 104.200
6.500, 2.176, 1.858, 2.497, 0.013, 0.011, -0.931, 2.651, 1.241, 2.516, -0.899, 0.778, 0.017, 0.023, 0.042, 0.000, 0.000, 104.265
6.600, 2.213, 1.853, 2.503, 0.025, 0.015, -0.967, 2.674, 1.213, 2.523, -0.937, 0.789, 0.020, 0.981, 0.974, 1.000, 0.999, 108.219
6.700, 2.249, 1.847, 2.507, 0.002, 0.024, -1.002, 2.696, 1.183, 2.530, -0.973, 0.801, 0.024, 1.000, 0.964, 0.994, 1.000, 112.177
6.800, 2.286, 1.838, 2.515, 0.003, 0.006, -1.039, 2.717, 1.151, 2.537, -1.007, 0.811, 0.029, 0.000, 0.039, 0.000, 0.000, 112.217
6.900, 2.323, 1.828, 2.524, 0.012, 0.017, -1.073, 2.738, 1.119, 2.544, -1.040, 0.822, 0.031, 1.000, 0.971, 1.000, 1.000, 116.188
7.000, 2.360, 1.817, 2.527, 0.008, 0.013, -1.106, 2.758, 1.085, 2.551, -1.072, 0.834, 0.033, 0.013, 0.000, 0.024, 0.000, 116.225
7.100, 2.397, 1.804, 2.535, 0.020, 0.015, -1.138, 2.778, 1.049, 2.558, -1.102, 0.845, 0.035, 0.329, 0.326, 0.383, 0.322, 117.585
7.200, 2.433, 1.789, 2.542, 0.001, 0.010, -1.171, 2.796, 1.013, 2.565, -1.131, 0.857, 0.038, 0.798, 0.855, 0.792, 0.895, 120.924
7.300, 2.468, 1.773, 2.552, 0.017, 0.029, -1.200, 2.814, 0.976, 2.572, -1.159, 0.869, 0.039, 0.988, 1.000, 1.000, 1.000, 124.912
7.400, 2.504, 1.755, 2.559, 0.005, 0.003, -1.231, 2.831, 0.937, 2.578, -1.185, 0.881, 0.041, 0.000, 0.024, 0.000, 0.000, 124.936
7.500, 2.539, 1.735, 2.567, 0.003, 0.014, -1.262, 2.847, 0.898, 2.585, -1.211, 0.892, 0.044, 0.997, 0.962, 1.000, 1.000, 128.895
7.600, 2.575, 1.714, 2.574, 0.001, 0.020, -1.293, 2.862, 0.857, 2.592, -1.235, 0.904, 0.046, 0.032, 0.033, 0.000, 0.000, 128.960
7.700, 2.611, 1.691, 2.582, 0.007, 0.002, -1.323, 2.877, 0.816, 2.599, -1.259, 0.916, 0.047, 0.000, 0.000, 0.035, 0.019, 129.014
7.800, 2.646, 1.668, 2.592, 0.019, 0.012, -1.351, 2.891, 0.773, 2.605, -1.282, 0.928, 0.047, 0.005, 0.036, 0.017, 0.000, 129.073
7.900, 2.680, 1.643, 2.596, -0.004, 0.013, -1.379, 2.904, 0.730, 2.612, -1.304, 0.940, 0.048, 0.965, 0.944, 1.000, 1.000, 132.982
8.000, 2.715, 1.617, 2.605, 0.028, 0.024, -1.406, 2.916, 0.686, 2.618, -1.325, 0.952, 0.048, 0.987, 0.988, 1.000, 0.986, 136.942
8.100, 2.748, 1.588, 2.610, -0.027, 0.006, -1.433, 2.927, 0.641, 2.625, -1.345, 0.964, 0.049, 0.998, 0.949, 0.973, 1.000, 140.862
8.200, 2.783, 1.559, 2.621, 0.018, 0.015, -1.463, 2.938, 0.596, 2.631, -1.365, 0.976, 0.052, 0.020, 0.021, 0.003, 0.000, 140.906
8.300, 2.817, 1.528, 2.628, 0.009, 0.033, -1.488, 2.947, 0.549, 2.638, -1.385, 0.988, 0.051, 0.045, 0.057, 0.000, 0.000, 141.008
8.400, 2.849, 1.495, 2.637, 0.010, 0.014, -1.515, 2.956, 0.502, 2.644, -1.404, 0.999, 0.052, 0.970, 0.984, 1.000, 1.000, 144.962
8.500, 2.882, 1.461, 2.643, 0.006, 0.015, -1.542, 2.964, 0.455, 2.651, -1.422, 1.009, 0.053, 0.494, 0.471, 0.530, 0.515, 146.971
8.600, 2.913, 1.425, 2.649, -0.010, 0.016, -1.568, 2.972, 0.407, 2.657, -1.440, 1.020, 0.054, 0.016, 0.043, 0.000, 0.008, 147.039
8.700, 2.946, 1.389, 2.656, 0.016, 0.015, -1.594, 2.978, 0.359, 2.663, -1.458, 1.030, 0.054, 0.967, 0.989, 0.980, 1.000, 150.974
8.800, 2.977, 1.351, 2.662, 0.013, 0.029, -1.617, 2.984, 0.310, 2.669, -1.475, 1.041, 0.053, 0.966, 1.000, 0.991, 1.000, 154.931
8.900, 3.007, 1.311, 2.666, -0.003, 0.006, -1.640, 2.989, 0.261, 2.676, -1.493, 1.050, 0.052, 0.009, 0.003, 0.000, 0.016, 154.958
9.000, 3.037, 1.269, 2.674, 0.026, 0.017, -1.665, 2.992, 0.212, 2.682, -1.510, 1.059, 0.053, 0.000, 0.001, 0.042, 0.000, 155.002
9.100, 3.065, 1.227, 2.675, -0.011, 0.013, -1.686, 2.996, 0.162, 2.688, -1.527, 1.067, 0.050, 0.984, 0.946, 0.992, 1.000, 158.923
9.200, 3.094, 1.183, 2.684, 0.034, 0.017, -1.711, 2.998, 0.112, 2.694, -1.543, 1.075, 0.051, 0.022, 0.047, 0.022, 0.000, 159.014
9.300, 3.120, 1.138, 2.682, -0.034, 0.014, -1.730, 2.999, 0.062, 2.700, -1.560, 1.082, 0.047, 0.996, 0.945, 0.940, 1.000, 162.894
9.400, 3.148, 1.091, 2.695, 0.086, 0.029, -1.753, 3.000, 0.012, 2.706, -1.577, 1.089, 0.046, 0.000, 0.070, 0.053, 0.000, 163.017
9.500, 3.171, 1.043, 2.697, -0.074, 0.004, -1.770, 3.000, -0.038, 2.712, -1.593, 1.094, 0.042, 0.063, 0.000, 0.000, 0.106, 163.186
9.600, 3.198, 0.994, 2.715, 0.178, 0.021, -1.792, 2.999, -0.088, 2.717, -1.610, 1.100, 0.040, 0.943, 1.000, 1.000, 0.887, 167.016
9.700, 3.218, 0.946, 2.718, -0.066, -0.001, -1.805, 2.997, -0.137, 2.723, -1.627, 1.106, 0.033, 0.916, 0.904, 0.989, 1.000, 170.825
9.800, 3.242, 0.897, 2.718, 0.065, -0.006, -1.818, 2.994, -0.187, 2.729, -1.644, 1.112, 0.023, 1.000, 1.000, 0.839, 1.000, 174.665
9.900, 3.261, 0.851, 2.734, -0.013, 0.021, -1.834, 2.991, -0.237, 2.735, -1.661, 1.120, 0.020, 0.102, 0.000, 0.000, 0.021, 174.788
10.000, 3.280, 0.803, 2.742, 0.027, 0.017, -1.858, 2.986, -0.286, 2.740, -1.678, 1.128, 0.024, 0.030, 0.001, 0.000, 0.001, 174.821
10.100, 3.296, 0.754, 2.756, -0.009, 0.039, -1.883, 2.981, -0.335, 2.746, -1.696, 1.133, 0.030, 0.004, 0.106, 0.000, 0.000, 174.930
10.200, 3.313, 0.702, 2.756, -0.015, 0.014, -1.898, 2.975, -0.383, 2.751, -1.714, 1.136, 0.025, 1.000, 0.939, 0.929, 1.000, 178.799
10.300, 3.331, 0.647, 2.770, 0.075, 0.033, -1.920, 2.968, -0.431, 2.757, -1.732, 1.138, 0.025, 0.126, 0.258, 0.347, 0.000, 179.529
10.400, 3.347, 0.592, 2.764, -0.066, -0.010, -1.937, 2.960, -0.479, 2.762, -1.751, 1.139, 0.019, 1.000, 0.893, 0.868, 1.000, 183.291
10.500, 3.366, 0.538, 2.788, 0.169, 0.023, -1.961, 2.952, -0.526, 2.768, -1.771, 1.142, 0.019, 0.000, 0.151, 0.365, 0.000, 183.807
10.600, 3.380, 0.484, 2.781, -0.107, -0.032, -1.977, 2.943, -0.573, 2.773, -1.790, 1.143, 0.014, 0.967, 0.812, 0.949, 1.000, 187.535
10.700, 3.401, 0.430, 2.797, 0.286, 0.013, -2.001, 2.932, -0.619, 2.778, -1.811, 1.148, 0.010, 0.943, 1.000, 1.000, 0.760, 191.238
10.800, 3.409, 0.382, 2.792, -0.136, -0.009, -2.014, 2.922, -0.664, 2.783, -1.832, 1.154, 0.007, 0.870, 0.829, 0.986, 1.000, 194.922
10.900, 3.428, 0.331, 2.799, 0.159, -0.008, -2.028, 2.910, -0.708, 2.788, -1.853, 1.161, 0.005, 0.000, 0.000, 0.134, 0.000, 195.056
11.000, 3.437, 0.285, 2.817, 0.007, -0.021, -2.065, 2.897, -0.752, 2.794, -1.876, 1.169, 0.014, 0.000, 0.000, 0.000, 0.174, 195.230
11.100, 3.444, 0.237, 2.820, 0.040, 0.063, -2.094, 2.884, -0.795, 2.799, -1.899, 1.174, 0.026, 0.855, 0.763, 0.886, 0.860, 198.595
11.200, 3.447, 0.185, 2.840, 0.035, 0.039, -2.100, 2.870, -0.837, 2.804, -1.923, 1.174, 0.016, 0.200, 0.000, 0.113, 0.000, 198.908
11.300, 3.450, 0.131, 2.821, -0.163, -0.014, -2.104, 2.855, -0.878, 2.809, -1.948, 1.172, 0.001, 0.133, 0.000, 0.000, 0.149, 199.190
11.400, 3.463, 0.073, 2.831, 0.305, 0.032, -2.116, 2.839, -0.918, 2.813, -1.975, 1.172, 0.016, 0.000, 0.085, 0.405, 0.000, 199.679
11.500, 3.462, 0.023, 2.830, -0.123, -0.003, -2.174, 2.822, -0.957, 2.818, -2.002, 1.170, 0.025, 0.865, 1.000, 0.724, 1.000, 203.268
11.600, 3.468, -0.033, 2.837, 0.121, 0.024, -2.183, 2.805, -0.995, 2.823, -2.031, 1.168, 0.009, 0.409, 0.380, 0.470, 0.310, 204.837
11.700, 3.470, -0.089, 2.838, -0.087, -0.010, -2.193, 2.787, -1.032, 2.828, -2.060, 1.164, 0.004, 0.166, 0.000, 0.210, 0.339, 205.552
11.800, 3.477, -0.148, 2.836, 0.047, -0.018, -2.214, 2.768, -1.067, 2.832, -2.092, 1.161, 0.014, 1.000, 0.928, 0.940, 1.000, 209.420
11.900, 3.483, -0.204, 2.853, 0.106, 0.030, -2.237, 2.748, -1.102, 2.837, -2.124, 1.160, 0.020, 0.062, 0.065, 0.181, 0.000, 209.729
12.000, 3.488, -0.260, 2.844, -0.096, -0.010, -2.265, 2.728, -1.135, 2.841, -2.158, 1.159, 0.020, 0.801, 0.733, 0.783, 1.000, 213.045
12.100, 3.497, -0.318, 2.861, 0.231, 0.002, -2.293, 2.707, -1.167, 2.846, -2.194, 1.160, 0.027, 1.000, 1.000, 0.994, 0.751, 216.790
12.200, 3.498, -0.367, 2.855, -0.150, -0.043, -2.327, 2.685, -1.198, 2.850, -2.231, 1.163, 0.019, 0.825, 0.857, 0.988, 1.000, 220.459
12.300, 3.513, -0.423, 2.858, 0.187, -0.050, -2.353, 2.662, -1.227, 2.855, -2.270, 1.171, 0.031, 0.000, 0.000, 0.083, 0.000, 220.541
12.400, 3.521, -0.466, 2.872, 0.087, 0.002, -2.394, 2.639, -1.255, 2.859, -2.311, 1.184, 0.018, 0.000, 0.038, 0.000, 0.076, 220.656
12.500, 3.524, -0.508, 2.868, -0.165, 0.037, -2.437, 2.615, -1.282, 2.863, -2.353, 1.194, 0.000, 0.966, 0.952, 0.827, 1.000, 224.401
12.600, 3.532, -0.562, 2.886, 0.260, 0.037, -2.457, 2.590, -1.307, 2.867, -2.397, 1.202, 0.015, 0.000, 0.081, 0.291, 0.000, 224.773
12.700, 3.533, -0.610, 2.883, -0.106, 0.033, -2.501, 2.564, -1.331, 2.872, -2.443, 1.208, 0.001, 0.917, 1.000, 0.824, 1.000, 228.514
12.800, 3.537, -0.668, 2.882, 0.075, 0.010, -2.522, 2.538, -1.353, 2.876, -2.490, 1.212, 0.018, 0.191, 0.083, 0.212, 0.121, 229.121
12.900, 3.536, -0.723, 2.896, 0.039, 0.011, -2.566, 2.511, -1.374, 2.880, -2.539, 1.215, 0.010, 0.031, 0.109, 0.000, 0.000, 229.262
13.000, 3.535, -0.779, 2.884, -0.164, -0.000, -2.605, 2.483, -1.394, 2.884, -2.589, 1.218, 0.007, 0.157, 0.000, 0.050, 0.420, 229.889
13.100, 3.538, -0.841, 2.892, 0.194, 0.008, -2.624, 2.455, -1.411, 2.887, -2.640, 1.225, 0.033, 1.000, 1.000, 0.966, 0.444, 233.299
13.200, 3.538, -0.894, 2.883, -0.158, 0.004, -2.685, 2.425, -1.427, 2.891, -2.692, 1.234, 0.009, 0.965, 1.000, 0.832, 1.000, 237.097
13.300, 3.544, -0.960, 2.892, 0.138, -0.040, -2.717, 2.396, -1.442, 2.895, -2.744, 1.245, 0.027, 0.000, 0.000, 0.093, 0.006, 237.197
13.400, 3.549, -1.019, 2.890, 0.009, 0.014, -2.747, 2.365, -1.455, 2.899, -2.797, 1.261, 0.042, 1.000, 0.984, 0.999, 1.000, 241.180
13.500, 3.553, -1.080, 2.885, -0.096, 0.025, -2.794, 2.334, -1.466, 2.902, -2.850, 1.279, 0.040, 0.390, 0.190, 0.308, 0.578, 242.646
13.600, 3.557, -1.143, 2.897, 0.268, 0.032, -2.835, 2.302, -1.476, 2.906, -2.902, 1.298, 0.047, 1.000, 1.000, 1.000, 0.442, 246.089
13.700, 3.553, -1.193, 2.895, -0.138, 0.063, -2.911, 2.270, -1.484, 2.909, -2.954, 1.316, 0.008, 0.384, 0.456, 0.299, 0.523, 247.752
13.800, 3.547, -1.258, 2.917, -0.013, 0.056, -2.938, 2.237, -1.491, 2.913, -3.006, 1.330, 0.028, 0.169, 0.000, 0.070, 0.000, 247.991
13.900, 3.536, -1.328, 2.927, 0.009, 0.028, -2.979, 2.203, -1.495, 2.916, -3.056, 1.343, 0.038, 0.085, 0.000, 0.145, 0.000, 248.221
14.000, 3.523, -1.402, 2.913, -0.151, 0.034, -3.023, 2.169, -1.498, 2.919, -3.105, 1.358, 0.047, 0.627, 0.496, 0.509, 0.692, 250.545
14.100, 3.509, -1.488, 2.923, 0.125, -0.007, -3.072, 2.134, -1.500, 2.923, 3.131, 1.375, 0.061, 0.000, 0.061, 0.191, 0.000, 250.796
14.200, 3.495, -1.569, 2.915, -0.103, -0.016, -3.136, 2.099, -1.500, 2.926, 3.085, 1.398, 0.055, 0.050, 0.000, 0.000, 0.097, 250.944
14.300, 3.471, -1.656, 2.921, -0.009, 0.750, 3.062, 2.063, -1.498, 2.929, 3.041, 1.417, 0.032, 1.000, 1.000, 0.715, 0.690, 254.348
14.400, 3.345, -1.728, 2.966, 0.376, 0.709, 3.065, 2.026, -1.494, 2.932, 2.998, 1.339, 0.099, 0.096, 0.021, 0.087, 0.000, 254.552
14.500, 3.162, -1.768, 2.977, 0.388, 0.502, 3.020, 1.989, -1.489, 2.935, 2.958, 1.206, 0.113, 1.000, 0.988, 0.887, 1.000, 258.427
14.600, 2.937, -1.762, 2.977, 0.435, 0.364, 3.015, 1.952, -1.482, 2.938, 2.919, 1.025, 0.149, 1.000, 0.994, 1.000, 0.891, 262.312
14.700, 2.694, -1.720, 2.945, 0.373, 0.097, 2.937, 1.913, -1.474, 2.941, 2.882, 0.818, 0.101, 1.000, 0.981, 1.000, 0.987, 266.280
14.800, 2.452, -1.647, 2.894, 0.331, -0.203, 2.841, 1.875, -1.464, 2.944, 2.847, 0.608, 0.007, 0.034, 0.000, 0.039, 0.000, 266.352
14.900, 2.244, -1.550, 2.844, 0.222, -0.492, 2.759, 1.835, -1.452, 2.946, 2.814, 0.433, 0.147, 0.883, 1.000, 0.948, 1.000, 270.183
15.000, 2.115, -1.449, 2.835, 0.014, -0.491, 2.814, 1.795, -1.438, 2.949, 2.783, 0.339, 0.294, 0.477, 0.687, 0.466, 0.657, 272.471
15.100, 2.043, -1.364, 2.837, -0.095, -0.412, 2.933, 1.755, -1.423, 2.952, 2.753, 0.315, 0.413, 0.791, 1.000, 1.000, 1.000, 276.262
15.200, 2.014, -1.300, 2.846, -0.237, -0.260, 3.084, 1.714, -1.407, 2.954, 2.725, 0.336, 0.400, 1.000, 1.000, 0.904, 0.905, 280.071
15.300, 2.010, -1.264, 2.859, -0.268, -0.085, -3.065, 1.673, -1.389, 2.957, 2.699, 0.373, 0.278, 1.000, 0.886, 1.000, 0.749, 283.705
15.400, 2.021, -1.257, 2.880, -0.326, -0.107, -2.968, 1.631, -1.369, 2.959, 2.674, 0.413, 0.106, 0.167, 0.000, 0.000, 0.000, 283.872
15.500, 2.048, -1.279, 2.906, -0.013, -0.170, -2.945, 1.589, -1.348, 2.961, 2.650, 0.467, 0.047, 1.000, 1.000, 1.000, 0.773, 287.645
15.600, 2.086, -1.305, 2.904, -0.200, -0.120, -3.005, 1.547, -1.325, 2.964, 2.628, 0.543, 0.099, 0.179, 0.000, 0.000, 0.000, 287.824
15.700, 2.141, -1.349, 2.915, 0.106, -0.175, -3.078, 1.503, -1.301, 2.966, 2.607, 0.641, 0.139, 0.060, 0.000, 0.033, 0.000, 287.917
15.800, 2.207, -1.388, 2.907, 0.175, -0.096, 3.140, 1.460, -1.275, 2.968, 2.588, 0.758, 0.148, 0.861, 0.925, 0.972, 0.635, 291.311
15.900, 2.267, -1.415, 2.922, -0.142, 0.440, 3.029, 1.416, -1.248, 2.970, 2.569, 0.868, 0.081, 1.000, 1.000, 0.706, 1.000, 295.017
16.000, 2.277, -1.449, 2.962, 0.166, 0.501, 3.001, 1.372, -1.220, 2.972, 2.552, 0.934, 0.108, 1.000, 1.000, 1.000, 0.751, 298.768
16.100, 2.252, -1.469, 2.974, 0.120, 0.422, 2.962, 1.327, -1.190, 2.974, 2.536, 0.966, 0.113, 1.000, 0.945, 0.943, 1.000, 302.656
16.200, 2.188, -1.465, 2.983, 0.206, 0.348, 2.916, 1.282, -1.159, 2.976, 2.520, 0.957, 0.101, 0.009, 0.024, 0.067, 0.000, 302.756
16.300, 2.100, -1.440, 2.974, 0.129, 0.246, 2.866, 1.237, -1.127, 2.978, 2.506, 0.919, 0.073, 0.007, 0.000, 0.000, 0.016, 302.779
16.400, 1.992, -1.396, 2.962, 0.112, 0.144, 2.823, 1.191, -1.093, 2.979, 2.493, 0.857, 0.043, 1.000, 1.000, 0.981, 1.000, 306.760
16.500, 1.876, -1.338, 2.945, 0.082, 0.038, 2.788, 1.145, -1.058, 2.981, 2.480, 0.783, 0.011, 0.000, 0.000, 0.000, 0.017, 306.777
16.600, 1.759, -1.271, 2.927, 0.059, -0.056, 2.761, 1.099, -1.022, 2.982, 2.468, 0.708, 0.020, 0.972, 1.000, 0.978, 1.000, 310.728
16.700, 1.651, -1.201, 2.916, 0.025, -0.114, 2.749, 1.052, -0.985, 2.984, 2.457, 0.640, 0.047, 0.000, 0.000, 0.023, 0.027, 310.777
16.800, 1.554, -1.133, 2.910, 0.005, -0.146, 2.747, 1.005, -0.947, 2.985, 2.447, 0.585, 0.068, 0.974, 1.000, 0.971, 1.000, 314.722
16.900, 1.472, -1.070, 2.907, -0.032, -0.154, 2.757, 0.958, -0.908, 2.987, 2.437, 0.545, 0.077, 1.000, 1.000, 0.951, 1.000, 318.673
17.000, 1.402, -1.017, 2.907, -0.041, -0.133, 2.771, 0.910, -0.867, 2.988, 2.428, 0.521, 0.076, 1.000, 0.986, 0.979, 0.993, 322.631
17.100, 1.344, -0.972, 2.907, -0.049, -0.102, 2.786, 0.862, -0.826, 2.989, 2.420, 0.510, 0.061, 0.000, 0.010, 0.027, 0.004, 322.672
17.200, 1.294, -0.935, 2.912, -0.044, -0.066, 2.798, 0.814, -0.784, 2.991, 2.412, 0.509, 0.037, 0.000, 0.038, 0.004, 0.000, 322.715
17.300, 1.247, -0.905, 2.908, -0.020, -0.035, 2.803, 0.766, -0.741, 2.992, 2.405, 0.515, 0.010, 0.000, 0.021, 0.084, 0.000, 322.820
17.400, 1.203, -0.878, 2.907, -0.011, -0.005, 2.798, 0.718, -0.697, 2.993, 2.398, 0.525, 0.013, 0.000, 0.050, 0.000, 0.000, 322.871
17.500, 1.160, -0.853, 2.908, -0.016, 0.007, 2.787, 0.669, -0.652, 2.994, 2.392, 0.537, 0.034, 0.281, 0.173, 0.234, 0.244, 323.803
17.600, 1.115, -0.829, 2.909, 0.007, 0.014, 2.767, 0.620, -0.607, 2.995, 2.387, 0.549, 0.047, 0.858, 0.817, 0.866, 0.834, 327.178
17.700, 1.070, -0.804, 2.914, 0.012, 0.027, 2.743, 0.571, -0.561, 2.995, 2.382, 0.561, 0.055, 0.000, 0.049, 0.000, 0.000, 327.227
17.800, 1.023, -0.777, 2.906, 0.027, 0.025, 2.717, 0.522, -0.514, 2.996, 2.377, 0.572, 0.058, 1.000, 0.956, 0.973, 0.992, 331.148
17.900, 0.975, -0.746, 2.902, 0.026, 0.013, 2.687, 0.473, -0.467, 2.997, 2.373, 0.582, 0.054, 0.000, 0.043, 0.000, 0.007, 331.198
18.000, 0.927, -0.713, 2.904, 0.025, 0.001, 2.661, 0.423, -0.419, 2.997, 2.369, 0.590, 0.048, 0.101, 0.071, 0.120, 0.113, 331.603
18.100, 0.880, -0.677, 2.902, 0.029, -0.010, 2.635, 0.374, -0.371, 2.998, 2.366, 0.599, 0.038, 0.999, 0.984, 1.000, 1.000, 335.586
18.200, 0.835, -0.640, 2.908, 0.022, -0.006, 2.614, 0.324, -0.322, 2.999, 2.364, 0.608, 0.028, 0.000, 0.044, 0.000, 0.005, 335.636
18.300, 0.792, -0.601, 2.907, 0.019, 0.000, 2.597, 0.274, -0.273, 2.999, 2.361, 0.619, 0.019, 0.000, 0.028, 0.000, 0.000, 335.664
18.400, 0.750, -0.560, 2.910, 0.013, -0.008, 2.583, 0.225, -0.224, 2.999, 2.359, 0.630, 0.011, 0.992, 0.972, 1.000, 1.000, 339.628
18.500, 0.709, -0.519, 2.914, 0.013, 0.002, 2.573, 0.175, -0.174, 3.000, 2.358, 0.642, 0.003, 1.000, 0.976, 1.000, 0.996, 343.600
18.600, 0.669, -0.477, 2.915, 0.008, 0.009, 2.565, 0.125, -0.125, 3.000, 2.357, 0.654, 0.002, 0.000, 0.021, 0.019, 0.000, 343.639
18.700, 0.629, -0.434, 2.918, 0.006, 0.015, 2.559, 0.075, -0.075, 3.000, 2.356, 0.665, 0.007, 1.000, 0.969, 1.000, 1.000, 347.608
18.800, 0.587, -0.390, 2.921, 0.007, 0.016, 2.554, 0.025, -0.025, 3.000, 2.356, 0.675, 0.011, 0.000, 0.043, 0.000, 0.008, 347.659
18.900, 0.545, -0.345, 2.923, 0.009, 0.015, 2.551, -0.025, 0.025, 3.000, 2.356, 0.684, 0.014, 0.000, 0.028, 0.017, 0.002, 347.706
19.000, 0.502, -0.299, 2.926, 0.001, 0.014, 2.549, -0.075, 0.075, 3.000, 2.357, 0.692, 0.018, 0.340, 0.279, 0.296, 0.314, 348.935
19.100, 0.458, -0.252, 2.928, -0.002, 0.018, 2.547, -0.125, 0.125, 3.000, 2.358, 0.698, 0.021, 1.000, 0.966, 0.957, 1.000, 352.857
19.200, 0.414, -0.203, 2.932, 0.003, 0.012, 2.547, -0.175, 0.175, 3.000, 2.360, 0.703, 0.023, 0.000, 0.039, 0.000, 0.022, 352.918
19.300, 0.368, -0.154, 2.928, 0.008, 0.003, 2.547, -0.225, 0.224, 2.999, 2.362, 0.708, 0.026, 0.000, 0.031, 0.013, 0.016, 352.977
19.400, 0.323, -0.105, 2.931, 0.000, 0.005, 2.549, -0.275, 0.274, 2.999, 2.364, 0.711, 0.029, 0.384, 0.352, 0.382, 0.364, 354.459
19.500, 0.278, -0.055, 2.931, 0.003, 0.005, 2.552, -0.325, 0.323, 2.999, 2.367, 0.714, 0.030, 0.000, 0.019, 0.019, 0.008, 354.504
19.600, 0.232, -0.004, 2.934, 0.000, 0.001, 2.555, -0.374, 0.371, 2.998, 2.370, 0.716, 0.032, 0.952, 0.924, 0.954, 0.934, 358.270
19.700, 0.187, 0.046, 2.937, -0.002, 0.003, 2.560, -0.424, 0.420, 2.997, 2.374, 0.718, 0.033, 0.000, 0.000, 0.028, 0.000, 358.297
19.800, 0.141, 0.096, 2.933, 0.003, -0.002, 2.564, -0.473, 0.467, 2.997, 2.378, 0.720, 0.034, 1.000, 0.979, 1.000, 0.990, 362.266
19.900, 0.096, 0.147, 2.938, -0.002, -0.002, 2.570, -0.523, 0.515, 2.996, 2.383, 0.722, 0.035, 0.000, 0.027, 0.000, 0.024, 362.318
20.000, 0.050, 0.197, 2.931, 0.005, -0.005, 2.575, -0.572, 0.561, 2.995, 2.388, 0.724, 0.036, 0.000, 0.033, 0.016, 0.010, 362.377
20.100, 0.006, 0.246, 2.933, -0.003, -0.005, 2.581, -0.621, 0.607, 2.995, 2.393, 0.726, 0.038, 1.000, 0.984, 1.000, 0.990, 366.351
20.200, -0.039, 0.296, 2.936, -0.004, -0.000, 2.589, -0.670, 0.653, 2.994, 2.400, 0.727, 0.037, 0.001, 0.000, 0.022, 0.000, 366.374
20.300, -0.083, 0.344, 2.931, 0.002, -0.006, 2.596, -0.718, 0.697, 2.993, 2.406, 0.729, 0.039, 1.000, 0.976, 1.000, 0.988, 370.338
20.400, -0.127, 0.393, 2.936, -0.004, -0.004, 2.604, -0.767, 0.741, 2.992, 2.414, 0.731, 0.039, 0.000, 0.029, 0.000, 0.028, 370.395
20.500, -0.170, 0.441, 2.938, -0.002, -0.003, 2.613, -0.815, 0.784, 2.991, 2.422, 0.733, 0.040, 0.000, 0.026, 0.008, 0.025, 370.453
20.600, -0.213, 0.488, 2.931, 0.006, -0.007, 2.621, -0.863, 0.826, 2.989, 2.430, 0.735, 0.041, 1.000, 0.967, 1.000, 0.984, 374.403
20.700, -0.256, 0.535, 2.932, -0.007, -0.007, 2.629, -0.911, 0.868, 2.988, 2.439, 0.736, 0.043, 0.000, 0.033, 0.000, 0.032, 374.468
20.800, -0.298, 0.582, 2.935, -0.008, 0.003, 2.640, -0.958, 0.908, 2.987, 2.449, 0.738, 0.043, 0.004, 0.017, 0.000, 0.000, 374.489
20.900, -0.340, 0.628, 2.936, 0.002, -0.001, 2.651, -1.005, 0.947, 2.985, 2.459, 0.740, 0.043, 1.000, 0.979, 1.000, 0.981, 378.448
21.000, -0.383, 0.673, 2.939, -0.004, -0.004, 2.661, -1.052, 0.985, 2.984, 2.471, 0.740, 0.044, 0.000, 0.030, 0.000, 0.041, 378.519
21.100, -0.425, 0.718, 2.933, 0.006, -0.007, 2.672, -1.099, 1.023, 2.982, 2.483, 0.741, 0.045, 0.000, 0.043, 0.011, 0.014, 378.587
21.200, -0.466, 0.763, 2.935, -0.006, -0.010, 2.684, -1.145, 1.059, 2.981, 2.495, 0.742, 0.048, 1.000, 0.980, 1.000, 0.991, 382.558
21.300, -0.507, 0.808, 2.937, -0.000, -0.008, 2.697, -1.191, 1.093, 2.979, 2.509, 0.743, 0.049, 1.000, 0.984, 1.000, 0.983, 386.525
21.400, -0.547, 0.851, 2.940, -0.008, -0.006, 2.711, -1.237, 1.127, 2.977, 2.524, 0.745, 0.051, 0.618, 0.591, 0.615, 0.596, 388.945
21.500, -0.586, 0.894, 2.937, -0.002, -0.005, 2.724, -1.283, 1.159, 2.976, 2.539, 0.746, 0.052, 0.000, 0.040, 0.000, 0.023, 389.009
21.600, -0.625, 0.936, 2.941, -0.010, -0.003, 2.740, -1.328, 1.191, 2.974, 2.556, 0.748, 0.053, 1.000, 0.972, 1.000, 0.988, 392.970
21.700, -0.664, 0.977, 2.943, -0.003, -0.001, 2.756, -1.372, 1.220, 2.972, 2.573, 0.749, 0.054, 0.539, 0.511, 0.562, 0.511, 395.092
21.800, -0.703, 1.017, 2.935, 0.004, -0.004, 2.771, -1.416, 1.249, 2.970, 2.592, 0.750, 0.057, 0.000, 0.053, 0.000, 0.017, 395.162
21.900, -0.742, 1.058, 2.937, -0.007, -0.010, 2.788, -1.460, 1.276, 2.968, 2.612, 0.751, 0.059, 0.809, 0.764, 0.800, 0.777, 398.312
22.000, -0.780, 1.097, 2.941, -0.009, -0.001, 2.806, -1.504, 1.301, 2.966, 2.633, 0.753, 0.061, 0.000, 0.036, 0.000, 0.030, 398.378
22.100, -0.817, 1.136, 2.937, 0.003, -0.006, 2.825, -1.547, 1.325, 2.964, 2.655, 0.754, 0.062, 0.000, 0.044, 0.018, 0.023, 398.463
22.200, -0.854, 1.174, 2.937, -0.011, -0.006, 2.844, -1.590, 1.348, 2.961, 2.679, 0.756, 0.065, 1.000, 0.983, 0.998, 1.000, 402.444
22.300, -0.891, 1.212, 2.935, -0.003, 0.001, 2.865, -1.632, 1.369, 2.959, 2.704, 0.758, 0.067, 0.000, 0.057, 0.000, 0.014, 402.514
22.400, -0.928, 1.248, 2.937, -0.004, -0.000, 2.887, -1.673, 1.389, 2.957, 2.731, 0.759, 0.068, 0.770, 0.732, 0.787, 0.742, 405.546
22.500, -0.964, 1.285, 2.939, -0.008, 0.008, 2.909, -1.715, 1.407, 2.954, 2.759, 0.760, 0.070, 0.000, 0.036, 0.000, 0.036, 405.618
22.600, -1.002, 1.320, 2.939, 0.003, 0.000, 2.934, -1.755, 1.424, 2.952, 2.789, 0.761, 0.071, 0.558, 0.526, 0.577, 0.518, 407.797
22.700, -1.039, 1.356, 2.931, 0.005, -0.000, 2.956, -1.796, 1.439, 2.949, 2.821, 0.761, 0.076, 0.000, 0.065, 0.000, 0.018, 407.880
22.800, -1.077, 1.391, 2.931, -0.001, -0.010, 2.983, -1.836, 1.452, 2.946, 2.854, 0.762, 0.079, 0.792, 0.760, 0.809, 0.762, 411.003
22.900, -1.113, 1.426, 2.933, -0.009, 0.001, 3.010, -1.875, 1.464, 2.944, 2.890, 0.763, 0.083, 0.000, 0.037, 0.000, 0.041, 411.081
23.000, -1.149, 1.460, 2.934, -0.001, -0.000, 3.041, -1.914, 1.474, 2.941, 2.927, 0.765, 0.083, 0.267, 0.232, 0.294, 0.234, 412.108
23.100, -1.185, 1.494, 2.934, -0.003, 0.000, 3.071, -1.952, 1.482, 2.938, 2.966, 0.767, 0.087, 0.725, 0.685, 0.732, 0.694, 414.945
23.200, -1.221, 1.527, 2.934, -0.007, 0.005, 3.102, -1.990, 1.489, 2.935, 3.007, 0.769, 0.090, 0.000, 0.046, 0.000, 0.029, 415.019
23.300, -1.257, 1.560, 2.934, -0.006, 0.009, 3.135, -2.027, 1.494, 2.932, 3.050, 0.772, 0.092, 1.000, 0.959, 1.000, 0.986, 418.964
23.400, -1.295, 1.590, 2.937, -0.290, 0.184, 3.136, -2.063, 1.498, 2.929, 3.094, 0.773, 0.126, 1.000, 0.697, 0.187, 1.000, 421.848
23.500, -1.348, 1.600, 2.946, -0.359, 0.210, -3.101, -2.099, 1.500, 2.926, 3.141, 0.758, 0.092, 0.213, 0.000, 0.000, 0.000, 422.061
23.600, -1.414, 1.577, 2.943, -0.359, 0.086, -3.032, -2.135, 1.500, 2.923, -3.095, 0.725, 0.002, 0.098, 0.065, 0.000, 0.000, 422.223
23.700, -1.484, 1.520, 2.928, -0.216, -0.053, -3.007, -2.170, 1.498, 2.919, -3.045, 0.686, 0.103, 0.055, 0.013, 0.065, 0.000, 422.357
23.800, -1.546, 1.443, 2.909, -0.133, -0.162, -3.045, -2.204, 1.495, 2.916, -2.995, 0.660, 0.176, 0.108, 0.000, 0.000, 0.000, 422.464
23.900, -1.590, 1.355, 2.895, 0.016, -0.217, -3.123, -2.237, 1.490, 2.913, -2.943, 0.662, 0.225, 0.992, 0.963, 1.000, 1.000, 426.419
24.000, -1.612, 1.270, 2.885, 0.235, 0.189, 3.139, -2.270, 1.484, 2.909, -2.891, 0.692, 0.312, 1.000, 0.840, 1.000, 0.527, 429.786
24.100, -1.650, 1.209, 2.885, 0.326, 0.256, 3.042, -2.303, 1.476, 2.906, -2.839, 0.706, 0.289, 1.000, 0.822, 0.874, 1.000, 433.482
24.200, -1.718, 1.199, 2.906, 0.518, 0.230, 2.919, -2.334, 1.466, 2.902, -2.786, 0.672, 0.186, 0.000, 0.122, 0.016, 0.026, 433.646
24.300, -1.792, 1.232, 2.907, 0.422, -0.024, 2.759, -2.366, 1.455, 2.899, -2.733, 0.616, 0.011, 0.000, 0.124, 0.000, 0.169, 433.939
24.400, -1.850, 1.302, 2.903, 0.260, -0.211, 2.739, -2.396, 1.442, 2.895, -2.681, 0.563, 0.152, 0.000, 0.045, 0.006, 0.175, 434.166
24.500, -1.883, 1.389, 2.891, 0.147, -0.329, 2.805, -2.426, 1.427, 2.891, -2.629, 0.544, 0.267, 0.000, 0.027, 0.103, 0.138, 434.433
24.600, -1.880, 1.479, 2.880, -0.026, -0.335, 2.928, -2.455, 1.411, 2.887, -2.578, 0.579, 0.332, 0.000, 0.000, 0.184, 0.165, 434.783
24.700, -1.844, 1.560, 2.874, -0.128, -0.247, 3.052, -2.483, 1.393, 2.883, -2.529, 0.661, 0.345, 0.718, 0.970, 1.000, 1.000, 438.470
24.800, -1.782, 1.624, 2.882, -0.202, -0.101, -3.129, -2.511, 1.374, 2.880, -2.480, 0.771, 0.317, 1.000, 0.963, 1.000, 0.945, 442.378
24.900, -1.716, 1.670, 2.899, 0.032, 0.393, -3.029, -2.538, 1.353, 2.876, -2.433, 0.881, 0.256, 1.000, 0.796, 1.000, 0.840, 446.014
25.000, -1.689, 1.712, 2.927, 0.053, 0.406, -2.887, -2.564, 1.331, 2.872, -2.388, 0.957, 0.156, 0.552, 0.588, 0.773, 0.393, 448.319
25.100, -1.701, 1.745, 2.948, -0.127, 0.465, -2.803, -2.590, 1.307, 2.867, -2.344, 0.995, 0.119, 0.184, 0.072, 0.000, 0.000, 448.575
25.200, -1.748, 1.754, 2.958, -0.208, 0.365, -2.722, -2.615, 1.282, 2.863, -2.302, 0.992, 0.079, 0.193, 0.025, 0.076, 0.000, 448.869
25.300, -1.817, 1.732, 2.957, -0.216, 0.255, -2.666, -2.639, 1.255, 2.859, -2.262, 0.955, 0.051, 0.000, 0.000, 0.059, 0.000, 448.929
25.400, -1.898, 1.684, 2.942, -0.191, 0.171, -2.636, -2.662, 1.227, 2.855, -2.224, 0.895, 0.033, 0.052, 0.088, 0.163, 0.112, 449.344
25.500, -1.983, 1.613, 2.917, -0.156, 0.068, -2.617, -2.685, 1.198, 2.850, -2.187, 0.818, 0.009, 0.128, 0.178, 0.234, 0.251, 450.136
25.600, -2.066, 1.526, 2.889, -0.092, -0.021, -2.613, -2.707, 1.167, 2.846, -2.151, 0.736, 0.018, 0.776, 0.801, 0.862, 0.875, 453.450
25.700, -2.144, 1.432, 2.865, -0.017, -0.080, -2.622, -2.728, 1.135, 2.841, -2.117, 0.656, 0.049, 0.008, 0.024, 0.037, 0.000, 453.518
25.800, -2.212, 1.342, 2.847, 0.026, -0.119, -2.645, -2.748, 1.102, 2.837, -2.085, 0.587, 0.076, 1.000, 0.962, 1.000, 1.000, 457.480
25.900, -2.271, 1.259, 2.836, 0.063, -0.127, -2.676, -2.768, 1.067, 2.832, -2.054, 0.533, 0.097, 0.000, 0.034, 0.018, 0.000, 457.532
26.000, -2.322, 1.188, 2.824, 0.090, -0.113, -2.711, -2.787, 1.031, 2.828, -2.025, 0.491, 0.105, 1.000, 0.972, 1.000, 1.000, 461.503
26.100, -2.366, 1.131, 2.818, 0.095, -0.095, -2.745, -2.805, 0.994, 2.823, -1.996, 0.460, 0.095, 0.000, 0.041, 0.000, 0.000, 461.545
26.200, -2.404, 1.087, 2.817, 0.087, -0.075, -2.774, -2.822, 0.956, 2.818, -1.969, 0.438, 0.066, 0.430, 0.423, 0.421, 0.520, 463.339
26.300, -2.439, 1.053, 2.814, 0.087, -0.041, -2.787, -2.839, 0.917, 2.813, -1.943, 0.423, 0.029, 0.000, 0.040, 0.000, 0.053, 463.432
26.400, -2.473, 1.028, 2.811, 0.063, -0.021, -2.784, -2.855, 0.877, 2.808, -1.918, 0.411, 0.018, 0.982, 0.982, 0.961, 1.000, 467.358
26.500, -2.507, 1.010, 2.809, 0.047, 0.000, -2.762, -2.870, 0.836, 2.804, -1.894, 0.402, 0.067, 0.000, 0.075, 0.000, 0.000, 467.432
26.600, -2.543, 0.996, 2.802, 0.020, -0.003, -2.722, -2.884, 0.794, 2.799, -1.871, 0.396, 0.115, 0.015, 0.053, 0.000, 0.009, 467.509
26.700, -2.578, 0.985, 2.796, 0.003, -0.015, -2.665, -2.897, 0.752, 2.794, -1.849, 0.395, 0.155, 0.958, 0.971, 0.986, 1.000, 471.424
26.800, -2.613, 0.974, 2.788, -0.007, -0.007, -2.593, -2.910, 0.708, 2.788, -1.827, 0.398, 0.182, 0.000, 0.080, 0.000, 0.000, 471.504
26.900, -2.647, 0.963, 2.777, -0.011, -0.003, -2.509, -2.922, 0.663, 2.783, -1.806, 0.406, 0.195, 0.999, 0.954, 1.000, 1.000, 475.458
27.000, -2.679, 0.951, 2.768, -0.022, 0.005, -2.422, -2.933, 0.618, 2.778, -1.786, 0.418, 0.200, 0.994, 0.959, 1.000, 1.000, 479.411
27.100, -2.711, 0.937, 2.760, -0.025, 0.007, -2.333, -2.943, 0.572, 2.773, -1.766, 0.433, 0.195, 0.003, 0.061, 0.000, 0.000, 479.474
27.200, -2.741, 0.921, 2.750, -0.038, 0.009, -2.248, -2.952, 0.526, 2.767, -1.747, 0.448, 0.185, 0.964, 0.937, 1.000, 1.000, 483.376
27.300, -2.768, 0.901, 2.743, -0.036, 0.011, -2.168, -2.961, 0.479, 2.762, -1.729, 0.465, 0.170, 0.013, 0.055, 0.000, 0.000, 483.444
27.400, -2.794, 0.878, 2.736, -0.044, 0.017, -2.098, -2.968, 0.431, 2.757, -1.710, 0.481, 0.155, 0.018, 0.051, 0.000, 0.000, 483.514
27.500, -2.816, 0.852, 2.730, -0.032, 0.036, -2.035, -2.975, 0.383, 2.751, -1.692, 0.496, 0.137, 0.056, 0.065, 0.000, 0.000, 483.635
27.600, -2.836, 0.822, 2.722, -0.032, 0.031, -1.977, -2.981, 0.334, 2.746, -1.675, 0.509, 0.118, 0.854, 0.855, 0.844, 0.778, 486.965
27.700, -2.855, 0.788, 2.713, -0.027, 0.027, -1.930, -2.986, 0.285, 2.740, -1.657, 0.521, 0.104, 0.046, 0.042, 0.000, 0.000, 487.053
27.800, -2.871, 0.752, 2.706, -0.022, 0.026, -1.890, -2.991, 0.236, 2.734, -1.640, 0.531, 0.091, 0.562, 0.606, 0.586, 0.528, 489.336
27.900, -2.885, 0.714, 2.699, -0.015, 0.022, -1.856, -2.994, 0.187, 2.729, -1.623, 0.539, 0.082, 0.014, 0.058, 0.000, 0.000, 489.408
28.000, -2.899, 0.672, 2.693, 0.001, 0.032, -1.825, -2.997, 0.137, 2.723, -1.607, 0.545, 0.074, 1.000, 0.969, 1.000, 0.993, 493.369
28.100, -2.913, 0.628, 2.687, -0.008, 0.023, -1.797, -2.999, 0.087, 2.717, -1.590, 0.549, 0.069, 0.485, 0.468, 0.493, 0.497, 495.312
28.200, -2.927, 0.582, 2.677, -0.006, 0.030, -1.774, -3.000, 0.037, 2.711, -1.573, 0.551, 0.071, 1.000, 0.966, 1.000, 1.000, 499.278
28.300, -2.941, 0.533, 2.669, -0.007, 0.014, -1.749, -3.000, -0.013, 2.706, -1.557, 0.550, 0.070, 0.983, 0.952, 1.000, 1.000, 503.212
28.400, -2.954, 0.482, 2.665, -0.003, 0.008, -1.724, -2.999, -0.063, 2.700, -1.540, 0.548, 0.069, 0.016, 0.055, 0.000, 0.000, 503.283
28.500, -2.967, 0.430, 2.657, -0.004, 0.021, -1.701, -2.998, -0.113, 2.694, -1.523, 0.545, 0.073, 0.032, 0.075, 0.000, 0.000, 503.390
28.600, -2.980, 0.377, 2.648, -0.006, 0.018, -1.676, -2.996, -0.163, 2.688, -1.506, 0.541, 0.075, 0.996, 0.961, 1.000, 1.000, 507.347
28.700, -2.992, 0.323, 2.643, -0.012, -0.012, -1.648, -2.992, -0.212, 2.682, -1.489, 0.536, 0.076, 0.000, 0.059, 0.005, 0.000, 507.411
28.800, -3.003, 0.268, 2.634, -0.017, 0.006, -1.625, -2.988, -0.261, 2.675, -1.472, 0.531, 0.081, 1.000, 0.994, 0.949, 1.000, 511.354
28.900, -3.012, 0.214, 2.623, -0.010, 0.010, -1.599, -2.984, -0.311, 2.669, -1.454, 0.528, 0.082, 0.974, 0.976, 1.000, 1.000, 515.303
29.000, -3.019, 0.160, 2.617, -0.006, -0.012, -1.570, -2.978, -0.359, 2.663, -1.436, 0.523, 0.079, 0.000, 0.067, 0.015, 0.000, 515.386
29.100, -3.026, 0.106, 2.608, -0.018, 0.008, -1.546, -2.972, -0.408, 2.657, -1.418, 0.519, 0.081, 0.029, 0.007, 0.000, 0.020, 515.441
29.200, -3.032, 0.053, 2.599, -0.006, 0.000, -1.520, -2.964, -0.456, 2.651, -1.400, 0.515, 0.081, 0.997, 0.948, 1.000, 1.000, 519.386
29.300, -3.036, -0.000, 2.596, -0.005, -0.000, -1.492, -2.956, -0.503, 2.644, -1.381, 0.511, 0.079, 0.981, 0.988, 1.000, 1.000, 523.355
29.400, -3.040, -0.053, 2.586, 0.000, 0.017, -1.466, -2.947, -0.550, 2.638, -1.361, 0.508, 0.080, 0.995, 0.962, 1.000, 1.000, 527.312
29.500, -3.043, -0.107, 2.582, -0.012, -0.013, -1.436, -2.938, -0.596, 2.631, -1.341, 0.503, 0.078, 0.000, 0.064, 0.016, 0.000, 527.391
29.600, -3.046, -0.161, 2.571, -0.016, 0.015, -1.413, -2.927, -0.641, 2.625, -1.320, 0.498, 0.084, 1.000, 0.982, 0.944, 1.000, 531.317
29.700, -3.046, -0.214, 2.565, -0.011, -0.002, -1.383, -2.916, -0.686, 2.618, -1.299, 0.493, 0.082, 0.975, 0.932, 1.000, 1.000, 535.225
29.800, -3.045, -0.267, 2.560, -0.009, -0.013, -1.354, -2.904, -0.730, 2.612, -1.277, 0.487, 0.080, 0.000, 0.094, 0.031, 0.000, 535.350
29.900, -3.043, -0.319, 2.552, -0.011, 0.020, -1.330, -2.891, -0.774, 2.605, -1.254, 0.482, 0.083, 1.000, 1.000, 0.971, 1.000, 539.321
30.000, -3.040, -0.371, 2.541, 0.002, -0.001, -1.301, -2.877, -0.816, 2.598, -1.230, 0.478, 0.081, 0.962, 0.941, 1.000, 1.000, 543.225
30.100, -3.036, -0.423, 2.534, -0.004, -0.006, -1.272, -2.862, -0.858, 2.592, -1.206, 0.472, 0.082, 0.005, 0.095, 0.012, 0.000, 543.337
30.200, -3.031, -0.474, 2.526, -0.014, 0.006, -1.245, -2.847, -0.898, 2.585, -1.180, 0.466, 0.084, 0.438, 0.388, 0.361, 0.414, 544.938
30.300, -3.025, -0.524, 2.516, -0.004, 0.006, -1.217, -2.831, -0.938, 2.578, -1.153, 0.461, 0.085, 0.987, 0.951, 1.000, 1.000, 548.876
30.400, -3.018, -0.574, 2.514, -0.017, -0.018, -1.184, -2.814, -0.976, 2.571, -1.125, 0.455, 0.083, 0.000, 0.071, 0.018, 0.000, 548.965
30.500, -3.010, -0.622, 2.507, -0.017, 0.024, -1.157, -2.796, -1.014, 2.565, -1.096, 0.450, 0.087, 0.058, 0.106, 0.000, 0.000, 549.129
30.600, -3.001, -0.669, 2.500, -0.021, -0.012, -1.125, -2.777, -1.050, 2.558, -1.066, 0.445, 0.086, 0.000, 0.020, 0.013, 0.000, 549.162
30.700, -2.991, -0.715, 2.498, -0.032, -0.034, -1.091, -2.758, -1.085, 2.551, -1.034, 0.441, 0.082, 0.000, 0.000, 0.054, 0.022, 549.238
30.800, -2.980, -0.758, 2.488, -0.000, 0.038, -1.067, -2.738, -1.119, 2.544, -1.000, 0.438, 0.087, 1.000, 0.988, 0.970, 1.000, 553.196
30.900, -2.967, -0.803, 2.481, -0.027, -0.029, -1.027, -2.717, -1.152, 2.537, -0.965, 0.433, 0.078, 1.000, 0.790, 1.000, 1.000, 556.986
31.000, -2.953, -0.846, 2.474, 0.007, 0.022, -1.001, -2.696, -1.183, 2.530, -0.929, 0.428, 0.083, 1.000, 0.996, 0.971, 0.983, 560.936
31.100, -2.939, -0.889, 2.468, -0.008, 0.008, -0.967, -2.673, -1.213, 2.523, -0.891, 0.422, 0.083, 0.008, 0.097, 0.000, 0.000, 561.042
31.200, -2.924, -0.932, 2.464, -0.006, -0.014, -0.932, -2.650, -1.242, 2.516, -0.851, 0.417, 0.084, 0.000, 0.069, 0.046, 0.000, 561.157
31.300, -2.909, -0.974, 2.457, 0.003, 0.027, -0.900, -2.627, -1.269, 2.508, -0.809, 0.412, 0.093, 1.000, 1.000, 0.942, 1.000, 565.099
31.400, -2.893, -1.016, 2.450, -0.010, 0.011, -0.860, -2.602, -1.295, 2.501, -0.766, 0.406, 0.096, 0.026, 0.078, 0.002, 0.000, 565.205
31.500, -2.877, -1.058, 2.441, 0.005, -0.005, -0.818, -2.577, -1.320, 2.494, -0.721, 0.402, 0.101, 1.000, 0.936, 1.000, 1.000, 569.140
31.600, -2.861, -1.099, 2.439, -0.027, -0.014, -0.776, -2.551, -1.343, 2.487, -0.675, 0.397, 0.109, 0.000, 0.082, 0.000, 0.000, 569.223
31.700, -2.844, -1.138, 2.436, -0.009, 0.027, -0.730, -2.524, -1.364, 2.479, -0.627, 0.394, 0.114, 0.022, 0.103, 0.000, 0.000, 569.348
31.800, -2.826, -1.177, 2.423, -0.009, -0.005, -0.680, -2.497, -1.384, 2.472, -0.578, 0.392, 0.117, 0.000, 0.047, 0.031, 0.000, 569.425
31.900, -2.807, -1.214, 2.419, -0.022, -0.002, -0.630, -2.469, -1.403, 2.465, -0.527, 0.390, 0.122, 0.898, 0.813, 0.865, 0.933, 572.935
32.000, -2.787, -1.251, 2.416, -0.017, 0.022, -0.577, -2.440, -1.420, 2.457, -0.476, 0.388, 0.124, 0.005, 0.066, 0.000, 0.000, 573.006
32.100, -2.764, -1.286, 2.411, -0.024, -0.020, -0.518, -2.411, -1.435, 2.450, -0.424, 0.386, 0.119, 1.000, 0.894, 1.000, 1.000, 576.900
32.200, -2.741, -1.318, 2.410, -0.042, 0.009, -0.471, -2.380, -1.449, 2.442, -0.371, 0.385, 0.124, 0.000, 0.114, 0.000, 0.000, 577.014
32.300, -2.716, -1.348, 2.398, -0.003, 0.013, -0.416, -2.350, -1.461, 2.435, -0.318, 0.385, 0.117, 0.000, 0.097, 0.059, 0.000, 577.170
32.400, -2.690, -1.377, 2.392, -0.031, 0.013, -0.361, -2.318, -1.471, 2.427, -0.265, 0.385, 0.111, 0.187, 0.079, 0.092, 0.115, 577.644
32.500, -2.662, -1.403, 2.384, -0.034, 0.007, -0.313, -2.286, -1.480, 2.420, -0.213, 0.385, 0.111, 1.000, 0.935, 0.966, 1.000, 581.545
32.600, -2.634, -1.427, 2.377, -0.036, -0.016, -0.260, -2.254, -1.488, 2.412, -0.161, 0.387, 0.101, 1.000, 0.857, 1.000, 1.000, 585.402
32.700, -2.605, -1.447, 2.365, -0.017, 0.024, -0.219, -2.220, -1.493, 2.405, -0.111, 0.389, 0.100, 0.000, 0.100, 0.000, 0.000, 585.503
32.800, -2.574, -1.466, 2.361, -0.039, 0.002, -0.168, -2.186, -1.497, 2.397, -0.061, 0.391, 0.088, 0.330, 0.191, 0.277, 0.299, 586.600
32.900, -2.543, -1.482, 2.359, -0.038, 0.002, -0.126, -2.152, -1.499, 2.389, -0.013, 0.393, 0.080, 0.701, 0.604, 0.668, 0.737, 589.309
33.000, -2.511, -1.494, 2.355, -0.031, 0.006, -0.085, -2.117, -1.500, 2.382, 0.034, 0.396, 0.071, 0.002, 0.062, 0.035, 0.000, 589.408
33.100, -2.479, -1.505, 2.343, -0.020, -0.023, -0.049, -2.081, -1.499, 2.374, 0.079, 0.399, 0.064, 0.962, 0.913, 1.000, 1.000, 593.283
33.200, -2.448, -1.513, 2.338, -0.025, 0.005, -0.020, -2.045, -1.496, 2.366, 0.123, 0.405, 0.060, 0.000, 0.077, 0.000, 0.000, 593.360
33.300, -2.417, -1.518, 2.336, -0.020, 0.004, 0.014, -2.008, -1.492, 2.358, 0.164, 0.411, 0.051, 1.000, 0.933, 1.000, 1.000, 597.293
33.400, -2.386, -1.522, 2.331, -0.010, 0.004, 0.044, -1.970, -1.486, 2.351, 0.204, 0.418, 0.043, 0.779, 0.693, 0.820, 0.774, 600.358
33.500, -2.354, -1.524, 2.326, -0.013, 0.006, 0.071, -1.932, -1.478, 2.343, 0.241, 0.425, 0.038, 0.000, 0.068, 0.029, 0.000, 600.455
33.600, -2.321, -1.526, 2.318, -0.001, 0.005, 0.097, -1.894, -1.469, 2.335, 0.277, 0.432, 0.035, 1.000, 0.933, 1.000, 1.000, 604.388
33.700, -2.288, -1.526, 2.314, -0.002, 0.010, 0.121, -1.855, -1.458, 2.327, 0.311, 0.439, 0.035, 1.000, 1.000, 0.964, 0.994, 608.347
33.800, -2.255, -1.526, 2.305, -0.004, -0.013, 0.147, -1.815, -1.445, 2.319, 0.344, 0.447, 0.034, 0.000, 0.061, 0.120, 0.000, 608.528
33.900, -2.222, -1.524, 2.301, -0.022, 0.001, 0.170, -1.775, -1.431, 2.311, 0.374, 0.456, 0.034, 0.009, 0.000, 0.026, 0.021, 608.584
34.000, -2.188, -1.520, 2.289, 0.016, 0.018, 0.194, -1.735, -1.415, 2.303, 0.403, 0.466, 0.033, 1.000, 0.929, 1.000, 1.000, 612.513
34.100, -2.153, -1.518, 2.284, -0.009, 0.015, 0.220, -1.694, -1.398, 2.295, 0.430, 0.475, 0.034, 0.000, 0.068, 0.016, 0.000, 612.598
34.200, -2.117, -1.514, 2.278, -0.002, 0.018, 0.244, -1.652, -1.379, 2.287, 0.456, 0.484, 0.038, 1.000, 0.979, 0.977, 1.000, 616.554
34.300, -2.079, -1.509, 2.275, -0.020, 0.022, 0.271, -1.610, -1.359, 2.279, 0.480, 0.492, 0.038, 0.022, 0.071, 0.000, 0.000, 616.647
34.400, -2.041, -1.502, 2.261, -0.002, 0.001, 0.299, -1.568, -1.337, 2.271, 0.503, 0.501, 0.038, 0.000, 0.047, 0.067, 0.000, 616.761
34.500, -2.002, -1.495, 2.256, -0.025, 0.022, 0.323, -1.525, -1.313, 2.263, 0.524, 0.510, 0.040, 1.000, 0.938, 0.998, 1.000, 620.697
34.600, -1.962, -1.485, 2.243, -0.002, 0.004, 0.352, -1.482, -1.288, 2.255, 0.544, 0.519, 0.037, 0.991, 0.939, 1.000, 1.000, 624.627
34.700, -1.922, -1.473, 2.235, -0.018, 0.027, 0.375, -1.438, -1.262, 2.247, 0.563, 0.528, 0.037, 0.023, 0.073, 0.000, 0.000, 624.724
34.800, -1.881, -1.460, 2.227, -0.010, 0.009, 0.401, -1.394, -1.234, 2.239, 0.581, 0.537, 0.033, 0.000, 0.079, 0.056, 0.000, 624.858
34.900, -1.839, -1.444, 2.223, -0.028, 0.019, 0.423, -1.349, -1.205, 2.231, 0.598, 0.545, 0.031, 1.000, 0.950, 0.985, 1.000, 628.793
35.000, -1.797, -1.426, 2.211, -0.006, 0.003, 0.447, -1.304, -1.175, 2.223, 0.614, 0.553, 0.025, 0.991, 0.940, 1.000, 1.000, 632.724
35.100, -1.755, -1.406, 2.204, -0.016, 0.022, 0.466, -1.259, -1.143, 2.215, 0.628, 0.561, 0.022, 0.019, 0.064, 0.000, 0.000, 632.807
35.200, -1.712, -1.385, 2.198, -0.010, 0.005, 0.486, -1.214, -1.110, 2.207, 0.642, 0.569, 0.018, 0.000, 0.067, 0.068, 0.000, 632.941
35.300, -1.669, -1.361, 2.195, -0.024, 0.011, 0.501, -1.168, -1.076, 2.199, 0.655, 0.577, 0.016, 0.586, 0.503, 0.541, 0.591, 635.163
35.400, -1.627, -1.336, 2.184, -0.004, 0.010, 0.517, -1.122, -1.040, 2.190, 0.668, 0.585, 0.012, 0.000, 0.062, 0.022, 0.000, 635.247
35.500, -1.584, -1.309, 2.179, -0.018, 0.015, 0.531, -1.075, -1.004, 2.182, 0.679, 0.593, 0.010, 0.080, 0.013, 0.083, 0.072, 635.496
35.600, -1.540, -1.281, 2.169, -0.006, 0.012, 0.544, -1.028, -0.966, 2.174, 0.690, 0.601, 0.008, 1.000, 0.946, 1.000, 1.000, 639.442
35.700, -1.496, -1.252, 2.164, -0.013, 0.014, 0.555, -0.981, -0.927, 2.166, 0.700, 0.609, 0.007, 0.000, 0.055, 0.000, 0.000, 639.497
35.800, -1.452, -1.221, 2.160, -0.010, 0.012, 0.567, -0.934, -0.887, 2.158, 0.709, 0.616, 0.005, 1.000, 0.953, 1.000, 1.000, 643.450
35.900, -1.407, -1.189, 2.149, -0.005, 0.007, 0.578, -0.886, -0.847, 2.149, 0.718, 0.624, 0.003, 1.000, 0.912, 1.000, 1.000, 647.361
36.000, -1.363, -1.156, 2.147, -0.010, 0.015, 0.588, -0.838, -0.805, 2.141, 0.726, 0.631, 0.002, 0.030, 0.037, 0.000, 0.000, 647.429
36.100, -1.317, -1.122, 2.133, 0.006, 0.008, 0.597, -0.790, -0.762, 2.133, 0.733, 0.638, 0.001, 0.000, 0.046, 0.048, 0.000, 647.522
36.200, -1.271, -1.087, 2.128, -0.013, 0.013, 0.605, -0.742, -0.719, 2.125, 0.740, 0.645, 0.003, 1.000, 0.953, 1.000, 1.000, 651.475
36.300, -1.225, -1.051, 2.123, -0.005, 0.011, 0.613, -0.693, -0.674, 2.116, 0.746, 0.652, 0.004, 0.443, 0.412, 0.476, 0.445, 653.250
36.400, -1.178, -1.014, 2.115, -0.003, -0.000, 0.620, -0.644, -0.629, 2.108, 0.752, 0.658, 0.004, 0.000, 0.039, 0.032, 0.012, 653.333
36.500, -1.132, -0.976, 2.108, -0.008, 0.011, 0.627, -0.596, -0.584, 2.100, 0.758, 0.664, 0.005, 1.000, 0.965, 0.996, 1.000, 657.295
36.600, -1.085, -0.937, 2.101, -0.008, 0.008, 0.635, -0.546, -0.537, 2.091, 0.762, 0.671, 0.004, 1.000, 0.947, 0.970, 1.000, 661.212
36.700, -1.038, -0.897, 2.090, -0.005, 0.010, 0.642, -0.497, -0.490, 2.083, 0.767, 0.677, 0.004, 0.003, 0.018, 0.002, 0.000, 661.235
36.800, -0.991, -0.857, 2.087, -0.010, 0.010, 0.647, -0.448, -0.443, 2.075, 0.770, 0.683, 0.005, 0.570, 0.532, 0.567, 0.587, 663.490
36.900, -0.943, -0.815, 2.084, -0.012, 0.010, 0.654, -0.398, -0.395, 2.067, 0.774, 0.689, 0.004, 0.008, 0.000, 0.017, 0.000, 663.516
37.000, -0.896, -0.773, 2.080, -0.009, 0.009, 0.659, -0.349, -0.346, 2.058, 0.777, 0.694, 0.004, 0.000, 0.006, 0.025, 0.000, 663.546
37.100, -0.848, -0.730, 2.068, -0.001, 0.003, 0.662, -0.299, -0.298, 2.050, 0.779, 0.699, 0.005, 1.000, 0.989, 0.989, 0.999, 667.524
37.200, -0.801, -0.687, 2.063, -0.008, 0.004, 0.665, -0.249, -0.248, 2.042, 0.781, 0.705, 0.007, 0.000, 0.014, 0.014, 0.000, 667.552
37.300, -0.754, -0.643, 2.055, -0.003, 0.005, 0.668, -0.199, -0.199, 2.033, 0.783, 0.710, 0.006, 0.000, 0.016, 0.025, 0.002, 667.594
37.400, -0.707, -0.598, 2.047, -0.008, 0.007, 0.671, -0.149, -0.149, 2.025, 0.784, 0.716, 0.006, 1.000, 1.000, 0.971, 0.992, 671.557
37.500, -0.660, -0.552, 2.043, -0.003, 0.006, 0.673, -0.100, -0.099, 2.017, 0.785, 0.721, 0.006, 0.000, 0.003, 0.029, 0.027, 671.617
37.600, -0.612, -0.506, 2.037, -0.006, 0.007, 0.674, -0.050, -0.050, 2.008, 0.785, 0.725, 0.007, 1.000, 1.000, 0.970, 0.991, 675.577
37.700, -0.565, -0.459, 2.036, -0.009, 0.006, 0.675, 0.000, 0.000, 2.000, 0.785, 0.729, 0.007, 0.000, 0.000, 0.021, 0.016, 675.614
37.800, -0.517, -0.411, 2.022, -0.003, 0.003, 0.675, 0.050, 0.050, 1.992, 0.785, 0.732, 0.008, 1.000, 1.000, 0.964, 0.947, 679.525
37.900, -0.470, -0.363, 2.015, -0.003, 0.005, 0.674, 0.100, 0.100, 1.983, 0.784, 0.736, 0.009, 0.000, 0.000, 0.031, 0.032, 679.588
38.000, -0.422, -0.315, 2.012, -0.010, 0.005, 0.673, 0.150, 0.150, 1.975, 0.783, 0.738, 0.009, 0.050, 0.004, 0.000, 0.000, 679.642
38.100, -0.375, -0.266, 2.002, -0.002, 0.004, 0.671, 0.200, 0.200, 1.967, 0.781, 0.741, 0.010, 1.000, 1.000, 0.972, 0.954, 683.568
38.200, -0.327, -0.217, 2.001, -0.001, 0.005, 0.668, 0.250, 0.249, 1.958, 0.779, 0.743, 0.011, 0.000, 0.006, 0.014, 0.019, 683.607
38.300, -0.279, -0.167, 1.988, -0.009, 0.002, 0.667, 0.300, 0.298, 1.950, 0.776, 0.744, 0.011, 0.000, 0.000, 0.023, 0.051, 683.680
38.400, -0.231, -0.117, 1.984, -0.009, 0.003, 0.665, 0.350, 0.347, 1.942, 0.773, 0.745, 0.009, 1.000, 1.000, 0.985, 0.964, 687.629
38.500, -0.184, -0.066, 1.972, -0.008, -0.002, 0.662, 0.399, 0.396, 1.933, 0.770, 0.745, 0.007, 0.000, 0.000, 0.027, 0.084, 687.740
38.600, -0.138, -0.015, 1.963, -0.006, -0.001, 0.658, 0.449, 0.444, 1.925, 0.766, 0.745, 0.006, 1.000, 1.000, 0.975, 0.931, 691.646
38.700, -0.091, 0.037, 1.963, -0.003, 0.003, 0.653, 0.498, 0.491, 1.917, 0.761, 0.746, 0.004, 0.000, 0.000, 0.003, 0.033, 691.682
38.800, -0.045, 0.088, 1.950, -0.009, -0.002, 0.646, 0.547, 0.538, 1.908, 0.756, 0.745, 0.003, 0.000, 0.000, 0.009, 0.101, 691.792
38.900, 0.001, 0.140, 1.947, -0.001, 0.002, 0.640, 0.596, 0.585, 1.900, 0.751, 0.745, 0.002, 1.000, 1.000, 0.997, 0.952, 695.741
39.000, 0.047, 0.192, 1.944, 0.002, 0.002, 0.631, 0.645, 0.630, 1.892, 0.745, 0.744, 0.001, 1.000, 1.000, 1.000, 0.963, 699.704
39.100, 0.093, 0.243, 1.942, 0.003, -0.005, 0.622, 0.694, 0.675, 1.884, 0.739, 0.743, 0.001, 0.000, 0.000, 0.044, 0.077, 699.826
39.200, 0.139, 0.294, 1.938, 0.004, -0.002, 0.612, 0.743, 0.720, 1.875, 0.732, 0.742, 0.002, 0.390, 0.405, 0.383, 0.343, 701.347
39.300, 0.184, 0.345, 1.920, -0.010, -0.007, 0.602, 0.791, 0.763, 1.867, 0.724, 0.739, 0.001, 0.000, 0.000, 0.023, 0.107, 701.477
39.400, 0.229, 0.396, 1.911, 0.000, -0.004, 0.592, 0.839, 0.806, 1.859, 0.716, 0.737, 0.001, 1.000, 1.000, 1.000, 0.929, 705.407
39.500, 0.273, 0.446, 1.912, 0.012, -0.002, 0.581, 0.887, 0.847, 1.850, 0.707, 0.736, 0.003, 0.000, 0.000, 0.002, 0.039, 705.447
39.600, 0.318, 0.496, 1.900, -0.006, -0.004, 0.569, 0.935, 0.888, 1.842, 0.698, 0.733, 0.003, 0.017, 0.000, 0.000, 0.097, 705.562
39.700, 0.362, 0.546, 1.898, 0.016, -0.003, 0.556, 0.982, 0.928, 1.834, 0.687, 0.731, 0.003, 1.000, 1.000, 1.000, 0.950, 709.512
39.800, 0.407, 0.594, 1.888, -0.005, -0.004, 0.541, 1.029, 0.967, 1.826, 0.677, 0.727, 0.001, 1.000, 1.000, 0.985, 0.915, 713.412
39.900, 0.452, 0.642, 1.883, 0.012, -0.004, 0.527, 1.076, 1.004, 1.818, 0.665, 0.724, 0.001, 0.000, 0.000, 0.000, 0.052, 713.464
40.000, 0.497, 0.689, 1.874, -0.001, -0.006, 0.512, 1.122, 1.041, 1.809, 0.653, 0.721, 0.001, 0.009, 0.000, 0.000, 0.141, 713.615
40.100, 0.542, 0.735, 1.866, 0.009, -0.005, 0.497, 1.169, 1.076, 1.801, 0.639, 0.717, 0.002, 1.000, 1.000, 1.000, 0.932, 717.547
40.200, 0.586, 0.780, 1.863, 0.008, -0.003, 0.481, 1.215, 1.111, 1.793, 0.625, 0.714, 0.003, 1.000, 0.967, 0.998, 0.981, 721.494
40.300, 0.631, 0.823, 1.860, 0.011, -0.003, 0.465, 1.260, 1.144, 1.785, 0.610, 0.710, 0.006, 0.076, 0.021, 0.000, 0.000, 721.591
40.400, 0.675, 0.866, 1.854, 0.016, -0.006, 0.447, 1.305, 1.175, 1.777, 0.594, 0.706, 0.010, 0.000, 0.005, 0.014, 0.025, 721.634
40.500, 0.720, 0.906, 1.841, 0.014, -0.017, 0.429, 1.350, 1.206, 1.769, 0.577, 0.702, 0.015, 0.993, 1.000, 1.000, 0.928, 725.555
40.600, 0.763, 0.945, 1.837, 0.013, -0.008, 0.412, 1.395, 1.235, 1.761, 0.559, 0.699, 0.019, 0.000, 0.007, 0.000, 0.047, 725.609
40.700, 0.806, 0.981, 1.830, 0.004, -0.015, 0.399, 1.439, 1.262, 1.753, 0.540, 0.696, 0.019, 1.000, 1.000, 1.000, 0.944, 729.553
40.800, 0.848, 1.017, 1.822, 0.000, -0.011, 0.386, 1.482, 1.289, 1.744, 0.520, 0.694, 0.019, 1.000, 1.000, 1.000, 0.891, 733.444
40.900, 0.889, 1.052, 1.811, -0.004, -0.007, 0.370, 1.526, 1.314, 1.736, 0.498, 0.692, 0.020, 0.000, 0.000, 0.000, 0.065, 733.509
41.000, 0.929, 1.087, 1.807, 0.006, -0.006, 0.354, 1.568, 1.337, 1.728, 0.475, 0.691, 0.018, 0.418, 0.449, 0.445, 0.393, 735.215
41.100, 0.968, 1.122, 1.790, 0.007, -0.015, 0.336, 1.611, 1.359, 1.720, 0.450, 0.688, 0.018, 0.000, 0.000, 0.000, 0.083, 735.298
41.200, 1.007, 1.155, 1.781, 0.007, -0.009, 0.316, 1.653, 1.379, 1.712, 0.424, 0.687, 0.018, 1.000, 1.000, 1.000, 0.932, 739.230
41.300, 1.044, 1.187, 1.779, 0.001, -0.007, 0.298, 1.694, 1.398, 1.704, 0.397, 0.687, 0.016, 0.019, 0.000, 0.000, 0.059, 739.307
41.400, 1.082, 1.218, 1.774, 0.003, -0.004, 0.280, 1.735, 1.416, 1.696, 0.368, 0.687, 0.013, 0.057, 0.062, 0.116, 0.039, 739.581
41.500, 1.118, 1.250, 1.764, -0.007, 0.004, 0.257, 1.776, 1.431, 1.689, 0.337, 0.686, 0.012, 1.000, 1.000, 1.000, 0.929, 743.510
41.600, 1.155, 1.282, 1.763, 0.008, 0.000, 0.234, 1.816, 1.445, 1.681, 0.304, 0.686, 0.008, 0.021, 0.000, 0.000, 0.020, 743.551
41.700, 1.192, 1.314, 1.750, -0.007, -0.006, 0.209, 1.855, 1.458, 1.673, 0.270, 0.683, 0.005, 0.009, 0.000, 0.000, 0.081, 743.641
41.800, 1.229, 1.346, 1.747, 0.007, -0.004, 0.184, 1.894, 1.469, 1.665, 0.233, 0.682, 0.001, 0.992, 1.000, 1.000, 0.959, 747.592
41.900, 1.265, 1.377, 1.736, -0.009, 0.001, 0.154, 1.933, 1.478, 1.657, 0.195, 0.681, 0.004, 1.000, 1.000, 0.997, 0.936, 751.525
42.000, 1.301, 1.409, 1.731, 0.006, 0.005, 0.122, 1.971, 1.486, 1.649, 0.155, 0.679, 0.008, 0.006, 0.002, 0.000, 0.038, 751.570
42.100, 1.337, 1.440, 1.722, 0.004, -0.003, 0.089, 2.008, 1.492, 1.641, 0.113, 0.678, 0.011, 0.000, 0.000, 0.000, 0.083, 751.653
42.200, 1.374, 1.470, 1.714, 0.005, 0.001, 0.054, 2.045, 1.496, 1.634, 0.070, 0.677, 0.015, 1.000, 1.000, 1.000, 0.959, 755.613
42.300, 1.411, 1.500, 1.707, 0.000, 0.006, 0.017, 2.082, 1.499, 1.626, 0.024, 0.676, 0.020, 1.000, 1.000, 0.981, 0.933, 759.526
42.400, 1.447, 1.530, 1.698, 0.014, 0.001, -0.021, 2.117, 1.500, 1.618, -0.023, 0.675, 0.023, 0.000, 0.000, 0.000, 0.036, 759.562
42.500, 1.484, 1.558, 1.694, 0.015, 0.004, -0.061, 2.152, 1.499, 1.611, -0.072, 0.676, 0.026, 0.097, 0.120, 0.167, 0.121, 760.068
42.600, 1.522, 1.585, 1.686, 0.013, 0.004, -0.103, 2.187, 1.497, 1.603, -0.122, 0.676, 0.028, 0.996, 1.000, 1.000, 0.970, 764.033
42.700, 1.559, 1.611, 1.680, 0.011, 0.005, -0.146, 2.221, 1.493, 1.595, -0.173, 0.677, 0.030, 1.000, 0.985, 1.000, 0.967, 767.985
42.800, 1.597, 1.635, 1.669, 0.009, 0.012, -0.192, 2.254, 1.487, 1.588, -0.224, 0.679, 0.029, 0.001, 0.012, 0.000, 0.027, 768.025
42.900, 1.636, 1.659, 1.664, 0.018, 0.008, -0.236, 2.287, 1.480, 1.580, -0.277, 0.681, 0.031, 0.096, 0.066, 0.131, 0.102, 768.420
43.000, 1.675, 1.680, 1.655, 0.012, 0.011, -0.283, 2.319, 1.471, 1.572, -0.330, 0.682, 0.030, 1.000, 0.986, 1.000, 0.995, 772.401
43.100, 1.714, 1.700, 1.650, 0.020, 0.009, -0.330, 2.350, 1.461, 1.565, -0.383, 0.685, 0.031, 1.000, 1.000, 1.000, 0.974, 776.375
43.200, 1.754, 1.719, 1.645, 0.021, 0.006, -0.377, 2.381, 1.448, 1.557, -0.435, 0.688, 0.030, 0.000, 0.038, 0.000, 0.000, 776.414
43.300, 1.794, 1.735, 1.639, 0.028, 0.000, -0.423, 2.411, 1.435, 1.550, -0.487, 0.692, 0.029, 0.992, 0.962, 1.000, 1.000, 780.368
43.400, 1.832, 1.749, 1.635, 0.021, -0.003, -0.469, 2.441, 1.419, 1.543, -0.538, 0.698, 0.027, 0.986, 0.940, 1.000, 1.000, 784.295
43.500, 1.869, 1.761, 1.631, 0.020, 0.008, -0.514, 2.469, 1.402, 1.535, -0.589, 0.705, 0.025, 0.005, 0.000, 0.042, 0.000, 784.342
43.600, 1.907, 1.771, 1.622, 0.009, 0.016, -0.560, 2.497, 1.384, 1.528, -0.637, 0.712, 0.020, 1.000, 0.960, 0.987, 1.000, 788.289
43.700, 1.945, 1.779, 1.616, 0.022, 0.012, -0.604, 2.525, 1.364, 1.521, -0.685, 0.719, 0.017, 0.988, 1.000, 1.000, 0.985, 792.262
43.800, 1.983, 1.785, 1.609, 0.020, 0.011, -0.648, 2.551, 1.342, 1.513, -0.731, 0.727, 0.014, 0.000, 0.042, 0.000, 0.000, 792.304
43.900, 2.020, 1.789, 1.603, 0.011, 0.012, -0.690, 2.577, 1.319, 1.506, -0.776, 0.735, 0.011, 1.000, 0.961, 0.990, 1.000, 796.255
44.000, 2.058, 1.792, 1.599, 0.018, 0.012, -0.732, 2.602, 1.295, 1.499, -0.819, 0.744, 0.008, 1.000, 0.965, 1.000, 1.000, 800.220
44.100, 2.095, 1.792, 1.589, 0.018, 0.019, -0.772, 2.627, 1.269, 1.492, -0.860, 0.753, 0.005, 0.000, 0.050, 0.000, 0.000, 800.271
44.200, 2.132, 1.790, 1.584, 0.015, 0.010, -0.811, 2.651, 1.241, 1.484, -0.899, 0.762, 0.003, 1.000, 0.962, 1.000, 1.000, 804.233
44.300, 2.169, 1.787, 1.579, 0.023, 0.018, -0.850, 2.674, 1.212, 1.477, -0.937, 0.771, 0.001, 0.009, 0.094, 0.000, 0.000, 804.336
44.400, 2.204, 1.781, 1.571, 0.013, 0.009, -0.888, 2.696, 1.182, 1.470, -0.973, 0.781, 0.005, 0.000, 0.042, 0.000, 0.009, 804.387
44.500, 2.239, 1.774, 1.565, 0.015, 0.020, -0.923, 2.718, 1.151, 1.463, -1.008, 0.792, 0.007, 0.004, 0.006, 0.002, 0.000, 804.399
44.600, 2.274, 1.765, 1.557, 0.018, 0.018, -0.957, 2.738, 1.118, 1.456, -1.041, 0.803, 0.009, 1.000, 0.964, 1.000, 1.000, 808.363
44.700, 2.308, 1.753, 1.553, 0.008, 0.011, -0.990, 2.759, 1.084, 1.449, -1.072, 0.813, 0.012, 0.000, 0.040, 0.000, 0.000, 808.403
44.800, 2.342, 1.740, 1.547, 0.011, 0.009, -1.022, 2.778, 1.049, 1.442, -1.103, 0.823, 0.014, 0.998, 0.937, 1.000, 1.000, 812.337
44.900, 2.376, 1.725, 1.539, 0.003, 0.017, -1.054, 2.796, 1.013, 1.435, -1.131, 0.833, 0.016, 0.005, 0.038, 0.000, 0.000, 812.380
45.000, 2.409, 1.709, 1.532, 0.017, 0.023, -1.084, 2.814, 0.975, 1.428, -1.159, 0.844, 0.018, 0.000, 0.051, 0.000, 0.000, 812.431
45.100, 2.443, 1.690, 1.526, 0.007, 0.008, -1.112, 2.831, 0.937, 1.422, -1.186, 0.854, 0.017, 0.000, 0.000, 0.018, 0.017, 812.467
45.200, 2.476, 1.670, 1.516, 0.005, 0.016, -1.141, 2.847, 0.897, 1.415, -1.211, 0.863, 0.018, 0.994, 0.955, 1.000, 1.000, 816.416
45.300, 2.509, 1.648, 1.511, 0.012, 0.016, -1.169, 2.862, 0.857, 1.408, -1.236, 0.873, 0.018, 0.995, 0.975, 1.000, 1.000, 820.387
45.400, 2.542, 1.625, 1.507, 0.008, 0.015, -1.196, 2.877, 0.815, 1.401, -1.259, 0.883, 0.017, 0.795, 0.763, 0.826, 0.807, 823.578
