time,drone_x,drone_y,drone_z,drone_roll,drone_pitch,drone_yaw,target_x,target_y,target_z,target_direction,distance_to_target,aiming_error,desired_x,desired_y,desired_z,desired_yaw,motor1_power,motor2_power,motor3_power,motor4_power,total_power,power_variance
0.000,-0.000,0.000,1.001,-0.032,-0.016,-0.007,0.000,0.000,2.000,0.785,0.999,1.106,-0.354,-0.354,2.000,0.000,0.911,0.405,1.000,0.095,2.411,0.137376
0.050,-0.074,-0.003,1.121,0.131,0.013,0.304,0.025,0.025,2.004,0.785,0.889,0.025,-0.329,-0.329,2.004,0.288,1.000,1.000,1.000,0.218,3.218,0.114520
0.100,-0.197,-0.055,1.355,0.108,0.054,0.404,0.050,0.050,2.008,0.785,0.706,0.000,-0.304,-0.303,2.008,0.398,0.953,0.955,1.000,1.000,3.908,0.000531
0.150,-0.288,-0.131,1.524,0.067,0.096,0.495,0.075,0.075,2.012,0.785,0.643,0.020,-0.279,-0.278,2.012,0.507,1.000,0.870,1.000,1.000,3.870,0.003186
0.200,-0.341,-0.212,1.644,0.030,0.113,0.579,0.100,0.100,2.017,0.784,0.656,0.036,-0.254,-0.253,2.017,0.607,0.995,0.863,1.000,1.000,3.858,0.003458
0.250,-0.351,-0.276,1.751,-0.014,0.137,0.655,0.125,0.125,2.021,0.784,0.679,0.044,-0.229,-0.228,2.021,0.693,1.000,0.936,1.000,0.956,3.893,0.000769
0.300,-0.331,-0.305,1.819,-0.049,0.128,0.717,0.150,0.150,2.025,0.783,0.693,0.041,-0.204,-0.203,2.025,0.753,1.000,0.880,1.000,0.994,3.875,0.002597
0.350,-0.288,-0.292,1.881,-0.046,0.071,0.759,0.175,0.175,2.029,0.782,0.674,0.030,-0.180,-0.178,2.029,0.787,0.000,0.000,0.027,0.036,0.063,0.000254
0.400,-0.236,-0.247,1.915,-0.032,0.019,0.783,0.200,0.199,2.033,0.782,0.635,0.015,-0.155,-0.153,2.033,0.798,0.990,0.972,1.000,1.000,3.962,0.000131
0.450,-0.188,-0.187,1.943,-0.026,-0.018,0.790,0.225,0.224,2.037,0.781,0.590,0.006,-0.130,-0.128,2.037,0.786,0.018,0.000,0.000,0.020,0.038,0.000093
0.500,-0.151,-0.125,1.968,-0.016,-0.033,0.776,0.250,0.249,2.042,0.780,0.553,0.025,-0.106,-0.103,2.042,0.754,0.045,0.000,0.000,0.028,0.072,0.000364
0.550,-0.126,-0.070,1.987,0.004,-0.037,0.747,0.275,0.273,2.046,0.778,0.531,0.038,-0.081,-0.078,2.046,0.714,0.000,0.000,0.001,0.032,0.033,0.000190
0.600,-0.110,-0.027,2.002,0.015,-0.027,0.712,0.300,0.298,2.050,0.777,0.525,0.040,-0.057,-0.053,2.050,0.676,0.000,0.000,0.007,0.043,0.050,0.000318
0.650,-0.097,0.004,2.013,0.014,-0.010,0.677,0.324,0.322,2.054,0.776,0.530,0.030,-0.033,-0.028,2.054,0.650,0.000,0.026,0.000,0.015,0.041,0.000118
0.700,-0.084,0.028,2.014,0.017,-0.006,0.651,0.349,0.347,2.058,0.774,0.540,0.017,-0.008,-0.003,2.058,0.636,1.000,0.981,1.000,1.000,3.981,0.000064
0.750,-0.070,0.046,2.014,0.008,0.006,0.636,0.374,0.371,2.062,0.773,0.553,0.004,0.016,0.022,2.062,0.633,1.000,1.000,0.974,0.972,3.946,0.000180
0.800,-0.052,0.061,2.024,0.002,0.008,0.630,0.399,0.395,2.067,0.771,0.563,0.007,0.040,0.047,2.067,0.637,1.000,0.966,1.000,0.974,3.940,0.000236
0.850,-0.032,0.077,2.028,0.002,0.008,0.632,0.424,0.419,2.071,0.769,0.571,0.013,0.064,0.072,2.071,0.645,0.499,0.632,0.525,0.523,2.179,0.002624
0.900,-0.009,0.095,2.033,-0.004,0.009,0.636,0.448,0.443,2.075,0.767,0.577,0.015,0.088,0.096,2.075,0.652,1.000,1.000,0.876,0.947,3.822,0.002608
0.950,0.015,0.113,2.041,0.002,0.010,0.638,0.473,0.467,2.079,0.765,0.580,0.019,0.112,0.121,2.079,0.657,1.000,1.000,0.964,0.949,3.913,0.000497
1.000,0.039,0.135,2.040,-0.004,0.004,0.643,0.498,0.491,2.083,0.763,0.582,0.017,0.136,0.145,2.083,0.661,0.000,0.022,0.000,0.000,0.022,0.000090
1.050,0.064,0.158,2.048,-0.003,0.001,0.644,0.522,0.514,2.087,0.760,0.582,0.016,0.160,0.170,2.087,0.661,0.000,0.027,0.000,0.028,0.055,0.000191
1.100,0.088,0.183,2.052,-0.004,0.005,0.646,0.547,0.538,2.092,0.758,0.581,0.012,0.184,0.194,2.092,0.659,1.000,0.936,1.000,0.993,3.929,0.000724
1.150,0.111,0.210,2.054,-0.004,0.003,0.643,0.571,0.561,2.096,0.755,0.580,0.008,0.207,0.218,2.096,0.653,1.000,1.000,0.957,0.896,3.853,0.001810
1.200,0.134,0.237,2.060,0.000,-0.003,0.637,0.596,0.584,2.100,0.753,0.579,0.007,0.231,0.242,2.100,0.645,0.977,0.979,0.999,0.966,3.922,0.000142
1.250,0.156,0.264,2.064,0.001,-0.002,0.628,0.620,0.607,2.104,0.750,0.579,0.007,0.255,0.266,2.104,0.637,0.000,0.007,0.000,0.020,0.027,0.000067
1.300,0.177,0.291,2.065,0.003,-0.002,0.620,0.645,0.630,2.108,0.747,0.579,0.007,0.278,0.290,2.108,0.629,1.000,1.000,1.000,0.977,3.977,0.000097
1.350,0.199,0.317,2.074,0.004,-0.005,0.612,0.669,0.652,2.112,0.744,0.579,0.006,0.301,0.314,2.112,0.620,0.000,0.028,0.000,0.017,0.045,0.000144
1.400,0.219,0.341,2.082,0.001,-0.000,0.604,0.694,0.675,2.116,0.741,0.581,0.009,0.325,0.337,2.116,0.615,0.993,1.000,1.000,0.999,3.991,0.000009
1.450,0.240,0.364,2.092,-0.002,0.002,0.597,0.718,0.697,2.121,0.737,0.584,0.012,0.348,0.361,2.121,0.610,0.470,0.424,0.446,0.466,1.806,0.000326
1.500,0.261,0.387,2.094,-0.003,0.003,0.591,0.742,0.719,2.125,0.734,0.585,0.013,0.371,0.384,2.125,0.605,1.000,0.999,0.997,0.984,3.981,0.000039
1.550,0.282,0.412,2.094,-0.000,0.002,0.584,0.766,0.741,2.129,0.730,0.587,0.012,0.394,0.407,2.129,0.598,0.000,0.006,0.000,0.035,0.041,0.000210
1.600,0.304,0.437,2.107,0.000,-0.001,0.578,0.791,0.763,2.133,0.726,0.586,0.011,0.417,0.430,2.133,0.591,0.004,0.023,0.000,0.004,0.031,0.000083
1.650,0.325,0.461,2.107,0.002,-0.001,0.570,0.815,0.784,2.137,0.723,0.587,0.013,0.440,0.453,2.137,0.584,1.000,1.000,1.000,0.989,3.989,0.000023
1.700,0.346,0.485,2.113,0.000,-0.002,0.564,0.839,0.805,2.141,0.718,0.588,0.013,0.462,0.476,2.141,0.578,1.000,0.978,1.000,0.961,3.939,0.000274
1.750,0.368,0.508,2.116,0.001,-0.000,0.556,0.863,0.826,2.145,0.714,0.589,0.015,0.485,0.499,2.145,0.573,0.140,0.141,0.154,0.146,0.581,0.000030
1.800,0.389,0.531,2.121,-0.001,-0.002,0.550,0.887,0.847,2.149,0.710,0.590,0.015,0.507,0.521,2.149,0.567,1.000,0.972,1.000,0.958,3.930,0.000325
1.850,0.411,0.555,2.125,0.003,-0.001,0.543,0.910,0.867,2.154,0.705,0.590,0.015,0.530,0.543,2.154,0.560,0.161,0.157,0.188,0.163,0.669,0.000153
1.900,0.432,0.578,2.132,0.000,-0.001,0.536,0.934,0.888,2.158,0.701,0.591,0.016,0.552,0.565,2.158,0.553,0.144,0.177,0.162,0.170,0.652,0.000154
1.950,0.453,0.602,2.134,0.005,-0.005,0.529,0.958,0.908,2.162,0.696,0.591,0.016,0.574,0.587,2.162,0.547,0.000,0.000,0.000,0.037,0.037,0.000253
2.000,0.474,0.624,2.141,0.002,-0.003,0.522,0.982,0.928,2.166,0.691,0.592,0.018,0.596,0.609,2.166,0.541,0.000,0.000,0.000,0.027,0.027,0.000141
2.050,0.495,0.645,2.142,-0.005,0.003,0.514,1.005,0.947,2.170,0.685,0.594,0.021,0.618,0.631,2.170,0.536,1.000,1.000,0.984,0.961,3.945,0.000252
2.100,0.515,0.667,2.153,-0.003,0.000,0.508,1.029,0.966,2.174,0.680,0.595,0.019,0.640,0.652,2.174,0.529,0.033,0.015,0.000,0.002,0.050,0.000166
2.150,0.535,0.688,2.153,0.001,-0.000,0.502,1.052,0.985,2.178,0.674,0.597,0.020,0.662,0.673,2.178,0.523,1.000,1.000,1.000,0.976,3.976,0.000106
2.200,0.555,0.709,2.155,-0.001,-0.001,0.495,1.076,1.004,2.182,0.669,0.599,0.021,0.683,0.694,2.182,0.517,1.000,1.000,1.000,0.958,3.958,0.000324
2.250,0.575,0.730,2.164,-0.003,0.003,0.488,1.099,1.022,2.186,0.663,0.601,0.022,0.705,0.715,2.186,0.511,0.026,0.001,0.000,0.017,0.044,0.000117
2.300,0.595,0.752,2.165,0.003,0.001,0.481,1.122,1.041,2.190,0.657,0.601,0.020,0.726,0.735,2.190,0.502,0.996,1.000,1.000,0.982,3.978,0.000056
2.350,0.616,0.776,2.167,0.005,-0.001,0.472,1.145,1.058,2.195,0.650,0.600,0.018,0.747,0.756,2.195,0.492,0.007,0.000,0.000,0.016,0.022,0.000041
2.400,0.638,0.800,2.168,-0.001,0.003,0.461,1.168,1.076,2.199,0.644,0.599,0.019,0.768,0.776,2.199,0.482,1.000,1.000,1.000,0.968,3.968,0.000188
2.450,0.659,0.824,2.179,0.003,-0.002,0.451,1.191,1.093,2.203,0.637,0.597,0.017,0.789,0.796,2.203,0.470,0.024,0.009,0.000,0.006,0.039,0.000079
2.500,0.679,0.847,2.178,0.004,-0.003,0.440,1.214,1.110,2.207,0.630,0.597,0.018,0.810,0.816,2.207,0.459,0.999,1.000,1.000,0.972,3.971,0.000149
2.550,0.698,0.867,2.183,-0.001,-0.001,0.428,1.237,1.127,2.211,0.623,0.599,0.021,0.831,0.835,2.211,0.451,0.000,0.000,0.000,0.044,0.044,0.000366
2.600,0.718,0.887,2.193,0.007,-0.002,0.420,1.260,1.143,2.215,0.615,0.600,0.022,0.851,0.855,2.215,0.443,0.000,0.000,0.029,0.010,0.039,0.000138
2.650,0.737,0.906,2.197,0.000,0.002,0.410,1.282,1.159,2.219,0.607,0.601,0.025,0.872,0.874,2.219,0.436,0.018,0.018,0.000,0.008,0.044,0.000057
2.700,0.757,0.925,2.196,0.001,0.001,0.403,1.305,1.175,2.223,0.599,0.603,0.025,0.892,0.893,2.223,0.429,0.998,1.000,1.000,0.975,3.973,0.000116
2.750,0.776,0.944,2.203,-0.011,0.003,0.394,1.327,1.190,2.227,0.591,0.604,0.025,0.912,0.912,2.227,0.421,0.047,0.000,0.000,0.059,0.106,0.000721
2.800,0.796,0.965,2.204,0.002,-0.004,0.386,1.350,1.205,2.231,0.583,0.604,0.023,0.932,0.930,2.231,0.411,0.000,0.000,0.000,0.041,0.041,0.000311
2.850,0.815,0.986,2.210,-0.012,0.004,0.376,1.372,1.220,2.235,0.574,0.605,0.023,0.952,0.949,2.235,0.401,0.969,1.000,0.998,1.000,3.967,0.000179
2.900,0.835,1.008,2.214,-0.000,-0.005,0.364,1.394,1.234,2.239,0.565,0.604,0.021,0.972,0.967,2.239,0.388,0.000,0.000,0.000,0.049,0.049,0.000459
2.950,0.854,1.028,2.218,0.001,-0.006,0.351,1.416,1.249,2.243,0.556,0.604,0.022,0.992,0.985,2.243,0.375,0.989,1.000,1.000,0.962,3.951,0.000241
3.000,0.873,1.049,2.225,-0.007,0.003,0.339,1.438,1.262,2.247,0.546,0.604,0.022,1.011,1.003,2.247,0.363,0.053,0.000,0.000,0.044,0.098,0.000606
3.050,0.893,1.070,2.233,-0.011,0.000,0.328,1.460,1.276,2.251,0.536,0.604,0.020,1.030,1.020,2.251,0.350,0.077,0.000,0.000,0.061,0.138,0.001232
3.100,0.912,1.092,2.233,0.001,-0.005,0.313,1.482,1.289,2.255,0.526,0.604,0.019,1.050,1.037,2.255,0.335,1.000,1.000,1.000,0.959,3.959,0.000313
3.150,0.930,1.112,2.241,0.002,0.006,0.298,1.504,1.301,2.259,0.515,0.604,0.021,1.069,1.055,2.259,0.321,0.470,0.466,0.477,0.488,1.902,0.000068
3.200,0.950,1.131,2.247,0.005,-0.004,0.285,1.525,1.313,2.264,0.505,0.603,0.023,1.088,1.072,2.264,0.309,0.016,0.000,0.000,0.005,0.021,0.000042
3.250,0.970,1.149,2.256,0.005,-0.002,0.271,1.547,1.325,2.268,0.494,0.603,0.026,1.106,1.088,2.268,0.299,0.029,0.006,0.000,0.001,0.036,0.000137
3.300,0.990,1.167,2.253,0.000,0.003,0.257,1.568,1.337,2.272,0.482,0.603,0.029,1.125,1.105,2.272,0.288,0.991,1.000,1.000,0.992,3.984,0.000017
3.350,1.010,1.186,2.259,0.005,0.003,0.248,1.589,1.348,2.276,0.470,0.602,0.025,1.144,1.121,2.276,0.275,0.970,1.000,1.000,0.982,3.952,0.000163
3.400,1.031,1.204,2.266,-0.000,-0.001,0.234,1.610,1.359,2.280,0.458,0.600,0.027,1.162,1.138,2.280,0.263,0.190,0.198,0.211,0.226,0.824,0.000184
3.450,1.051,1.222,2.270,-0.009,-0.002,0.221,1.632,1.369,2.284,0.445,0.599,0.028,1.180,1.154,2.284,0.251,0.958,1.000,1.000,1.000,3.958,0.000334
3.500,1.070,1.240,2.267,0.000,-0.006,0.208,1.652,1.379,2.288,0.432,0.600,0.026,1.198,1.170,2.288,0.237,0.004,0.000,0.000,0.037,0.042,0.000246
3.550,1.086,1.257,2.272,-0.002,-0.003,0.194,1.673,1.389,2.292,0.419,0.602,0.026,1.217,1.185,2.292,0.222,1.000,0.998,1.000,0.971,3.969,0.000154
3.600,1.103,1.274,2.275,0.000,-0.002,0.180,1.694,1.398,2.296,0.405,0.604,0.027,1.234,1.201,2.296,0.209,0.004,0.000,0.000,0.038,0.043,0.000257
3.650,1.121,1.291,2.278,-0.006,0.007,0.165,1.715,1.407,2.299,0.391,0.605,0.027,1.252,1.216,2.299,0.195,1.000,1.000,1.000,0.928,3.928,0.000974
3.700,1.140,1.310,2.284,-0.009,0.004,0.151,1.735,1.415,2.303,0.377,0.605,0.025,1.270,1.231,2.303,0.178,0.069,0.000,0.000,0.049,0.118,0.000914
3.750,1.160,1.329,2.286,0.001,-0.002,0.134,1.755,1.423,2.307,0.362,0.603,0.024,1.288,1.246,2.307,0.160,0.998,1.000,1.000,0.961,3.959,0.000268
3.800,1.180,1.348,2.292,-0.004,0.004,0.115,1.776,1.431,2.311,0.346,0.601,0.025,1.305,1.261,2.311,0.142,0.032,0.016,0.000,0.017,0.065,0.000126
3.850,1.201,1.366,2.297,0.002,-0.004,0.097,1.796,1.438,2.315,0.331,0.599,0.025,1.323,1.276,2.315,0.124,0.012,0.000,0.000,0.037,0.050,0.000232
3.900,1.221,1.382,2.302,0.002,-0.002,0.079,1.816,1.445,2.319,0.314,0.598,0.027,1.340,1.291,2.319,0.109,0.026,0.004,0.000,0.013,0.042,0.000098
3.950,1.241,1.397,2.311,-0.002,0.002,0.063,1.835,1.452,2.323,0.298,0.597,0.029,1.357,1.305,2.323,0.094,1.000,1.000,0.987,0.959,3.947,0.000280
4.000,1.260,1.412,2.310,-0.003,-0.001,0.047,1.855,1.458,2.327,0.280,0.597,0.030,1.375,1.319,2.327,0.079,0.014,0.002,0.000,0.031,0.047,0.000151
4.050,1.278,1.427,2.315,0.001,-0.006,0.032,1.875,1.464,2.331,0.263,0.598,0.029,1.392,1.334,2.331,0.064,0.000,0.000,0.035,0.027,0.063,0.000252
4.100,1.296,1.442,2.314,-0.000,0.003,0.015,1.894,1.469,2.335,0.245,0.599,0.029,1.409,1.348,2.335,0.047,0.032,0.010,0.000,0.008,0.051,0.000138
4.150,1.314,1.458,2.316,-0.003,0.006,-0.002,1.913,1.474,2.339,0.226,0.600,0.029,1.426,1.362,2.339,0.029,0.987,1.000,1.000,0.996,3.983,0.000030
4.200,1.333,1.473,2.319,-0.004,0.006,-0.021,1.933,1.478,2.343,0.207,0.600,0.029,1.443,1.375,2.343,0.010,0.021,0.013,0.000,0.021,0.056,0.000076
4.250,1.352,1.489,2.321,-0.004,0.005,-0.040,1.952,1.482,2.347,0.188,0.600,0.028,1.460,1.389,2.347,-0.009,0.990,1.000,1.000,0.978,3.969,0.000079
4.300,1.373,1.505,2.330,-0.006,0.005,-0.060,1.971,1.486,2.351,0.168,0.599,0.028,1.478,1.402,2.351,-0.030,0.037,0.019,0.000,0.021,0.077,0.000170
4.350,1.395,1.522,2.340,0.009,-0.009,-0.081,1.989,1.489,2.355,0.147,0.596,0.026,1.495,1.416,2.355,-0.052,0.000,0.000,0.024,0.031,0.055,0.000194
4.400,1.416,1.537,2.345,0.006,-0.005,-0.103,2.008,1.492,2.359,0.126,0.594,0.026,1.512,1.429,2.359,-0.074,0.039,0.013,0.000,0.000,0.052,0.000249
4.450,1.436,1.552,2.346,0.004,-0.001,-0.125,2.027,1.494,2.362,0.105,0.594,0.027,1.529,1.442,2.362,-0.095,0.967,0.992,1.000,1.000,3.959,0.000178
4.500,1.455,1.566,2.347,0.001,0.002,-0.146,2.045,1.496,2.366,0.083,0.594,0.028,1.547,1.455,2.366,-0.115,0.032,0.015,0.000,0.007,0.054,0.000142
4.550,1.475,1.579,2.349,-0.001,0.005,-0.167,2.063,1.498,2.370,0.061,0.595,0.030,1.564,1.467,2.370,-0.135,0.983,0.996,1.000,1.000,3.979,0.000046
4.600,1.495,1.592,2.356,-0.002,0.001,-0.188,2.081,1.499,2.374,0.038,0.594,0.031,1.582,1.480,2.374,-0.155,0.040,0.016,0.000,0.009,0.065,0.000217
4.650,1.515,1.605,2.359,0.000,0.002,-0.209,2.099,1.500,2.378,0.015,0.594,0.031,1.599,1.492,2.378,-0.175,0.978,0.992,1.000,1.000,3.970,0.000080
4.700,1.535,1.617,2.362,-0.003,0.005,-0.230,2.117,1.500,2.382,-0.008,0.594,0.032,1.617,1.504,2.382,-0.195,0.031,0.019,0.000,0.007,0.058,0.000143
4.750,1.554,1.628,2.365,-0.004,0.006,-0.250,2.135,1.500,2.386,-0.032,0.595,0.032,1.635,1.516,2.386,-0.215,0.982,1.000,1.000,0.999,3.982,0.000057
4.800,1.574,1.640,2.368,-0.005,0.004,-0.271,2.152,1.499,2.389,-0.056,0.595,0.033,1.653,1.528,2.389,-0.236,0.022,0.008,0.000,0.023,0.054,0.000096
4.850,1.594,1.651,2.372,-0.006,0.006,-0.293,2.169,1.498,2.393,-0.081,0.596,0.033,1.671,1.539,2.393,-0.257,1.000,0.993,1.000,0.999,3.992,0.000008
4.900,1.616,1.662,2.377,0.001,-0.001,-0.314,2.187,1.497,2.397,-0.106,0.595,0.032,1.689,1.550,2.397,-0.279,0.016,0.009,0.000,0.012,0.037,0.000035
4.950,1.637,1.673,2.382,0.005,-0.006,-0.336,2.204,1.495,2.401,-0.131,0.594,0.032,1.708,1.561,2.401,-0.302,0.969,0.990,1.000,0.987,3.946,0.000126
5.000,1.658,1.684,2.388,0.007,-0.010,-0.359,2.221,1.493,2.405,-0.157,0.594,0.032,1.727,1.571,2.405,-0.324,0.000,0.000,0.034,0.021,0.055,0.000213
5.050,1.679,1.694,2.394,0.006,-0.006,-0.382,2.237,1.491,2.409,-0.182,0.595,0.032,1.746,1.581,2.409,-0.347,0.028,0.024,0.000,0.000,0.052,0.000170
5.100,1.700,1.705,2.395,0.004,-0.002,-0.406,2.254,1.487,2.412,-0.208,0.596,0.033,1.765,1.591,2.412,-0.370,0.973,0.978,1.000,1.000,3.951,0.000150
5.150,1.721,1.714,2.397,0.002,0.001,-0.430,2.270,1.484,2.416,-0.234,0.596,0.033,1.784,1.600,2.416,-0.394,0.028,0.024,0.000,0.000,0.052,0.000170
5.200,1.742,1.723,2.402,0.010,-0.002,-0.452,2.287,1.480,2.420,-0.261,0.597,0.033,1.803,1.609,2.420,-0.417,0.972,0.978,1.000,1.000,3.950,0.000157
5.250,1.761,1.730,2.412,0.002,0.005,-0.476,2.303,1.476,2.424,-0.287,0.598,0.037,1.823,1.618,2.424,-0.437,0.999,0.985,1.000,0.995,3.979,0.000036
5.300,1.782,1.737,2.418,-0.003,0.009,-0.499,2.319,1.471,2.427,-0.313,0.599,0.039,1.843,1.625,2.427,-0.458,0.032,0.046,0.000,0.000,0.078,0.000401
5.350,1.803,1.745,2.424,0.003,0.001,-0.521,2.334,1.466,2.431,-0.340,0.600,0.038,1.863,1.633,2.431,-0.480,0.010,0.019,0.000,0.001,0.030,0.000063
5.400,1.824,1.752,2.430,0.004,0.004,-0.545,2.350,1.461,2.435,-0.366,0.602,0.039,1.883,1.640,2.435,-0.503,0.470,0.450,0.494,0.469,1.882,0.000244
5.450,1.844,1.758,2.433,-0.004,0.002,-0.568,2.365,1.455,2.439,-0.393,0.603,0.041,1.903,1.646,2.439,-0.525,0.020,0.025,0.000,0.008,0.054,0.000098
5.500,1.866,1.765,2.434,0.005,0.006,-0.589,2.381,1.449,2.442,-0.419,0.605,0.039,1.924,1.652,2.442,-0.548,0.018,0.017,0.000,0.000,0.035,0.000077
5.550,1.886,1.770,2.435,-0.013,0.009,-0.613,2.396,1.442,2.446,-0.445,0.606,0.041,1.945,1.657,2.446,-0.569,1.000,0.978,0.991,1.000,3.968,0.000082
5.600,1.909,1.775,2.443,0.003,0.001,-0.636,2.411,1.435,2.450,-0.471,0.607,0.040,1.965,1.662,2.450,-0.593,0.985,0.976,1.000,1.000,3.961,0.000104
5.650,1.932,1.781,2.449,0.000,-0.013,-0.661,2.426,1.427,2.454,-0.497,0.608,0.040,1.986,1.666,2.454,-0.618,0.000,0.000,0.018,0.036,0.054,0.000223
5.700,1.953,1.787,2.452,0.009,-0.003,-0.684,2.440,1.419,2.457,-0.523,0.610,0.038,2.007,1.669,2.457,-0.644,0.389,0.384,0.467,0.414,1.654,0.001068
5.750,1.973,1.791,2.455,0.012,-0.000,-0.707,2.455,1.411,2.461,-0.548,0.613,0.040,2.028,1.672,2.461,-0.665,0.976,0.973,1.000,0.994,3.943,0.000135
5.800,1.993,1.793,2.458,-0.006,-0.001,-0.732,2.469,1.403,2.465,-0.573,0.616,0.044,2.049,1.674,2.465,-0.685,0.027,0.032,0.000,0.000,0.059,0.000225
5.850,2.015,1.796,2.465,-0.002,0.000,-0.753,2.483,1.393,2.468,-0.598,0.617,0.043,2.070,1.675,2.468,-0.707,0.039,0.062,0.000,0.000,0.101,0.000698
5.900,2.036,1.799,2.467,-0.005,0.006,-0.776,2.497,1.384,2.472,-0.623,0.620,0.043,2.091,1.676,2.472,-0.730,0.993,0.974,1.000,1.000,3.968,0.000109
5.950,2.059,1.802,2.474,-0.005,0.004,-0.800,2.511,1.374,2.476,-0.647,0.623,0.043,2.112,1.675,2.476,-0.755,0.038,0.030,0.000,0.000,0.068,0.000301
6.000,2.082,1.805,2.481,0.012,-0.002,-0.823,2.524,1.364,2.479,-0.671,0.625,0.040,2.133,1.675,2.479,-0.780,0.040,0.038,0.000,0.000,0.077,0.000374
6.050,2.102,1.806,2.479,0.008,-0.004,-0.846,2.538,1.353,2.483,-0.694,0.628,0.041,2.153,1.673,2.483,-0.802,0.340,0.334,0.434,0.367,1.476,0.001566
6.100,2.123,1.806,2.487,-0.003,-0.006,-0.870,2.551,1.342,2.487,-0.717,0.631,0.045,2.174,1.671,2.487,-0.822,0.960,0.953,1.000,1.000,3.914,0.000469
6.150,2.145,1.807,2.489,-0.001,0.002,-0.893,2.564,1.331,2.490,-0.740,0.634,0.045,2.195,1.668,2.490,-0.845,0.478,0.503,0.411,0.484,1.876,0.001210
6.200,2.167,1.806,2.491,0.009,-0.007,-0.914,2.577,1.319,2.494,-0.762,0.637,0.043,2.215,1.665,2.494,-0.869,0.048,0.043,0.134,0.073,0.298,0.001297
6.250,2.190,1.805,2.495,0.002,0.001,-0.939,2.590,1.307,2.498,-0.784,0.638,0.045,2.236,1.660,2.498,-0.891,0.013,0.040,0.000,0.000,0.052,0.000262
6.300,2.214,1.804,2.499,0.004,0.010,-0.963,2.602,1.295,2.501,-0.805,0.640,0.045,2.256,1.655,2.501,-0.916,1.000,0.982,1.000,1.000,3.982,0.000057
6.350,2.236,1.801,2.499,-0.016,0.007,-0.985,2.615,1.282,2.505,-0.827,0.642,0.045,2.276,1.650,2.505,-0.938,0.042,0.000,0.000,0.011,0.052,0.000289
6.400,2.259,1.798,2.500,-0.019,0.005,-1.008,2.627,1.269,2.508,-0.847,0.644,0.044,2.296,1.644,2.508,-0.961,1.000,0.987,0.955,1.000,3.942,0.000344
6.450,2.283,1.794,2.506,-0.007,-0.005,-1.031,2.639,1.255,2.512,-0.867,0.646,0.043,2.315,1.637,2.512,-0.985,0.038,0.041,0.000,0.000,0.079,0.000391
6.500,2.305,1.791,2.510,-0.011,0.006,-1.053,2.651,1.241,2.516,-0.887,0.649,0.044,2.335,1.629,2.516,-1.006,1.000,0.982,0.983,1.000,3.966,0.000073
6.550,2.328,1.788,2.516,0.000,-0.001,-1.076,2.662,1.227,2.519,-0.907,0.653,0.043,2.354,1.621,2.519,-1.030,0.522,0.548,0.453,0.532,2.055,0.001308
6.600,2.349,1.784,2.519,-0.014,0.002,-1.097,2.674,1.213,2.523,-0.925,0.657,0.042,2.373,1.612,2.523,-1.052,0.032,0.033,0.000,0.010,0.075,0.000197
6.650,2.372,1.781,2.526,-0.001,0.012,-1.121,2.685,1.198,2.526,-0.944,0.662,0.042,2.392,1.603,2.526,-1.075,1.000,0.982,1.000,1.000,3.982,0.000061
6.700,2.395,1.777,2.535,-0.001,-0.007,-1.144,2.696,1.183,2.530,-0.962,0.666,0.042,2.410,1.593,2.530,-1.099,0.403,0.399,0.453,0.477,1.732,0.001102
6.750,2.418,1.773,2.542,0.007,0.011,-1.167,2.707,1.167,2.533,-0.980,0.671,0.041,2.428,1.582,2.533,-1.123,0.048,0.047,0.000,0.000,0.095,0.000564
6.800,2.440,1.767,2.544,0.003,0.003,-1.190,2.717,1.151,2.537,-0.997,0.675,0.042,2.446,1.571,2.537,-1.145,0.013,0.030,0.000,0.000,0.043,0.000151
6.850,2.463,1.760,2.552,0.004,0.002,-1.211,2.728,1.135,2.540,-1.014,0.679,0.041,2.464,1.560,2.540,-1.168,0.652,0.691,0.627,0.672,2.642,0.000568
6.900,2.484,1.753,2.557,0.001,0.003,-1.232,2.738,1.119,2.544,-1.031,0.684,0.042,2.481,1.547,2.544,-1.188,0.771,0.799,0.713,0.788,3.072,0.001115
6.950,2.506,1.746,2.563,-0.013,-0.011,-1.252,2.748,1.102,2.547,-1.047,0.689,0.042,2.498,1.535,2.547,-1.207,0.000,0.013,0.000,0.045,0.058,0.000337
7.000,2.528,1.739,2.571,-0.011,0.002,-1.273,2.758,1.085,2.551,-1.063,0.694,0.040,2.515,1.521,2.551,-1.230,0.991,0.967,1.000,1.000,3.958,0.000185
7.050,2.552,1.731,2.577,-0.003,-0.010,-1.296,2.768,1.067,2.554,-1.078,0.699,0.040,2.532,1.508,2.554,-1.253,0.101,0.087,0.154,0.164,0.506,0.001091
7.100,2.573,1.721,2.574,-0.034,-0.014,-1.314,2.778,1.049,2.558,-1.093,0.702,0.039,2.548,1.494,2.558,-1.273,0.018,0.000,0.000,0.063,0.081,0.000655
7.150,2.595,1.710,2.576,-0.028,-0.004,-1.333,2.787,1.031,2.561,-1.108,0.705,0.038,2.564,1.479,2.561,-1.293,1.000,0.963,0.961,1.000,3.924,0.000360
7.200,2.617,1.699,2.582,-0.001,0.018,-1.353,2.796,1.013,2.565,-1.123,0.709,0.038,2.579,1.464,2.565,-1.312,0.046,0.061,0.000,0.000,0.107,0.000742
7.250,2.638,1.688,2.589,-0.001,0.000,-1.373,2.805,0.995,2.568,-1.137,0.713,0.038,2.595,1.448,2.568,-1.332,0.956,0.959,1.000,1.000,3.915,0.000455
7.300,2.661,1.676,2.591,-0.017,0.000,-1.392,2.814,0.976,2.572,-1.151,0.717,0.037,2.610,1.432,2.572,-1.353,0.995,0.981,0.973,1.000,3.949,0.000112
7.350,2.683,1.663,2.596,-0.007,-0.010,-1.412,2.822,0.957,2.575,-1.164,0.720,0.036,2.625,1.416,2.575,-1.374,0.019,0.000,0.000,0.009,0.028,0.000060
7.400,2.704,1.649,2.598,-0.030,-0.046,-1.428,2.831,0.937,2.578,-1.178,0.724,0.033,2.639,1.399,2.578,-1.393,0.867,0.800,0.945,1.000,3.613,0.005751
7.450,2.721,1.636,2.598,-0.036,-0.067,-1.441,2.839,0.918,2.582,-1.191,0.728,0.033,2.653,1.382,2.582,-1.406,0.839,0.857,1.000,1.000,3.696,0.005803
7.500,2.738,1.627,2.607,-0.010,-0.024,-1.456,2.847,0.898,2.585,-1.203,0.738,0.033,2.667,1.364,2.585,-1.421,0.948,0.935,1.000,1.000,3.883,0.000872
7.550,2.756,1.615,2.614,0.023,0.013,-1.473,2.855,0.878,2.588,-1.216,0.745,0.035,2.681,1.346,2.588,-1.436,0.054,0.095,0.000,0.000,0.149,0.001600
7.600,2.775,1.601,2.624,0.038,0.041,-1.490,2.862,0.857,2.592,-1.228,0.749,0.036,2.694,1.328,2.592,-1.452,1.000,1.000,1.000,0.884,3.884,0.002517
7.650,2.793,1.586,2.624,0.071,0.048,-1.504,2.870,0.837,2.595,-1.240,0.754,0.036,2.707,1.309,2.595,-1.467,0.006,0.115,0.102,0.000,0.223,0.002808
7.700,2.811,1.571,2.625,0.083,0.047,-1.516,2.877,0.816,2.599,-1.252,0.759,0.032,2.720,1.290,2.599,-1.481,0.993,1.000,1.000,0.893,3.886,0.002040
7.750,2.830,1.555,2.624,0.027,0.023,-1.531,2.884,0.795,2.602,-1.264,0.763,0.031,2.733,1.271,2.602,-1.496,0.000,0.000,0.027,0.016,0.043,0.000129
7.800,2.848,1.540,2.629,-0.064,0.002,-1.549,2.891,0.773,2.605,-1.275,0.768,0.033,2.745,1.252,2.605,-1.513,1.000,0.926,0.883,1.000,3.809,0.002521
7.850,2.867,1.525,2.639,-0.062,-0.036,-1.559,2.897,0.752,2.608,-1.286,0.774,0.027,2.757,1.232,2.608,-1.530,0.964,0.963,0.895,1.000,3.822,0.001427
7.900,2.885,1.511,2.645,-0.053,-0.064,-1.572,2.904,0.730,2.612,-1.297,0.782,0.025,2.769,1.211,2.612,-1.545,0.814,0.836,1.000,1.000,3.649,0.007748
7.950,2.904,1.498,2.654,-0.011,-0.011,-1.591,2.910,0.708,2.615,-1.308,0.791,0.027,2.780,1.191,2.615,-1.562,0.307,0.249,0.367,0.384,1.307,0.002847
8.000,2.926,1.476,2.657,0.011,-0.023,-1.611,2.916,0.686,2.618,-1.319,0.791,0.027,2.791,1.170,2.618,-1.581,0.200,0.138,0.178,0.206,0.722,0.000708
8.050,2.949,1.453,2.657,-0.004,-0.002,-1.632,2.922,0.664,2.622,-1.329,0.791,0.027,2.802,1.149,2.622,-1.603,0.430,0.384,0.387,0.426,1.627,0.000471
8.100,2.968,1.427,2.664,-0.010,-0.006,-1.649,2.927,0.641,2.625,-1.339,0.788,0.026,2.812,1.128,2.625,-1.621,0.183,0.180,0.166,0.214,0.744,0.000312
8.150,2.988,1.400,2.669,-0.012,0.000,-1.665,2.933,0.618,2.628,-1.349,0.784,0.022,2.823,1.106,2.628,-1.640,0.085,0.068,0.000,0.000,0.153,0.001500
8.200,3.006,1.374,2.679,0.009,-0.050,-1.679,2.938,0.596,2.631,-1.359,0.783,0.021,2.833,1.084,2.631,-1.657,0.103,0.000,0.000,0.000,0.103,0.001990
8.250,3.018,1.358,2.694,-0.004,-0.048,-1.689,2.943,0.572,2.635,-1.369,0.791,0.023,2.843,1.062,2.635,-1.665,0.067,0.000,0.000,0.041,0.108,0.000818
8.300,3.031,1.348,2.704,0.064,0.064,-1.695,2.947,0.549,2.638,-1.379,0.806,0.020,2.852,1.040,2.638,-1.674,0.053,0.175,0.066,0.000,0.294,0.004055
8.350,3.045,1.334,2.706,0.055,0.049,-1.709,2.952,0.526,2.641,-1.389,0.816,0.023,2.861,1.018,2.641,-1.684,0.065,0.156,0.056,0.000,0.277,0.003108
8.400,3.062,1.313,2.710,0.133,0.069,-1.723,2.956,0.502,2.644,-1.398,0.820,0.024,2.870,0.995,2.644,-1.698,1.000,1.000,1.000,0.697,3.697,0.017184
8.450,3.069,1.288,2.709,0.016,0.026,-1.737,2.960,0.479,2.647,-1.407,0.819,0.033,2.879,0.972,2.647,-1.703,0.000,0.081,0.031,0.000,0.112,0.001105
8.500,3.083,1.260,2.715,0.110,0.031,-1.743,2.964,0.455,2.651,-1.417,0.816,0.026,2.888,0.949,2.651,-1.716,0.000,0.161,0.234,0.000,0.395,0.010396
8.550,3.097,1.233,2.712,0.131,0.049,-1.749,2.968,0.431,2.654,-1.426,0.814,0.018,2.896,0.926,2.654,-1.728,1.000,1.000,1.000,0.811,3.811,0.006725
8.600,3.114,1.209,2.711,0.077,0.028,-1.762,2.972,0.407,2.657,-1.435,0.816,0.015,2.904,0.903,2.657,-1.742,0.044,0.019,0.000,0.000,0.063,0.000323
8.650,3.130,1.183,2.712,-0.005,-0.001,-1.769,2.975,0.383,2.660,-1.444,0.817,0.006,2.912,0.879,2.660,-1.760,1.000,1.000,0.717,0.940,3.657,0.013587
8.700,3.148,1.163,2.710,-0.054,-0.008,-1.789,2.978,0.359,2.663,-1.453,0.823,0.010,2.919,0.855,2.663,-1.775,1.000,0.869,0.955,1.000,3.824,0.002861
8.750,3.166,1.146,2.721,-0.074,-0.039,-1.791,2.981,0.335,2.666,-1.461,0.834,0.004,2.926,0.832,2.666,-1.793,0.882,0.850,1.000,1.000,3.733,0.004589
8.800,3.180,1.121,2.711,-0.071,-0.024,-1.808,2.984,0.310,2.669,-1.470,0.835,0.000,2.934,0.808,2.669,-1.805,0.000,0.000,0.000,0.190,0.190,0.006777
8.850,3.192,1.093,2.726,-0.065,-0.046,-1.814,2.986,0.286,2.672,-1.479,0.835,0.006,2.940,0.784,2.672,-1.819,0.000,0.000,0.006,0.147,0.153,0.003955
8.900,3.200,1.066,2.723,-0.020,-0.052,-1.829,2.989,0.261,2.676,-1.487,0.833,0.001,2.947,0.759,2.676,-1.827,0.000,0.000,0.077,0.177,0.254,0.005290
8.950,3.214,1.041,2.741,0.108,0.013,-1.851,2.991,0.236,2.679,-1.496,0.837,0.010,2.953,0.735,2.679,-1.841,0.074,0.163,0.093,0.000,0.330,0.003381
9.000,3.221,1.017,2.742,0.097,0.059,-1.866,2.992,0.212,2.682,-1.505,0.839,0.019,2.959,0.711,2.682,-1.845,0.669,0.753,0.794,0.607,2.823,0.005308
9.050,3.232,0.987,2.735,0.078,0.020,-1.869,2.994,0.187,2.685,-1.513,0.836,0.009,2.965,0.686,2.685,-1.857,0.000,0.002,0.011,0.000,0.014,0.000022
9.100,3.245,0.958,2.735,0.047,0.022,-1.885,2.996,0.162,2.688,-1.521,0.835,0.011,2.971,0.661,2.688,-1.871,1.000,0.973,0.957,1.000,3.930,0.000338
9.150,3.253,0.933,2.738,0.002,0.028,-1.888,2.997,0.137,2.691,-1.530,0.838,0.006,2.976,0.637,2.691,-1.879,1.000,0.905,0.981,1.000,3.886,0.001528
9.200,3.258,0.906,2.742,-0.084,-0.028,-1.901,2.998,0.112,2.694,-1.538,0.837,0.013,2.982,0.612,2.694,-1.885,0.047,0.000,0.012,0.084,0.142,0.001070
9.250,3.268,0.881,2.761,-0.073,-0.036,-1.895,2.999,0.087,2.697,-1.547,0.841,0.003,2.987,0.587,2.697,-1.897,0.014,0.000,0.000,0.145,0.159,0.003735
9.300,3.277,0.855,2.772,0.004,0.020,-1.916,2.999,0.062,2.700,-1.555,0.843,0.009,2.991,0.562,2.700,-1.907,0.033,0.097,0.000,0.000,0.130,0.001572
9.350,3.286,0.825,2.772,0.146,0.030,-1.924,3.000,0.037,2.703,-1.563,0.841,0.004,2.996,0.537,2.703,-1.918,0.000,0.118,0.358,0.000,0.476,0.021327
9.400,3.293,0.795,2.776,0.187,0.040,-1.927,3.000,0.012,2.706,-1.572,0.839,0.002,3.000,0.512,2.706,-1.927,1.000,1.000,1.000,0.688,3.688,0.018212
9.450,3.298,0.771,2.777,0.150,0.041,-1.937,3.000,-0.013,2.709,-1.580,0.841,0.003,3.005,0.487,2.709,-1.932,0.000,0.034,0.170,0.000,0.205,0.004929
9.500,3.300,0.746,2.772,0.015,0.008,-1.943,3.000,-0.038,2.712,-1.588,0.841,0.006,3.009,0.462,2.712,-1.934,0.373,0.281,0.258,0.347,1.258,0.002195
9.550,3.304,0.718,2.770,-0.107,-0.037,-1.944,2.999,-0.063,2.714,-1.597,0.840,0.001,3.012,0.437,2.714,-1.940,0.067,0.000,0.000,0.123,0.191,0.002668
9.600,3.317,0.694,2.774,-0.049,-0.010,-1.965,2.999,-0.088,2.717,-1.605,0.846,0.007,3.016,0.412,2.717,-1.956,1.000,1.000,0.549,0.940,3.489,0.035376
9.650,3.323,0.673,2.775,-0.074,-0.005,-1.964,2.998,-0.113,2.720,-1.613,0.852,0.001,3.019,0.387,2.720,-1.961,1.000,1.000,0.842,1.000,3.842,0.004693
9.700,3.330,0.646,2.773,-0.100,-0.008,-1.971,2.997,-0.137,2.723,-1.622,0.853,0.002,3.022,0.362,2.723,-1.970,0.913,0.902,1.000,1.000,3.815,0.002164
9.750,3.341,0.617,2.791,-0.004,-0.021,-1.980,2.996,-0.162,2.726,-1.630,0.855,0.008,3.025,0.337,2.726,-1.987,0.040,0.000,0.026,0.000,0.066,0.000297
9.800,3.353,0.590,2.793,0.050,0.045,-1.999,2.994,-0.187,2.729,-1.639,0.859,0.004,3.028,0.312,2.729,-2.002,0.067,0.238,0.000,0.000,0.305,0.009508
9.850,3.363,0.565,2.801,0.199,0.062,-2.005,2.992,-0.212,2.732,-1.647,0.864,0.011,3.031,0.287,2.732,-2.015,1.000,1.000,1.000,0.506,3.506,0.045785
9.900,3.361,0.542,2.810,0.102,0.064,-2.023,2.991,-0.237,2.735,-1.656,0.865,0.008,3.033,0.262,2.735,-2.013,0.831,0.911,0.934,0.714,3.390,0.007378
9.950,3.366,0.509,2.803,0.066,-0.024,-2.023,2.989,-0.261,2.737,-1.665,0.860,0.004,3.035,0.237,2.737,-2.022,0.000,0.000,0.000,0.081,0.081,0.001221
10.000,3.371,0.483,2.803,-0.069,0.006,-2.035,2.986,-0.286,2.740,-1.673,0.862,0.000,3.037,0.212,2.740,-2.032,0.981,0.877,0.888,1.000,3.746,0.002978
10.050,3.369,0.457,2.807,-0.133,-0.039,-2.051,2.984,-0.310,2.743,-1.682,0.861,0.015,3.039,0.187,2.743,-2.035,0.712,0.586,0.232,0.763,2.293,0.043028
10.100,3.367,0.437,2.813,-0.114,-0.040,-2.033,2.981,-0.335,2.746,-1.691,0.865,0.001,3.041,0.162,2.746,-2.034,0.832,0.848,1.000,1.000,3.681,0.006395
10.150,3.365,0.411,2.827,-0.049,-0.055,-2.047,2.978,-0.359,2.749,-1.700,0.865,0.011,3.042,0.137,2.749,-2.036,0.000,0.000,0.000,0.162,0.162,0.004923
10.200,3.371,0.381,2.824,0.216,0.047,-2.037,2.975,-0.383,2.751,-1.709,0.864,0.012,3.044,0.112,2.751,-2.048,1.000,1.000,1.000,0.498,3.498,0.047205
10.250,3.375,0.352,2.821,0.198,0.037,-2.058,2.972,-0.407,2.754,-1.718,0.863,0.000,3.045,0.087,2.754,-2.056,0.000,0.220,0.248,0.000,0.467,0.013750
10.300,3.377,0.322,2.814,0.117,-0.013,-2.067,2.968,-0.431,2.757,-1.727,0.859,0.001,3.046,0.062,2.757,-2.064,0.525,0.736,0.811,0.712,2.785,0.011049
10.350,3.380,0.296,2.811,-0.090,-0.010,-2.069,2.964,-0.455,2.759,-1.736,0.860,0.007,3.047,0.038,2.759,-2.073,1.000,0.934,0.788,1.000,3.722,0.007512
10.400,3.388,0.269,2.810,-0.077,-0.047,-2.083,2.960,-0.479,2.762,-1.746,0.863,0.007,3.047,0.013,2.762,-2.088,0.798,1.000,0.915,1.000,3.712,0.006888
10.450,3.395,0.246,2.824,-0.010,0.027,-2.088,2.956,-0.503,2.765,-1.755,0.870,0.013,3.048,-0.011,2.765,-2.100,0.867,0.817,0.808,0.780,3.272,0.000985
10.500,3.405,0.220,2.826,0.238,0.052,-2.090,2.952,-0.526,2.768,-1.765,0.875,0.027,3.048,-0.036,2.768,-2.115,0.000,0.110,0.323,0.000,0.433,0.017362
10.550,3.409,0.197,2.826,0.109,0.038,-2.109,2.947,-0.550,2.770,-1.774,0.879,0.016,3.049,-0.060,2.770,-2.122,0.012,0.015,0.066,0.000,0.094,0.000638
10.600,3.410,0.169,2.824,0.000,-0.001,-2.123,2.943,-0.573,2.773,-1.784,0.878,0.009,3.049,-0.084,2.773,-2.129,1.000,0.918,0.892,1.000,3.810,0.002349
10.650,3.414,0.136,2.828,-0.059,-0.006,-2.128,2.938,-0.596,2.775,-1.794,0.875,0.019,3.048,-0.108,2.775,-2.145,1.000,1.000,0.609,0.995,3.604,0.028389
10.700,3.408,0.108,2.836,-0.151,-0.026,-2.151,2.932,-0.619,2.778,-1.804,0.870,0.000,3.048,-0.132,2.778,-2.150,0.025,0.000,0.000,0.198,0.224,0.006859
10.750,3.413,0.076,2.852,-0.055,0.004,-2.142,2.927,-0.641,2.781,-1.815,0.870,0.024,3.048,-0.156,2.781,-2.165,0.353,0.000,0.000,0.000,0.353,0.023311
10.800,3.414,0.049,2.847,0.164,0.063,-2.147,2.922,-0.664,2.783,-1.825,0.869,0.028,3.047,-0.180,2.783,-2.175,0.105,0.425,0.046,0.000,0.576,0.027718
10.850,3.414,0.023,2.829,0.188,0.011,-2.160,2.916,-0.686,2.786,-1.836,0.868,0.024,3.047,-0.204,2.786,-2.181,0.884,1.000,1.000,0.960,3.844,0.002248
10.900,3.413,-0.002,2.833,-0.033,-0.015,-2.177,2.910,-0.708,2.788,-1.847,0.868,0.013,3.046,-0.227,2.788,-2.187,0.948,0.952,0.891,1.000,3.791,0.001494
10.950,3.415,-0.028,2.832,-0.156,-0.025,-2.199,2.904,-0.730,2.791,-1.858,0.870,0.001,3.045,-0.251,2.791,-2.198,1.000,1.000,0.697,1.000,3.697,0.017215
11.000,3.430,-0.049,2.857,0.003,0.018,-2.200,2.897,-0.752,2.794,-1.869,0.884,0.019,3.044,-0.274,2.794,-2.219,0.203,0.000,0.000,0.055,0.258,0.006895
11.050,3.436,-0.068,2.861,0.192,0.079,-2.203,2.891,-0.773,2.796,-1.880,0.894,0.026,3.043,-0.297,2.796,-2.228,0.183,0.475,0.000,0.000,0.657,0.037703
11.100,3.438,-0.089,2.849,0.208,0.028,-2.226,2.884,-0.795,2.799,-1.892,0.899,0.010,3.042,-0.320,2.799,-2.234,0.848,1.000,1.000,0.907,3.755,0.004202
11.150,3.434,-0.109,2.854,0.064,0.023,-2.242,2.877,-0.816,2.801,-1.904,0.902,0.004,3.040,-0.343,2.801,-2.235,0.440,0.430,0.464,0.559,1.893,0.002581
11.200,3.429,-0.131,2.857,-0.117,-0.017,-2.233,2.870,-0.837,2.804,-1.916,0.902,0.009,3.039,-0.366,2.804,-2.239,0.896,0.841,0.978,1.000,3.714,0.004086
11.250,3.431,-0.156,2.864,-0.122,-0.034,-2.239,2.862,-0.857,2.806,-1.928,0.905,0.013,3.037,-0.389,2.806,-2.251,0.786,0.884,1.000,1.000,3.670,0.008022
11.300,3.445,-0.181,2.886,0.131,0.057,-2.249,2.855,-0.878,2.809,-1.941,0.916,0.025,3.035,-0.412,2.809,-2.273,0.132,0.334,0.000,0.000,0.466,0.018628
11.350,3.451,-0.200,2.889,0.247,0.059,-2.269,2.847,-0.898,2.811,-1.954,0.926,0.015,3.034,-0.434,2.811,-2.283,1.000,1.000,1.000,0.501,3.501,0.046718
11.400,3.448,-0.224,2.886,0.111,-0.003,-2.289,2.839,-0.918,2.813,-1.967,0.926,0.002,3.032,-0.456,2.813,-2.287,0.000,0.000,0.066,0.000,0.066,0.000823
11.450,3.444,-0.253,2.885,-0.127,-0.001,-2.329,2.831,-0.937,2.816,-1.980,0.921,0.028,3.030,-0.479,2.816,-2.298,0.978,0.842,0.917,1.000,3.738,0.003745
11.500,3.442,-0.283,2.884,-0.179,-0.088,-2.322,2.822,-0.957,2.818,-1.994,0.918,0.007,3.028,-0.501,2.818,-2.313,0.882,0.945,0.906,1.000,3.733,0.001992
11.550,3.451,-0.299,2.886,-0.115,0.057,-2.308,2.814,-0.976,2.821,-2.008,0.932,0.018,3.025,-0.523,2.821,-2.326,0.120,0.000,0.000,0.069,0.190,0.002574
11.600,3.449,-0.326,2.903,0.043,0.043,-2.328,2.805,-0.995,2.823,-2.022,0.932,0.010,3.023,-0.545,2.823,-2.336,0.088,0.227,0.000,0.000,0.315,0.008583
11.650,3.456,-0.363,2.897,0.281,0.006,-2.331,2.796,-1.013,2.825,-2.036,0.929,0.032,3.021,-0.567,2.825,-2.360,0.000,0.040,0.277,0.000,0.317,0.013318
11.700,3.458,-0.390,2.888,0.021,-0.015,-2.366,2.787,-1.032,2.828,-2.051,0.931,0.013,3.018,-0.588,2.828,-2.374,0.976,0.919,0.922,1.000,3.817,0.001222
11.750,3.465,-0.417,2.883,-0.019,0.023,-2.391,2.778,-1.050,2.830,-2.067,0.936,0.007,3.015,-0.610,2.830,-2.395,0.988,0.969,0.908,1.000,3.864,0.001260
11.800,3.462,-0.443,2.888,-0.145,-0.015,-2.390,2.768,-1.067,2.832,-2.082,0.935,0.018,3.013,-0.631,2.832,-2.407,0.808,0.882,1.000,1.000,3.691,0.006666
11.850,3.453,-0.472,2.894,-0.076,-0.059,-2.414,2.758,-1.085,2.835,-2.098,0.929,0.005,3.010,-0.653,2.835,-2.419,0.000,0.000,0.027,0.274,0.302,0.013285
11.900,3.445,-0.505,2.897,0.108,0.035,-2.425,2.748,-1.102,2.837,-2.114,0.920,0.009,3.007,-0.674,2.837,-2.432,0.018,0.139,0.245,0.000,0.402,0.009856
11.950,3.443,-0.545,2.881,0.214,-0.010,-2.430,2.738,-1.119,2.839,-2.131,0.910,0.029,3.004,-0.695,2.839,-2.454,0.000,0.000,0.239,0.000,0.239,0.010715
12.000,3.443,-0.574,2.874,-0.054,-0.044,-2.452,2.728,-1.135,2.841,-2.148,0.909,0.025,3.001,-0.716,2.841,-2.471,1.000,0.874,0.785,1.000,3.660,0.008223
12.050,3.453,-0.593,2.882,-0.152,-0.013,-2.471,2.717,-1.151,2.844,-2.165,0.924,0.021,2.997,-0.737,2.844,-2.490,1.000,0.961,0.763,1.000,3.724,0.009658
12.100,3.459,-0.603,2.906,-0.050,-0.007,-2.483,2.707,-1.167,2.846,-2.183,0.943,0.015,2.994,-0.758,2.846,-2.500,0.042,0.000,0.000,0.251,0.293,0.010820
12.150,3.454,-0.617,2.930,0.216,0.081,-2.502,2.696,-1.183,2.848,-2.201,0.949,0.002,2.991,-0.779,2.848,-2.500,0.000,0.150,0.449,0.000,0.599,0.033597
12.200,3.445,-0.646,2.916,0.038,-0.034,-2.506,2.685,-1.198,2.850,-2.220,0.941,0.008,2.987,-0.800,2.850,-2.508,0.035,0.000,0.000,0.063,0.098,0.000700
12.250,3.444,-0.678,2.910,-0.109,-0.010,-2.528,2.674,-1.213,2.853,-2.239,0.940,0.007,2.983,-0.820,2.853,-2.532,0.664,0.573,0.402,0.697,2.335,0.013138
12.300,3.442,-0.700,2.914,-0.151,-0.001,-2.546,2.662,-1.227,2.855,-2.259,0.944,0.002,2.979,-0.841,2.855,-2.547,0.775,0.952,0.994,1.000,3.720,0.008417
12.350,3.452,-0.736,2.929,0.183,0.028,-2.551,2.650,-1.242,2.857,-2.278,0.950,0.028,2.975,-0.862,2.857,-2.577,0.105,0.368,0.000,0.000,0.473,0.022597
12.400,3.463,-0.762,2.925,0.336,-0.003,-2.591,2.639,-1.255,2.859,-2.299,0.963,0.012,2.971,-0.882,2.859,-2.600,0.718,1.000,1.000,0.699,3.417,0.021306
12.450,3.467,-0.778,2.919,0.058,0.046,-2.602,2.627,-1.269,2.861,-2.319,0.975,0.010,2.967,-0.903,2.861,-2.610,0.978,0.954,1.000,1.000,3.932,0.000364
12.500,3.458,-0.804,2.918,-0.144,0.035,-2.631,2.615,-1.282,2.863,-2.341,0.971,0.005,2.962,-0.923,2.863,-2.622,0.457,0.354,0.354,0.644,1.811,0.014040
12.550,3.449,-0.847,2.901,-0.132,-0.031,-2.633,2.602,-1.295,2.865,-2.362,0.959,0.022,2.958,-0.943,2.865,-2.652,0.776,0.981,0.976,1.000,3.734,0.008298
12.600,3.456,-0.898,2.916,0.160,0.004,-2.657,2.590,-1.307,2.867,-2.384,0.960,0.043,2.953,-0.964,2.867,-2.698,0.087,0.278,0.000,0.000,0.365,0.012877
12.650,3.469,-0.935,2.910,0.337,-0.017,-2.703,2.577,-1.319,2.869,-2.406,0.972,0.032,2.948,-0.984,2.869,-2.731,0.000,0.140,0.193,0.000,0.333,0.007285
12.700,3.479,-0.948,2.909,-0.072,0.042,-2.742,2.564,-1.331,2.872,-2.429,0.992,0.003,2.942,-1.004,2.872,-2.742,0.207,0.017,0.072,0.437,0.733,0.026267
12.750,3.475,-0.955,2.913,-0.174,0.101,-2.768,2.551,-1.342,2.874,-2.452,1.003,0.023,2.937,-1.025,2.874,-2.744,1.000,1.000,0.708,1.000,3.708,0.015947
12.800,3.452,-0.994,2.922,-0.051,-0.012,-2.756,2.538,-1.353,2.876,-2.476,0.984,0.011,2.931,-1.045,2.876,-2.764,0.000,0.000,0.113,0.010,0.123,0.002267
12.850,3.432,-1.057,2.929,0.097,-0.019,-2.783,2.524,-1.364,2.878,-2.500,0.959,0.032,2.925,-1.065,2.878,-2.810,0.009,0.091,0.209,0.000,0.309,0.007064
12.900,3.419,-1.114,2.911,0.090,-0.009,-2.824,2.511,-1.374,2.880,-2.524,0.946,0.039,2.918,-1.085,2.880,-2.858,0.047,0.056,0.094,0.000,0.197,0.001121
12.950,3.416,-1.165,2.902,0.016,-0.037,-2.870,2.497,-1.384,2.882,-2.549,0.945,0.038,2.912,-1.105,2.882,-2.902,1.000,0.977,0.776,1.000,3.754,0.008827
13.000,3.424,-1.205,2.901,-0.101,0.005,-2.908,2.483,-1.394,2.884,-2.574,0.960,0.036,2.904,-1.125,2.884,-2.940,0.070,0.000,0.000,0.094,0.163,0.001745
13.050,3.430,-1.235,2.923,0.013,0.001,-2.960,2.469,-1.403,2.885,-2.599,0.976,0.009,2.897,-1.144,2.885,-2.968,0.000,0.000,0.000,0.184,0.184,0.006315
13.100,3.422,-1.261,2.928,0.097,0.060,-2.977,2.455,-1.411,2.887,-2.624,0.980,0.011,2.889,-1.164,2.887,-2.985,0.023,0.059,0.106,0.000,0.188,0.001597
13.150,3.399,-1.299,2.922,-0.075,0.006,-2.999,2.440,-1.420,2.889,-2.650,0.967,0.018,2.881,-1.184,2.889,-3.010,0.961,0.830,0.850,1.000,3.640,0.005188
13.200,3.377,-1.349,2.918,-0.122,-0.023,-3.033,2.425,-1.427,2.891,-2.676,0.955,0.026,2.872,-1.203,2.891,-3.055,1.000,0.974,0.826,1.000,3.801,0.005216
13.250,3.372,-1.404,2.930,0.149,-0.007,-3.056,2.411,-1.435,2.893,-2.702,0.962,0.053,2.863,-1.222,2.893,-3.106,0.146,0.000,0.086,0.000,0.232,0.003804
13.300,3.369,-1.434,2.932,0.025,0.037,-3.103,2.396,-1.442,2.895,-2.728,0.974,0.030,2.854,-1.241,2.895,-3.131,0.119,0.009,0.086,0.000,0.214,0.002551
13.350,3.351,-1.467,2.937,0.036,0.045,-3.135,2.381,-1.449,2.897,-2.754,0.972,0.025,2.844,-1.260,2.897,3.127,0.077,0.116,0.041,0.000,0.234,0.001832
13.400,3.299,-1.495,2.940,0.215,0.232,3.132,2.365,-1.455,2.899,-2.781,0.936,0.033,2.833,-1.278,2.899,3.100,0.000,0.000,0.000,0.400,0.400,0.030022
13.450,3.157,-1.447,2.939,0.290,0.127,3.138,2.350,-1.461,2.900,-2.807,0.808,0.021,2.822,-1.297,2.900,-3.136,0.000,0.092,0.054,0.000,0.146,0.001520
13.500,2.982,-1.326,2.897,-0.053,-0.064,-3.120,2.334,-1.466,2.902,-2.834,0.663,0.192,2.811,-1.315,2.902,-2.953,0.059,1.000,1.000,0.967,3.026,0.162381
13.550,2.824,-1.255,2.905,-0.454,-0.064,-2.807,2.318,-1.471,2.904,-2.860,0.550,0.070,2.799,-1.332,2.904,-2.747,0.964,1.000,1.000,0.939,3.902,0.000675
13.600,2.742,-1.331,2.898,0.001,-0.359,-2.657,2.302,-1.476,2.906,-2.886,0.463,0.167,2.786,-1.350,2.906,-2.803,0.000,0.000,0.252,0.000,0.252,0.011915
13.650,2.805,-1.401,2.897,0.345,-0.343,-2.822,2.286,-1.480,2.908,-2.913,0.524,0.169,2.773,-1.367,2.908,-2.980,0.800,1.000,1.000,0.972,3.773,0.006936
13.700,2.965,-1.368,2.909,0.231,-0.068,-2.902,2.270,-1.484,2.909,-2.939,0.704,0.074,2.760,-1.383,2.909,-2.981,0.000,0.000,0.000,0.221,0.221,0.009178
13.750,3.126,-1.264,2.925,-0.026,0.222,-2.974,2.254,-1.488,2.911,-2.965,0.900,0.084,2.746,-1.399,2.911,-2.898,1.000,1.000,0.521,1.000,3.521,0.043018
13.800,3.210,-1.163,2.963,-0.377,0.301,-2.949,2.237,-1.491,2.913,-2.990,1.028,0.132,2.731,-1.415,2.913,-2.822,0.054,0.000,0.000,0.246,0.299,0.010196
13.850,3.212,-1.167,2.984,-0.291,0.107,-2.873,2.220,-1.493,2.914,-3.016,1.046,0.049,2.716,-1.430,2.914,-2.820,0.431,0.367,0.144,0.285,1.227,0.011553
13.900,3.202,-1.258,2.971,0.029,-0.060,-2.870,2.203,-1.495,2.916,-3.041,1.028,0.038,2.701,-1.445,2.916,-2.899,0.938,1.000,0.905,0.597,3.440,0.024302
13.950,3.225,-1.376,2.940,0.259,-0.182,-2.978,2.186,-1.497,2.918,-3.066,1.046,0.047,2.685,-1.459,2.918,-3.012,0.000,0.035,0.103,0.000,0.138,0.001775
14.000,3.292,-1.461,2.907,-0.014,0.023,-3.054,2.169,-1.498,2.919,-3.090,1.123,0.054,2.669,-1.473,2.919,-3.101,1.000,0.992,0.692,1.000,3.685,0.017452
14.050,3.358,-1.514,2.924,-0.235,0.131,3.088,2.152,-1.499,2.921,-3.114,1.207,0.042,2.652,-1.486,2.921,3.134,0.272,0.640,0.881,1.000,2.793,0.077339
14.100,3.311,-1.589,2.994,0.422,0.524,3.095,2.134,-1.500,2.923,-3.138,1.183,0.029,2.634,-1.498,2.923,3.071,0.076,0.128,0.066,0.000,0.270,0.002066
14.150,3.118,-1.572,2.986,0.282,0.257,3.080,2.117,-1.500,2.924,3.122,1.006,0.010,2.617,-1.510,2.924,3.065,0.475,0.497,0.531,0.346,1.849,0.004918
14.200,2.853,-1.466,2.927,0.101,-0.059,3.060,2.099,-1.500,2.926,3.099,0.754,0.126,2.599,-1.521,2.926,-3.115,0.000,0.031,0.000,0.036,0.067,0.000283
14.250,2.615,-1.324,2.866,-0.186,-0.173,-3.124,2.081,-1.499,2.927,3.076,0.565,0.298,2.580,-1.532,2.927,-2.859,0.000,1.000,1.000,0.926,2.926,0.179268
14.300,2.435,-1.277,2.873,-0.508,-0.133,-2.764,2.063,-1.498,2.929,3.054,0.436,0.159,2.561,-1.542,2.929,-2.620,0.719,0.881,1.000,1.000,3.601,0.013237
14.350,2.364,-1.388,2.898,-0.098,-0.358,-2.601,2.045,-1.496,2.931,3.032,0.338,0.214,2.542,-1.551,2.931,-2.776,0.040,0.000,0.428,0.000,0.469,0.032547
14.400,2.455,-1.504,2.907,0.327,-0.337,-2.842,2.026,-1.494,2.932,3.011,0.430,0.322,2.522,-1.559,2.932,3.135,0.000,0.075,0.170,0.000,0.246,0.004904
14.450,2.663,-1.517,2.906,0.510,-0.073,-3.028,2.008,-1.492,2.934,2.990,0.656,0.153,2.502,-1.567,2.934,3.093,0.000,0.107,0.169,0.000,0.276,0.005238
14.500,2.877,-1.413,2.930,0.128,0.262,-3.113,1.989,-1.489,2.935,2.970,0.891,0.056,2.482,-1.575,2.935,-3.070,0.901,1.000,0.929,1.000,3.831,0.001892
14.550,2.979,-1.298,2.989,-0.373,0.343,-3.103,1.970,-1.486,2.936,2.950,1.027,0.146,2.461,-1.581,2.936,-2.963,0.892,1.000,0.832,1.000,3.724,0.005202
14.600,2.957,-1.300,3.023,-0.309,0.188,-3.030,1.952,-1.482,2.938,2.930,1.026,0.067,2.440,-1.587,2.938,-2.958,1.000,1.000,0.781,1.000,3.781,0.009022
14.650,2.900,-1.415,3.001,-0.297,-0.123,-3.009,1.932,-1.478,2.939,2.911,0.972,0.068,2.419,-1.592,2.939,-3.060,1.000,0.973,0.858,1.000,3.831,0.003411
14.700,2.902,-1.586,2.944,0.073,-0.209,-3.137,1.913,-1.474,2.941,2.893,0.995,0.117,2.398,-1.597,2.941,3.044,0.981,0.989,1.000,1.000,3.970,0.000062
14.750,2.878,-1.728,2.944,0.394,0.577,2.967,1.894,-1.469,2.942,2.875,1.017,0.083,2.376,-1.601,2.942,2.897,1.000,1.000,1.000,0.725,3.725,0.014155
14.800,2.688,-1.753,2.938,0.345,0.224,2.859,1.875,-1.464,2.944,2.857,0.864,0.060,2.354,-1.604,2.944,2.802,0.073,0.034,0.035,0.000,0.142,0.000666
14.850,2.465,-1.648,2.893,0.140,-0.136,2.766,1.855,-1.458,2.945,2.840,0.641,0.072,2.332,-1.606,2.945,2.828,0.000,0.002,0.000,0.097,0.099,0.001730
14.900,2.309,-1.504,2.861,-0.015,-0.252,2.823,1.835,-1.452,2.946,2.824,0.484,0.208,2.310,-1.608,2.946,3.006,0.000,0.050,0.000,0.077,0.127,0.001103
14.950,2.247,-1.396,2.855,-0.137,-0.158,3.007,1.815,-1.445,2.948,2.808,0.444,0.249,2.288,-1.609,2.948,-3.046,0.000,0.037,0.000,0.033,0.071,0.000314
15.000,2.242,-1.353,2.873,-0.293,-0.138,-3.046,1.795,-1.438,2.949,2.792,0.461,0.094,2.265,-1.610,2.949,-2.955,0.000,0.000,0.320,0.234,0.554,0.020105
15.050,2.279,-1.399,2.895,-0.060,-0.233,-3.041,1.775,-1.431,2.950,2.777,0.508,0.036,2.242,-1.610,2.950,-3.065,0.130,0.000,0.080,0.000,0.210,0.003078
15.100,2.394,-1.477,2.892,0.366,-0.162,-3.127,1.755,-1.423,2.952,2.762,0.644,0.099,2.219,-1.609,2.952,3.067,0.000,0.183,0.318,0.000,0.501,0.017949
15.150,2.517,-1.536,2.896,0.036,0.405,3.028,1.735,-1.415,2.953,2.747,0.793,0.040,2.196,-1.607,2.953,2.996,0.152,0.114,0.000,0.000,0.266,0.004602
15.200,2.507,-1.582,2.911,0.175,0.325,3.035,1.714,-1.407,2.954,2.733,0.813,0.112,2.173,-1.605,2.954,2.928,0.110,0.013,0.000,0.000,0.122,0.002113
15.250,2.391,-1.559,2.904,0.124,0.109,2.960,1.694,-1.398,2.955,2.720,0.717,0.045,2.150,-1.603,2.955,2.912,0.000,0.028,0.000,0.000,0.028,0.000146
15.300,2.243,-1.488,2.870,0.040,-0.068,2.931,1.673,-1.389,2.957,2.706,0.585,0.039,2.126,-1.600,2.957,2.960,0.000,0.030,0.001,0.031,0.062,0.000221
15.350,2.123,-1.407,2.862,-0.049,-0.119,2.975,1.652,-1.379,2.958,2.694,0.482,0.107,2.103,-1.596,2.958,3.068,0.000,0.048,0.000,0.052,0.099,0.000617
15.400,2.047,-1.351,2.866,-0.086,-0.074,3.077,1.631,-1.369,2.959,2.681,0.427,0.109,2.079,-1.591,2.959,-3.108,1.000,0.981,0.985,1.000,3.966,0.000073
15.450,1.998,-1.329,2.866,-0.303,-0.173,-3.086,1.610,-1.359,2.960,2.669,0.401,0.020,2.055,-1.586,2.960,-3.068,0.230,0.000,0.362,0.504,1.096,0.034391
15.500,2.011,-1.411,2.897,0.066,-0.332,-3.114,1.589,-1.348,2.961,2.657,0.432,0.177,2.032,-1.581,2.961,3.017,0.962,1.000,1.000,0.821,3.783,0.005462
15.550,2.077,-1.527,2.901,0.060,0.383,2.952,1.568,-1.337,2.962,2.646,0.547,0.168,2.008,-1.575,2.962,2.804,0.000,0.012,0.202,0.000,0.214,0.007391
15.600,2.043,-1.610,2.886,0.206,0.189,2.813,1.547,-1.325,2.964,2.635,0.578,0.192,1.984,-1.568,2.964,2.633,0.915,0.957,1.000,1.000,3.872,0.001233
15.650,1.961,-1.594,2.869,0.146,0.012,2.676,1.525,-1.313,2.965,2.624,0.528,0.106,1.960,-1.561,2.965,2.570,0.000,0.048,0.000,0.050,0.098,0.000600
15.700,1.901,-1.522,2.872,0.051,-0.092,2.628,1.503,-1.301,2.966,2.613,0.465,0.006,1.935,-1.553,2.966,2.623,0.000,0.024,0.019,0.016,0.058,0.000078
15.750,1.878,-1.448,2.869,-0.030,-0.093,2.679,1.482,-1.288,2.967,2.603,0.438,0.080,1.911,-1.545,2.967,2.746,0.967,1.000,0.977,1.000,3.944,0.000208
15.800,1.881,-1.399,2.873,-0.062,-0.015,2.785,1.460,-1.275,2.968,2.593,0.449,0.071,1.887,-1.536,2.968,2.847,0.007,0.017,0.000,0.000,0.024,0.000047
15.850,1.883,-1.375,2.874,-0.037,0.045,2.876,1.438,-1.262,2.969,2.584,0.469,0.016,1.862,-1.527,2.969,2.889,0.997,0.968,1.000,0.981,3.945,0.000171
15.900,1.867,-1.361,2.874,-0.010,0.056,2.921,1.416,-1.248,2.970,2.575,0.474,0.025,1.838,-1.517,2.970,2.895,0.570,0.510,0.435,0.476,1.990,0.002444
15.950,1.829,-1.347,2.873,0.001,0.037,2.929,1.394,-1.234,2.971,2.566,0.460,0.042,1.813,-1.507,2.971,2.886,0.031,0.021,0.000,0.000,0.052,0.000180
16.000,1.779,-1.331,2.871,0.008,0.017,2.922,1.372,-1.220,2.972,2.557,0.434,0.046,1.789,-1.496,2.972,2.875,0.037,0.033,0.000,0.000,0.069,0.000304
16.050,1.726,-1.311,2.874,-0.007,-0.018,2.912,1.350,-1.205,2.973,2.549,0.403,0.045,1.764,-1.485,2.973,2.866,0.003,0.038,0.000,0.000,0.041,0.000255
16.100,1.679,-1.294,2.875,-0.014,-0.024,2.902,1.327,-1.190,2.974,2.541,0.380,0.048,1.740,-1.473,2.974,2.854,1.000,0.968,0.992,1.000,3.960,0.000171
16.150,1.639,-1.282,2.876,-0.008,-0.021,2.891,1.305,-1.175,2.975,2.533,0.365,0.059,1.715,-1.461,2.975,2.832,0.241,0.207,0.274,0.257,0.978,0.000626
16.200,1.605,-1.273,2.876,0.001,-0.007,2.871,1.282,-1.159,2.976,2.525,0.357,0.069,1.690,-1.448,2.976,2.803,1.000,1.000,0.931,0.992,3.923,0.000829
16.250,1.576,-1.268,2.878,0.003,-0.006,2.845,1.259,-1.143,2.977,2.518,0.354,0.078,1.665,-1.435,2.977,2.769,1.000,0.984,0.977,0.994,3.955,0.000075
16.300,1.551,-1.263,2.880,-0.000,-0.007,2.814,1.237,-1.127,2.978,2.510,0.357,0.081,1.640,-1.422,2.978,2.735,0.022,0.036,0.000,0.004,0.062,0.000207
16.350,1.530,-1.258,2.880,0.009,-0.005,2.784,1.214,-1.110,2.978,2.503,0.363,0.079,1.616,-1.408,2.978,2.706,0.509,0.478,0.559,0.525,2.070,0.000870
16.400,1.511,-1.251,2.882,0.003,-0.007,2.758,1.191,-1.093,2.979,2.497,0.370,0.074,1.591,-1.394,2.979,2.685,0.000,0.040,0.000,0.006,0.046,0.000279
16.450,1.493,-1.242,2.879,0.015,-0.008,2.737,1.168,-1.076,2.980,2.490,0.379,0.068,1.566,-1.379,2.980,2.669,0.000,0.028,0.004,0.000,0.032,0.000133
16.500,1.478,-1.231,2.882,0.003,-0.001,2.722,1.145,-1.058,2.981,2.484,0.388,0.058,1.541,-1.364,2.981,2.663,0.001,0.000,0.030,0.000,0.031,0.000166
16.550,1.463,-1.219,2.881,-0.002,0.002,2.711,1.122,-1.040,2.982,2.478,0.398,0.051,1.516,-1.349,2.982,2.659,0.000,0.039,0.000,0.004,0.043,0.000266
16.600,1.447,-1.206,2.883,0.006,-0.001,2.705,1.099,-1.022,2.982,2.472,0.406,0.048,1.491,-1.333,2.982,2.656,0.998,0.967,1.000,1.000,3.965,0.000192
16.650,1.431,-1.192,2.887,0.005,0.012,2.701,1.075,-1.004,2.983,2.466,0.413,0.045,1.465,-1.317,2.983,2.654,0.879,0.836,0.901,0.862,3.477,0.000562
16.700,1.411,-1.175,2.884,0.005,0.002,2.697,1.052,-0.985,2.984,2.460,0.418,0.043,1.440,-1.300,2.984,2.653,0.000,0.036,0.000,0.000,0.036,0.000241
16.750,1.390,-1.157,2.885,-0.000,0.008,2.694,1.028,-0.966,2.985,2.455,0.421,0.039,1.415,-1.283,2.985,2.654,0.000,0.049,0.000,0.000,0.049,0.000447
16.800,1.366,-1.139,2.890,-0.002,0.001,2.693,1.005,-0.947,2.985,2.450,0.420,0.040,1.390,-1.266,2.985,2.651,0.000,0.000,0.041,0.000,0.041,0.000319
16.850,1.341,-1.121,2.887,0.002,0.006,2.687,0.981,-0.927,2.986,2.445,0.420,0.040,1.365,-1.248,2.986,2.646,1.000,0.985,0.973,0.988,3.946,0.000089
16.900,1.314,-1.102,2.889,-0.004,-0.001,2.683,0.958,-0.908,2.987,2.440,0.418,0.040,1.340,-1.230,2.987,2.642,0.414,0.358,0.397,0.429,1.598,0.000715
16.950,1.288,-1.083,2.888,-0.003,0.001,2.675,0.934,-0.888,2.987,2.435,0.416,0.039,1.314,-1.212,2.987,2.635,0.002,0.047,0.000,0.000,0.049,0.000404
17.000,1.261,-1.065,2.887,0.007,-0.004,2.669,0.910,-0.867,2.988,2.431,0.415,0.041,1.289,-1.194,2.988,2.627,1.000,0.954,1.000,1.000,3.954,0.000388
17.050,1.236,-1.047,2.890,0.009,0.006,2.661,0.886,-0.847,2.989,2.426,0.415,0.039,1.264,-1.175,2.989,2.621,1.000,1.000,0.946,0.974,3.921,0.000493
17.100,1.211,-1.030,2.889,-0.002,0.003,2.654,0.862,-0.826,2.989,2.422,0.416,0.043,1.239,-1.155,2.989,2.611,1.000,0.923,1.000,1.000,3.923,0.001101
17.150,1.185,-1.014,2.892,0.001,-0.002,2.643,0.838,-0.805,2.990,2.418,0.416,0.045,1.213,-1.136,2.990,2.599,0.163,0.130,0.201,0.199,0.693,0.000860
17.200,1.159,-0.996,2.889,0.008,-0.002,2.632,0.814,-0.784,2.991,2.414,0.417,0.043,1.188,-1.116,2.991,2.588,1.000,0.965,1.000,1.000,3.965,0.000235
17.250,1.135,-0.978,2.887,0.007,0.006,2.620,0.790,-0.762,2.991,2.411,0.419,0.038,1.163,-1.096,2.991,2.582,0.001,0.064,0.000,0.000,0.065,0.000756
17.300,1.111,-0.959,2.887,0.009,0.001,2.614,0.766,-0.741,2.992,2.407,0.421,0.037,1.137,-1.076,2.992,2.576,1.000,0.964,1.000,0.995,3.959,0.000223
17.350,1.088,-0.940,2.888,-0.004,-0.007,2.607,0.742,-0.719,2.992,2.404,0.424,0.033,1.112,-1.055,2.992,2.573,1.000,0.957,1.000,1.000,3.957,0.000346
17.400,1.067,-0.922,2.890,0.009,0.003,2.603,0.718,-0.697,2.993,2.400,0.428,0.034,1.087,-1.035,2.993,2.568,0.000,0.059,0.000,0.000,0.059,0.000644
17.450,1.046,-0.904,2.891,-0.001,0.010,2.598,0.693,-0.675,2.993,2.397,0.433,0.034,1.061,-1.013,2.993,2.564,1.000,0.955,1.000,1.000,3.955,0.000387
17.500,1.022,-0.885,2.890,0.002,0.012,2.593,0.669,-0.652,2.994,2.394,0.436,0.034,1.036,-0.992,2.994,2.558,0.012,0.037,0.000,0.000,0.050,0.000234
17.550,0.997,-0.864,2.892,-0.000,-0.000,2.587,0.645,-0.630,2.994,2.391,0.435,0.034,1.010,-0.971,2.994,2.553,0.826,0.757,0.827,0.829,3.239,0.000927
17.600,0.971,-0.843,2.895,-0.004,-0.001,2.581,0.620,-0.607,2.995,2.388,0.435,0.032,0.985,-0.949,2.995,2.549,0.257,0.180,0.232,0.260,0.929,0.001016
17.650,0.947,-0.822,2.894,-0.005,-0.002,2.575,0.596,-0.584,2.995,2.386,0.436,0.029,0.960,-0.927,2.995,2.545,0.000,0.056,0.000,0.005,0.061,0.000562
17.700,0.922,-0.802,2.895,-0.001,0.005,2.570,0.571,-0.561,2.995,2.383,0.437,0.030,0.934,-0.905,2.995,2.539,1.000,0.949,1.000,1.000,3.949,0.000493
17.750,0.897,-0.781,2.895,0.000,0.002,2.564,0.547,-0.538,2.996,2.381,0.438,0.030,0.909,-0.882,2.996,2.533,1.000,0.950,1.000,1.000,3.950,0.000462
17.800,0.872,-0.761,2.898,0.004,-0.014,2.559,0.522,-0.514,2.996,2.378,0.439,0.032,0.883,-0.860,2.996,2.526,0.000,0.053,0.000,0.022,0.075,0.000474
17.850,0.849,-0.741,2.900,0.003,-0.000,2.552,0.497,-0.491,2.997,2.376,0.442,0.030,0.858,-0.837,2.997,2.522,0.718,0.666,0.760,0.724,2.868,0.001110
17.900,0.826,-0.721,2.900,0.010,0.013,2.544,0.473,-0.467,2.997,2.374,0.446,0.026,0.833,-0.814,2.997,2.518,1.000,1.000,0.934,0.962,3.896,0.000768
17.950,0.802,-0.702,2.899,0.004,0.013,2.539,0.448,-0.443,2.997,2.372,0.450,0.029,0.807,-0.791,2.997,2.510,1.000,0.974,0.957,0.968,3.899,0.000251
18.000,0.778,-0.680,2.900,-0.003,-0.000,2.533,0.423,-0.419,2.997,2.370,0.451,0.027,0.782,-0.768,2.997,2.505,0.636,0.576,0.637,0.661,2.511,0.000986
18.050,0.753,-0.658,2.902,-0.005,-0.003,2.528,0.399,-0.395,2.998,2.369,0.452,0.024,0.757,-0.744,2.998,2.503,0.000,0.062,0.000,0.008,0.070,0.000670
18.100,0.729,-0.635,2.901,0.001,-0.003,2.524,0.374,-0.371,2.998,2.367,0.454,0.022,0.731,-0.721,2.998,2.501,0.655,0.585,0.680,0.654,2.574,0.001241
18.150,0.708,-0.613,2.898,-0.000,0.004,2.521,0.349,-0.347,2.998,2.366,0.458,0.018,0.706,-0.697,2.998,2.502,0.000,0.071,0.000,0.000,0.071,0.000957
18.200,0.687,-0.592,2.900,0.000,0.007,2.520,0.324,-0.322,2.999,2.364,0.462,0.018,0.681,-0.673,2.999,2.502,1.000,0.941,1.000,1.000,3.941,0.000657
18.250,0.663,-0.571,2.906,0.015,0.009,2.518,0.299,-0.298,2.999,2.363,0.464,0.020,0.655,-0.649,2.999,2.498,0.000,0.141,0.000,0.000,0.141,0.003724
18.300,0.638,-0.550,2.905,0.011,0.016,2.514,0.274,-0.273,2.999,2.362,0.466,0.023,0.630,-0.625,2.999,2.491,1.000,1.000,0.928,0.975,3.903,0.000869
18.350,0.610,-0.527,2.905,0.010,0.007,2.508,0.249,-0.249,2.999,2.361,0.465,0.024,0.605,-0.601,2.999,2.484,1.000,1.000,0.954,0.981,3.935,0.000355
18.400,0.582,-0.503,2.901,0.004,-0.003,2.499,0.225,-0.224,2.999,2.360,0.464,0.019,0.579,-0.576,2.999,2.479,0.000,0.071,0.000,0.000,0.071,0.000940
18.450,0.557,-0.479,2.901,0.009,-0.000,2.494,0.200,-0.199,2.999,2.359,0.464,0.017,0.554,-0.552,2.999,2.477,1.000,0.992,1.000,0.974,3.966,0.000112
18.500,0.534,-0.455,2.904,0.000,-0.007,2.492,0.175,-0.174,3.000,2.358,0.466,0.012,0.529,-0.527,3.000,2.478,0.000,0.087,0.000,0.000,0.087,0.001433
18.550,0.513,-0.434,2.908,-0.004,0.007,2.493,0.150,-0.150,3.000,2.358,0.470,0.015,0.504,-0.503,3.000,2.478,1.000,0.939,1.000,1.000,3.939,0.000693
18.600,0.489,-0.414,2.910,0.000,0.010,2.491,0.125,-0.125,3.000,2.357,0.474,0.020,0.479,-0.478,3.000,2.471,0.000,0.070,0.000,0.000,0.070,0.000907
18.650,0.463,-0.392,2.909,0.002,0.004,2.484,0.100,-0.100,3.000,2.357,0.475,0.020,0.454,-0.453,3.000,2.464,1.000,0.947,0.978,1.000,3.925,0.000469
18.700,0.437,-0.368,2.905,0.013,-0.013,2.476,0.075,-0.075,3.000,2.356,0.476,0.016,0.428,-0.428,3.000,2.460,0.000,0.075,0.000,0.000,0.075,0.001058
18.750,0.415,-0.344,2.907,-0.003,0.004,2.473,0.050,-0.050,3.000,2.356,0.478,0.010,0.403,-0.403,3.000,2.463,0.000,0.072,0.000,0.000,0.072,0.000971
18.800,0.393,-0.321,2.905,-0.002,0.006,2.474,0.025,-0.025,3.000,2.356,0.482,0.011,0.378,-0.378,3.000,2.463,1.000,0.937,0.941,1.000,3.879,0.000924
18.850,0.370,-0.299,2.909,0.001,-0.010,2.476,-0.000,0.000,3.000,2.356,0.485,0.014,0.353,-0.353,3.000,2.461,0.961,0.865,1.000,1.000,3.826,0.003062
18.900,0.350,-0.277,2.911,-0.000,-0.007,2.474,-0.025,0.025,3.000,2.356,0.490,0.011,0.328,-0.328,3.000,2.462,0.000,0.000,0.121,0.000,0.121,0.002726
18.950,0.327,-0.255,2.905,0.004,0.013,2.471,-0.050,0.050,3.000,2.357,0.495,0.009,0.303,-0.303,3.000,2.461,1.000,0.932,1.000,1.000,3.932,0.000874
19.000,0.303,-0.231,2.904,0.015,0.013,2.468,-0.075,0.075,3.000,2.357,0.496,0.006,0.279,-0.278,3.000,2.461,1.000,1.000,0.918,0.956,3.874,0.001184
19.050,0.279,-0.206,2.905,0.007,0.007,2.469,-0.100,0.100,3.000,2.357,0.497,0.006,0.254,-0.253,3.000,2.462,1.000,1.000,0.956,0.963,3.919,0.000416
19.100,0.256,-0.181,2.907,0.003,-0.011,2.469,-0.125,0.125,3.000,2.358,0.497,0.004,0.229,-0.228,3.000,2.464,0.000,0.079,0.000,0.006,0.085,0.001133
19.150,0.234,-0.156,2.911,0.013,-0.001,2.471,-0.150,0.150,3.000,2.358,0.499,0.002,0.204,-0.203,3.000,2.468,0.000,0.131,0.035,0.000,0.166,0.002897
19.200,0.210,-0.133,2.912,0.015,0.015,2.473,-0.175,0.175,3.000,2.359,0.501,0.005,0.180,-0.178,3.000,2.467,1.000,1.000,0.917,0.965,3.882,0.001166
19.250,0.185,-0.110,2.912,-0.000,0.007,2.473,-0.200,0.200,2.999,2.360,0.502,0.009,0.155,-0.153,2.999,2.464,1.000,0.876,0.997,1.000,3.873,0.002817
19.300,0.159,-0.086,2.914,-0.001,-0.007,2.471,-0.225,0.224,2.999,2.361,0.501,0.009,0.130,-0.127,2.999,2.461,0.013,0.000,0.039,0.024,0.076,0.000206
19.350,0.134,-0.061,2.914,0.005,-0.006,2.466,-0.250,0.249,2.999,2.362,0.501,0.005,0.106,-0.102,2.999,2.460,0.000,0.086,0.000,0.000,0.086,0.001397
19.400,0.111,-0.037,2.910,-0.008,-0.006,2.465,-0.275,0.274,2.999,2.363,0.503,0.002,0.081,-0.077,2.999,2.463,1.000,0.881,0.970,1.000,3.850,0.002395
19.450,0.090,-0.015,2.916,0.002,0.006,2.467,-0.300,0.298,2.999,2.365,0.506,0.002,0.057,-0.052,2.999,2.464,0.493,0.391,0.511,0.483,1.879,0.002146
19.500,0.068,0.007,2.917,-0.004,0.008,2.468,-0.325,0.323,2.999,2.366,0.510,0.005,0.032,-0.027,2.999,2.463,1.000,0.887,0.991,1.000,3.877,0.002296
19.550,0.045,0.028,2.920,0.005,0.006,2.466,-0.349,0.347,2.998,2.367,0.513,0.004,0.008,-0.003,2.998,2.461,0.085,0.033,0.195,0.122,0.435,0.003478
19.600,0.021,0.053,2.911,0.002,0.002,2.463,-0.374,0.371,2.998,2.369,0.515,0.000,-0.016,0.022,2.998,2.462,0.046,0.088,0.000,0.000,0.134,0.001346
19.650,0.000,0.078,2.913,0.002,-0.004,2.466,-0.399,0.395,2.998,2.371,0.517,0.004,-0.040,0.047,2.998,2.468,0.765,0.854,0.674,0.741,3.034,0.004141
19.700,-0.020,0.102,2.911,-0.004,0.012,2.468,-0.424,0.420,2.997,2.373,0.521,0.006,-0.064,0.072,2.997,2.473,1.000,0.916,0.996,1.000,3.912,0.001286
19.750,-0.042,0.126,2.913,0.010,-0.010,2.476,-0.449,0.443,2.997,2.375,0.522,0.002,-0.089,0.097,2.997,2.477,0.000,0.101,0.001,0.009,0.110,0.001815
19.800,-0.062,0.151,2.914,-0.020,-0.004,2.480,-0.473,0.467,2.997,2.377,0.525,0.005,-0.113,0.121,2.997,2.484,1.000,0.860,0.920,1.000,3.780,0.003478
19.850,-0.084,0.173,2.914,-0.005,-0.003,2.485,-0.498,0.491,2.997,2.379,0.528,0.002,-0.136,0.146,2.997,2.486,0.020,0.000,0.000,0.037,0.056,0.000234
19.900,-0.107,0.197,2.912,0.003,0.000,2.486,-0.523,0.515,2.996,2.381,0.529,0.003,-0.160,0.170,2.996,2.488,0.000,0.092,0.000,0.000,0.092,0.001597
19.950,-0.130,0.222,2.911,0.001,-0.011,2.487,-0.547,0.538,2.996,2.384,0.530,0.007,-0.184,0.194,2.996,2.493,0.650,0.558,0.688,0.670,2.567,0.002493
20.000,-0.149,0.245,2.915,0.016,0.005,2.491,-0.572,0.561,2.995,2.386,0.534,0.009,-0.208,0.218,2.995,2.498,0.000,0.142,0.056,0.000,0.198,0.003377
20.050,-0.171,0.266,2.911,0.009,0.010,2.494,-0.596,0.584,2.995,2.389,0.538,0.005,-0.231,0.243,2.995,2.499,0.000,0.071,0.000,0.002,0.073,0.000922
20.100,-0.193,0.290,2.911,0.003,0.001,2.495,-0.621,0.607,2.995,2.392,0.539,0.008,-0.255,0.266,2.995,2.502,0.981,0.840,0.955,0.964,3.740,0.003077
20.150,-0.214,0.315,2.903,0.007,-0.015,2.499,-0.645,0.630,2.994,2.395,0.542,0.012,-0.278,0.290,2.994,2.509,0.000,0.089,0.000,0.000,0.089,0.001485
20.200,-0.231,0.339,2.907,-0.018,0.008,2.505,-0.670,0.653,2.994,2.398,0.546,0.016,-0.302,0.314,2.994,2.520,1.000,0.926,0.972,1.000,3.898,0.000918
20.250,-0.251,0.361,2.910,0.009,0.018,2.513,-0.694,0.675,2.993,2.401,0.549,0.011,-0.325,0.338,2.993,2.524,1.000,1.000,0.919,0.985,3.904,0.001111
20.300,-0.276,0.384,2.913,0.016,0.015,2.518,-0.718,0.697,2.993,2.404,0.548,0.007,-0.348,0.361,2.993,2.524,0.980,1.000,0.964,0.987,3.931,0.000165
20.350,-0.304,0.409,2.912,0.014,-0.005,2.521,-0.742,0.719,2.992,2.408,0.543,0.005,-0.371,0.384,2.992,2.525,0.455,0.500,0.333,0.391,1.678,0.004021
20.400,-0.329,0.436,2.907,-0.009,-0.026,2.523,-0.767,0.741,2.992,2.411,0.540,0.009,-0.394,0.408,2.992,2.531,0.063,0.000,0.000,0.033,0.096,0.000692
20.450,-0.347,0.459,2.908,-0.006,-0.005,2.528,-0.791,0.763,2.991,2.415,0.544,0.014,-0.417,0.431,2.991,2.541,0.000,0.089,0.000,0.000,0.089,0.001474
