time_seconds,targets_hit,total_targets,drone_x,drone_y,drone_z,drone_roll,drone_pitch,drone_yaw,target_x,target_y,target_z,target_yaw,distance_to_target,yaw_error,is_hitting
0.000,0,1,0.000,-0.000,1.000,0.010,0.009,0.008,1.000,1.000,1.500,0.000,1.500,0.008,0
0.050,0,1,0.108,0.059,1.099,-0.186,0.298,-0.006,1.000,1.000,1.500,0.000,1.357,0.006,0
0.100,0,1,0.383,0.220,1.267,-0.212,0.111,-0.002,1.000,1.000,1.500,0.000,1.022,0.002,0
0.150,0,1,0.692,0.442,1.355,-0.155,-0.035,0.023,1.000,1.000,1.500,0.000,0.653,0.023,0
0.200,0,1,0.986,0.709,1.376,-0.080,-0.152,0.039,1.000,1.000,1.500,0.000,0.317,0.039,0
0.250,0,1,1.216,0.991,1.420,0.182,-0.136,0.060,1.000,1.000,1.500,0.000,0.230,0.060,1
0.300,0,1,1.375,1.220,1.465,0.184,-0.261,0.060,1.000,1.000,1.500,0.000,0.436,0.060,0
0.350,0,1,1.436,1.366,1.512,0.226,-0.220,0.074,1.000,1.000,1.500,0.000,0.570,0.074,0
0.400,0,1,1.418,1.414,1.557,0.216,-0.119,0.065,1.000,1.000,1.500,0.000,0.591,0.065,0
0.450,0,1,1.359,1.379,1.582,0.148,-0.062,0.042,1.000,1.000,1.500,0.000,0.528,0.042,0
0.500,0,1,1.279,1.289,1.579,0.075,-0.026,0.024,1.000,1.000,1.500,0.000,0.410,0.024,0
0.550,0,1,1.191,1.171,1.561,0.013,0.008,0.008,1.000,1.000,1.500,0.000,0.263,0.008,1
0.600,0,1,1.109,1.047,1.548,-0.034,0.042,-0.008,1.000,1.000,1.500,0.000,0.128,0.008,1
0.650,0,1,1.042,0.937,1.523,-0.070,0.060,-0.022,1.000,1.000,1.500,0.000,0.079,0.022,1
0.700,0,1,0.999,0.856,1.512,-0.080,0.068,-0.034,1.000,1.000,1.500,0.000,0.145,0.034,1
0.750,0,1,0.982,0.806,1.506,-0.080,0.067,-0.042,1.000,1.000,1.500,0.000,0.195,0.042,1
0.800,0,1,0.988,0.789,1.495,-0.070,0.051,-0.046,1.000,1.000,1.500,0.000,0.211,0.046,1
0.850,0,1,1.009,0.800,1.492,-0.070,0.015,-0.047,1.000,1.000,1.500,0.000,0.200,0.047,1
0.900,0,1,1.041,0.834,1.495,-0.016,-0.008,-0.016,1.000,1.000,1.500,0.000,0.171,0.016,1
0.950,0,1,1.077,0.873,1.485,-0.009,-0.017,-0.027,1.000,1.000,1.500,0.000,0.150,0.027,1
1.000,0,1,1.109,0.914,1.479,-0.007,-0.011,-0.013,1.000,1.000,1.500,0.000,0.140,0.013,1
1.050,0,1,1.131,0.954,1.479,0.055,-0.027,-0.005,1.000,1.000,1.500,0.000,0.140,0.005,1
1.100,0,1,1.142,0.978,1.482,0.044,-0.015,-0.017,1.000,1.000,1.500,0.000,0.145,0.017,1
1.150,0,1,1.144,0.988,1.483,0.043,-0.022,-0.010,1.000,1.000,1.500,0.000,0.146,0.010,1
1.200,0,1,1.138,0.986,1.483,0.025,-0.014,-0.011,1.000,1.000,1.500,0.000,0.140,0.011,1
1.250,0,1,1.127,0.976,1.482,0.019,-0.002,-0.023,1.000,1.000,1.500,0.000,0.131,0.023,1
1.300,0,1,1.117,0.958,1.481,0.008,-0.012,-0.022,1.000,1.000,1.500,0.000,0.126,0.022,1
1.350,0,1,1.105,0.936,1.473,-0.009,-0.002,-0.028,1.000,1.000,1.500,0.000,0.126,0.028,1
1.400,0,1,1.095,0.915,1.472,-0.012,0.011,-0.030,1.000,1.000,1.500,0.000,0.131,0.030,1
1.450,0,1,1.089,0.901,1.474,0.005,0.033,-0.032,1.000,1.000,1.500,0.000,0.135,0.032,1
1.500,0,1,1.089,0.894,1.474,-0.036,0.001,-0.030,1.000,1.000,1.500,0.000,0.140,0.030,1
1.550,0,1,1.091,0.896,1.479,-0.011,0.012,-0.030,1.000,1.000,1.500,0.000,0.140,0.030,1
1.600,0,1,1.094,0.902,1.480,-0.029,-0.003,-0.032,1.000,1.000,1.500,0.000,0.137,0.032,1
1.650,0,1,1.095,0.910,1.478,-0.012,0.002,-0.035,1.000,1.000,1.500,0.000,0.132,0.035,1
1.700,0,1,1.095,0.920,1.481,0.053,0.048,-0.032,1.000,1.000,1.500,0.000,0.125,0.032,1
1.750,0,1,1.097,0.928,1.472,0.012,-0.005,-0.029,1.000,1.000,1.500,0.000,0.124,0.029,1
1.800,0,1,1.099,0.933,1.469,0.007,0.007,-0.029,1.000,1.000,1.500,0.000,0.123,0.029,1
1.850,0,1,1.100,0.933,1.470,0.005,0.010,-0.030,1.000,1.000,1.500,0.000,0.124,0.030,1
1.900,0,1,1.102,0.931,1.472,-0.030,-0.017,-0.027,1.000,1.000,1.500,0.000,0.127,0.027,1
1.950,0,1,1.101,0.936,1.470,0.000,0.004,-0.023,1.000,1.000,1.500,0.000,0.124,0.023,1
2.000,0,1,1.100,0.940,1.472,0.003,0.001,-0.028,1.000,1.000,1.500,0.000,0.120,0.028,1
2.050,0,1,1.099,0.943,1.475,0.026,-0.007,-0.029,1.000,1.000,1.500,0.000,0.117,0.029,1
2.100,0,1,1.097,0.939,1.479,-0.004,0.019,-0.028,1.000,1.000,1.500,0.000,0.116,0.028,1
2.150,0,1,1.096,0.932,1.482,-0.007,-0.024,-0.020,1.000,1.000,1.500,0.000,0.119,0.020,1
2.200,0,1,1.094,0.926,1.483,-0.027,0.016,-0.027,1.000,1.000,1.500,0.000,0.121,0.027,1
2.250,0,1,1.094,0.924,1.480,-0.024,-0.006,-0.027,1.000,1.000,1.500,0.000,0.122,0.027,1
2.300,0,1,1.093,0.925,1.483,0.004,0.007,-0.028,1.000,1.000,1.500,0.000,0.121,0.028,1
2.350,0,1,1.094,0.927,1.483,-0.012,-0.002,-0.026,1.000,1.000,1.500,0.000,0.121,0.026,1
2.400,0,1,1.095,0.927,1.480,-0.006,0.010,-0.030,1.000,1.000,1.500,0.000,0.122,0.030,1
2.450,0,1,1.097,0.925,1.479,-0.009,-0.008,-0.030,1.000,1.000,1.500,0.000,0.124,0.030,1
2.500,0,1,1.096,0.926,1.486,0.047,0.014,-0.031,1.000,1.000,1.500,0.000,0.122,0.031,1
2.550,1,2,1.095,0.926,1.484,-0.099,-0.098,-0.012,-1.000,1.000,1.000,0.500,2.152,0.512,0
2.600,1,2,0.940,0.927,1.504,-0.150,-0.434,0.469,-1.000,1.000,1.000,0.500,2.006,0.031,0
2.650,1,2,0.558,0.894,1.506,-0.046,-0.292,0.470,-1.000,1.000,1.000,0.500,1.642,0.030,0
2.700,1,2,0.095,0.844,1.410,0.015,-0.085,0.466,-1.000,1.000,1.000,0.500,1.180,0.034,0
2.750,1,2,-0.391,0.786,1.270,0.092,0.117,0.463,-1.000,1.000,1.000,0.500,0.700,0.037,0
2.800,1,2,-0.821,0.739,1.147,0.069,0.268,0.438,-1.000,1.000,1.000,0.500,0.349,0.062,0
2.850,1,2,-1.125,0.733,1.075,0.054,0.363,0.414,-1.000,1.000,1.000,0.500,0.304,0.086,0
2.900,1,2,-1.270,0.768,1.052,0.076,0.293,0.392,-1.000,1.000,1.000,0.500,0.360,0.108,0
2.950,1,2,-1.292,0.824,1.048,0.056,0.168,0.409,-1.000,1.000,1.000,0.500,0.344,0.091,0
3.000,1,2,-1.239,0.889,1.041,0.039,0.090,0.422,-1.000,1.000,1.000,0.500,0.267,0.078,1
3.050,1,2,-1.143,0.954,1.048,-0.007,-0.006,0.451,-1.000,1.000,1.000,0.500,0.158,0.049,1
3.100,1,2,-1.047,1.015,1.057,0.019,-0.051,0.475,-1.000,1.000,1.000,0.500,0.076,0.025,1
3.150,1,2,-0.964,1.059,1.066,0.026,-0.083,0.466,-1.000,1.000,1.000,0.500,0.096,0.034,1
3.200,1,2,-0.903,1.086,1.054,0.009,-0.092,0.497,-1.000,1.000,1.000,0.500,0.140,0.003,1
3.250,1,2,-0.876,1.101,1.060,0.072,-0.077,0.496,-1.000,1.000,1.000,0.500,0.171,0.004,1
3.300,1,2,-0.865,1.092,1.055,0.022,-0.047,0.471,-1.000,1.000,1.000,0.500,0.172,0.029,1
3.350,1,2,-0.868,1.067,1.043,0.007,-0.034,0.476,-1.000,1.000,1.000,0.500,0.154,0.024,1
3.400,1,2,-0.882,1.036,1.046,0.008,-0.002,0.473,-1.000,1.000,1.000,0.500,0.132,0.027,1
3.450,1,2,-0.897,1.002,1.041,-0.010,0.005,0.462,-1.000,1.000,1.000,0.500,0.111,0.038,1
3.500,1,2,-0.911,0.972,1.036,-0.025,0.012,0.459,-1.000,1.000,1.000,0.500,0.100,0.041,1
3.550,1,2,-0.922,0.951,1.019,0.008,0.028,0.445,-1.000,1.000,1.000,0.500,0.094,0.055,1
3.600,1,2,-0.927,0.933,1.028,-0.025,0.017,0.453,-1.000,1.000,1.000,0.500,0.103,0.047,1
3.650,1,2,-0.927,0.926,1.026,-0.002,0.012,0.455,-1.000,1.000,1.000,0.500,0.107,0.045,1
3.700,1,2,-0.925,0.926,1.018,-0.021,0.012,0.456,-1.000,1.000,1.000,0.500,0.107,0.044,1
3.750,1,2,-0.921,0.935,1.021,-0.013,0.005,0.462,-1.000,1.000,1.000,0.500,0.104,0.038,1
3.800,1,2,-0.916,0.947,1.010,0.004,-0.005,0.458,-1.000,1.000,1.000,0.500,0.100,0.042,1
3.850,1,2,-0.910,0.957,1.017,-0.013,-0.017,0.461,-1.000,1.000,1.000,0.500,0.101,0.039,1
3.900,1,2,-0.907,0.970,1.027,-0.016,-0.020,0.477,-1.000,1.000,1.000,0.500,0.101,0.023,1
3.950,1,2,-0.908,0.985,1.031,0.016,-0.006,0.472,-1.000,1.000,1.000,0.500,0.099,0.028,1
4.000,1,2,-0.908,0.992,1.039,-0.000,-0.001,0.470,-1.000,1.000,1.000,0.500,0.100,0.030,1
4.050,1,2,-0.909,0.995,1.032,0.007,-0.004,0.465,-1.000,1.000,1.000,0.500,0.096,0.035,1
4.100,1,2,-0.911,0.994,1.039,0.006,-0.023,0.468,-1.000,1.000,1.000,0.500,0.097,0.032,1
4.150,1,2,-0.916,0.987,1.047,0.010,-0.004,0.464,-1.000,1.000,1.000,0.500,0.097,0.036,1
4.200,1,2,-0.918,0.976,1.040,0.006,-0.000,0.455,-1.000,1.000,1.000,0.500,0.094,0.045,1
4.250,1,2,-0.919,0.962,1.033,-0.015,0.007,0.459,-1.000,1.000,1.000,0.500,0.095,0.041,1
4.300,1,2,-0.920,0.955,1.036,-0.007,0.005,0.461,-1.000,1.000,1.000,0.500,0.098,0.039,1
4.350,1,2,-0.920,0.951,1.035,0.006,0.020,0.445,-1.000,1.000,1.000,0.500,0.100,0.055,1
4.400,1,2,-0.916,0.949,1.018,-0.021,-0.001,0.452,-1.000,1.000,1.000,0.500,0.100,0.048,1
4.450,1,2,-0.915,0.953,1.026,-0.011,-0.005,0.464,-1.000,1.000,1.000,0.500,0.101,0.036,1
4.500,1,2,-0.915,0.961,1.048,0.002,-0.019,0.467,-1.000,1.000,1.000,0.500,0.105,0.033,1
4.550,1,2,-0.916,0.966,1.054,0.011,0.008,0.447,-1.000,1.000,1.000,0.500,0.105,0.053,1
4.600,1,2,-0.915,0.967,1.053,-0.012,-0.013,0.463,-1.000,1.000,1.000,0.500,0.105,0.037,1
4.650,1,2,-0.915,0.969,1.053,-0.015,-0.017,0.464,-1.000,1.000,1.000,0.500,0.105,0.036,1
4.700,1,2,-0.915,0.969,1.043,0.006,-0.005,0.456,-1.000,1.000,1.000,0.500,0.101,0.044,1
4.750,1,2,-0.915,0.966,1.051,0.017,-0.002,0.463,-1.000,1.000,1.000,0.500,0.105,0.037,1
4.800,1,2,-0.916,0.963,1.034,-0.016,0.009,0.456,-1.000,1.000,1.000,0.500,0.098,0.044,1
4.850,1,2,-0.915,0.965,1.047,-0.022,-0.013,0.462,-1.000,1.000,1.000,0.500,0.103,0.038,1
4.900,1,2,-0.913,0.965,1.043,0.010,-0.005,0.452,-1.000,1.000,1.000,0.500,0.103,0.048,1
4.950,1,2,-0.911,0.963,1.030,-0.009,-0.002,0.461,-1.000,1.000,1.000,0.500,0.100,0.039,1
5.000,2,3,-0.912,0.963,1.037,0.391,-0.182,0.449,2.000,-1.500,2.000,1.000,3.934,0.551,0
5.050,2,3,-0.762,0.826,1.149,0.774,-0.344,0.927,2.000,-1.500,2.000,1.000,3.710,0.073,0
5.100,2,3,-0.282,0.380,1.346,-0.169,-0.853,1.206,2.000,-1.500,2.000,1.000,3.029,0.206,0
5.150,2,3,0.230,-0.526,1.545,0.153,-0.931,1.486,2.000,-1.500,2.000,1.000,2.071,0.486,0
5.200,2,3,0.798,-1.872,1.781,0.157,-0.527,1.255,2.000,-1.500,2.000,1.000,1.277,0.255,0
5.250,2,3,1.305,-3.389,2.114,-0.519,-0.034,0.955,2.000,-1.500,2.000,1.000,2.016,0.045,0
5.300,2,3,1.628,-4.715,2.409,-0.465,0.259,0.709,2.000,-1.500,2.000,1.000,3.263,0.291,0
5.350,2,3,0.048,-0.028,1.039,0.709,0.804,0.386,2.000,-1.500,2.000,1.000,2.627,0.614,0
5.400,2,3,0.410,-0.238,1.219,0.230,-0.145,0.568,2.000,-1.500,2.000,1.000,2.175,0.432,0
5.450,2,3,0.829,-0.592,1.585,0.093,-0.356,0.982,2.000,-1.500,2.000,1.000,1.538,0.018,0
5.500,2,3,1.240,-1.030,1.822,-0.026,-0.247,1.107,2.000,-1.500,2.000,1.000,0.911,0.107,0
5.550,2,3,1.612,-1.515,1.959,-0.244,-0.057,1.055,2.000,-1.500,2.000,1.000,0.390,0.055,0
5.600,2,3,1.902,-1.963,2.031,-0.337,0.093,1.025,2.000,-1.500,2.000,1.000,0.474,0.025,0
5.650,2,3,2.090,-2.299,2.106,-0.361,0.251,1.031,2.000,-1.500,2.000,1.000,0.811,0.031,0
5.700,2,3,2.197,-2.450,2.208,-0.346,0.386,0.994,2.000,-1.500,2.000,1.000,0.992,0.006,0
5.750,2,3,2.273,-2.419,2.265,-0.210,0.285,0.943,2.000,-1.500,2.000,1.000,0.995,0.057,0
5.800,2,3,2.341,-2.283,2.222,-0.176,0.058,0.908,2.000,-1.500,2.000,1.000,0.882,0.092,0
5.850,2,3,2.373,-2.091,2.152,-0.136,-0.097,0.892,2.000,-1.500,2.000,1.000,0.715,0.108,0
5.900,2,3,2.345,-1.895,2.092,-0.072,-0.126,0.880,2.000,-1.500,2.000,1.000,0.532,0.120,0
5.950,2,3,2.272,-1.726,2.043,0.045,-0.114,0.884,2.000,-1.500,2.000,1.000,0.356,0.116,0
6.000,2,3,2.186,-1.600,2.007,0.093,-0.067,0.894,2.000,-1.500,2.000,1.000,0.211,0.106,0
6.050,2,3,2.111,-1.519,1.993,0.084,-0.042,0.909,2.000,-1.500,2.000,1.000,0.113,0.091,1
6.100,2,3,2.055,-1.472,1.987,0.082,-0.008,0.930,2.000,-1.500,2.000,1.000,0.063,0.070,1
6.150,2,3,2.022,-1.446,1.987,0.057,0.007,0.945,2.000,-1.500,2.000,1.000,0.059,0.055,1
6.200,2,3,2.008,-1.433,1.991,0.029,0.007,0.960,2.000,-1.500,2.000,1.000,0.068,0.040,1
6.250,2,3,2.006,-1.424,1.983,0.014,0.005,0.974,2.000,-1.500,2.000,1.000,0.078,0.026,1
6.300,2,3,2.011,-1.417,1.987,-0.003,0.002,0.983,2.000,-1.500,2.000,1.000,0.085,0.017,1
6.350,2,3,2.020,-1.410,1.991,0.005,0.005,0.989,2.000,-1.500,2.000,1.000,0.092,0.011,1
6.400,2,3,2.032,-1.404,1.984,0.006,-0.003,0.992,2.000,-1.500,2.000,1.000,0.102,0.008,1
6.450,2,3,2.042,-1.399,1.993,0.001,-0.011,0.992,2.000,-1.500,2.000,1.000,0.110,0.008,1
6.500,2,3,2.050,-1.396,1.995,0.007,-0.003,0.990,2.000,-1.500,2.000,1.000,0.115,0.010,1
6.550,2,3,2.055,-1.395,1.999,0.019,-0.002,0.988,2.000,-1.500,2.000,1.000,0.119,0.012,1
6.600,2,3,2.057,-1.395,1.996,0.011,-0.003,0.988,2.000,-1.500,2.000,1.000,0.120,0.012,1
6.650,2,3,2.059,-1.397,1.990,-0.006,-0.006,0.988,2.000,-1.500,2.000,1.000,0.119,0.012,1
6.700,2,3,2.058,-1.400,1.993,-0.007,0.000,0.988,2.000,-1.500,2.000,1.000,0.116,0.012,1
6.750,2,3,2.059,-1.402,1.995,-0.017,-0.006,0.991,2.000,-1.500,2.000,1.000,0.114,0.009,1
6.800,2,3,2.059,-1.405,1.993,-0.013,-0.002,0.989,2.000,-1.500,2.000,1.000,0.112,0.011,1
6.850,2,3,2.058,-1.406,1.994,0.000,-0.001,0.987,2.000,-1.500,2.000,1.000,0.110,0.013,1
6.900,2,3,2.057,-1.408,1.993,0.001,-0.003,0.987,2.000,-1.500,2.000,1.000,0.109,0.013,1
6.950,2,3,2.057,-1.409,1.990,-0.007,-0.001,0.986,2.000,-1.500,2.000,1.000,0.107,0.014,1
7.000,2,3,2.056,-1.410,1.988,-0.014,-0.001,0.987,2.000,-1.500,2.000,1.000,0.107,0.013,1
7.050,2,3,2.056,-1.411,1.990,-0.004,-0.004,0.988,2.000,-1.500,2.000,1.000,0.106,0.012,1
7.100,2,3,2.057,-1.411,1.985,0.007,0.000,0.988,2.000,-1.500,2.000,1.000,0.107,0.012,1
7.150,2,3,2.057,-1.411,1.983,0.006,-0.000,0.988,2.000,-1.500,2.000,1.000,0.107,0.012,1
7.200,2,3,2.058,-1.411,1.981,0.005,0.000,0.988,2.000,-1.500,2.000,1.000,0.108,0.012,1
7.250,2,3,2.059,-1.410,1.980,0.003,-0.000,0.988,2.000,-1.500,2.000,1.000,0.109,0.012,1
7.300,2,3,2.061,-1.409,1.982,0.001,-0.000,0.988,2.000,-1.500,2.000,1.000,0.111,0.012,1
7.350,2,3,2.063,-1.408,1.989,-0.003,-0.003,0.987,2.000,-1.500,2.000,1.000,0.112,0.013,1
7.400,2,3,2.064,-1.407,1.987,0.010,0.001,0.988,2.000,-1.500,2.000,1.000,0.114,0.012,1
7.450,2,3,2.065,-1.407,1.984,0.003,-0.005,0.988,2.000,-1.500,2.000,1.000,0.115,0.012,1
7.500,2,3,2.065,-1.407,1.983,0.008,-0.000,0.989,2.000,-1.500,2.000,1.000,0.115,0.011,1
7.550,2,3,2.065,-1.408,1.979,-0.011,-0.001,0.987,2.000,-1.500,2.000,1.000,0.115,0.013,1
7.600,2,3,2.063,-1.409,1.982,-0.011,-0.000,0.987,2.000,-1.500,2.000,1.000,0.112,0.013,1
7.650,2,3,2.062,-1.410,1.983,-0.016,-0.001,0.987,2.000,-1.500,2.000,1.000,0.110,0.013,1
7.700,2,3,2.060,-1.411,1.983,-0.007,0.006,0.986,2.000,-1.500,2.000,1.000,0.109,0.014,1
7.750,2,3,2.059,-1.411,1.985,-0.004,0.005,0.987,2.000,-1.500,2.000,1.000,0.107,0.013,1
7.800,2,3,2.058,-1.411,1.985,0.001,0.001,0.985,2.000,-1.500,2.000,1.000,0.107,0.015,1
7.850,2,3,2.058,-1.411,1.988,0.002,0.001,0.988,2.000,-1.500,2.000,1.000,0.107,0.012,1
7.900,2,3,2.060,-1.411,1.985,-0.014,0.000,0.987,2.000,-1.500,2.000,1.000,0.108,0.013,1
7.950,2,3,2.061,-1.411,1.984,-0.014,-0.002,0.988,2.000,-1.500,2.000,1.000,0.109,0.012,1
8.000,2,3,2.062,-1.410,1.983,-0.014,-0.002,0.988,2.000,-1.500,2.000,1.000,0.110,0.012,1
8.050,3,4,2.055,-1.405,1.991,-1.056,-0.133,1.294,-2.000,-1.500,1.800,1.500,4.061,0.206,0
8.100,3,4,1.705,-1.344,1.939,-0.379,-0.061,1.202,-2.000,-1.500,1.800,1.500,3.711,0.298,0
8.150,3,4,0.997,-1.233,2.041,-0.243,0.039,1.389,-2.000,-1.500,1.800,1.500,3.018,0.111,0
8.200,3,4,0.195,-1.109,2.010,-0.206,0.166,1.511,-2.000,-1.500,1.800,1.500,2.239,0.011,0
8.250,3,4,-0.633,-0.951,1.822,0.092,0.016,1.539,-2.000,-1.500,1.800,1.500,1.474,0.039,0
8.300,3,4,-1.392,-0.799,1.667,0.344,-0.163,1.497,-2.000,-1.500,1.800,1.500,0.937,0.003,0
8.350,3,4,-1.957,-0.735,1.650,0.389,-0.180,1.514,-2.000,-1.500,1.800,1.500,0.781,0.014,0
8.400,3,4,-2.321,-0.763,1.743,0.355,-0.091,1.516,-2.000,-1.500,1.800,1.500,0.806,0.016,0
8.450,3,4,-2.546,-0.839,1.826,0.342,-0.092,1.512,-2.000,-1.500,1.800,1.500,0.858,0.012,0
8.500,3,4,-2.647,-0.956,1.878,0.248,-0.102,1.530,-2.000,-1.500,1.800,1.500,0.849,0.030,0
8.550,3,4,-2.658,-1.111,1.898,0.157,-0.050,1.558,-2.000,-1.500,1.800,1.500,0.771,0.058,0
8.600,3,4,-2.614,-1.281,1.888,0.076,0.027,1.576,-2.000,-1.500,1.800,1.500,0.658,0.076,0
8.650,3,4,-2.538,-1.443,1.873,0.047,0.080,1.575,-2.000,-1.500,1.800,1.500,0.545,0.075,0
8.700,3,4,-2.447,-1.569,1.859,0.024,0.128,1.563,-2.000,-1.500,1.800,1.500,0.456,0.063,0
8.750,3,4,-2.352,-1.641,1.851,-0.013,0.161,1.549,-2.000,-1.500,1.800,1.500,0.382,0.049,0
8.800,3,4,-2.259,-1.651,1.845,-0.025,0.125,1.537,-2.000,-1.500,1.800,1.500,0.303,0.037,0
8.850,3,4,-2.171,-1.614,1.830,-0.030,0.062,1.529,-2.000,-1.500,1.800,1.500,0.208,0.029,1
8.900,3,4,-2.091,-1.555,1.797,-0.025,-0.001,1.515,-2.000,-1.500,1.800,1.500,0.106,0.015,1
8.950,3,4,-2.022,-1.493,1.792,-0.041,-0.021,1.503,-2.000,-1.500,1.800,1.500,0.024,0.003,1
9.000,3,4,-1.970,-1.438,1.790,-0.058,-0.037,1.502,-2.000,-1.500,1.800,1.500,0.069,0.002,1
9.050,3,4,-1.937,-1.398,1.791,-0.042,-0.050,1.484,-2.000,-1.500,1.800,1.500,0.120,0.016,1
9.100,3,4,-1.920,-1.375,1.777,-0.023,-0.052,1.478,-2.000,-1.500,1.800,1.500,0.151,0.022,1
9.150,3,4,-1.913,-1.368,1.764,-0.020,-0.027,1.467,-2.000,-1.500,1.800,1.500,0.162,0.033,1
9.200,3,4,-1.916,-1.372,1.772,-0.016,-0.007,1.465,-2.000,-1.500,1.800,1.500,0.155,0.035,1
9.250,3,4,-1.927,-1.380,1.771,0.010,-0.013,1.466,-2.000,-1.500,1.800,1.500,0.144,0.034,1
9.300,3,4,-1.940,-1.389,1.764,-0.001,-0.005,1.459,-2.000,-1.500,1.800,1.500,0.131,0.041,1
9.350,3,4,-1.952,-1.399,1.769,0.001,-0.017,1.457,-2.000,-1.500,1.800,1.500,0.116,0.043,1
9.400,3,4,-1.962,-1.409,1.772,0.009,0.016,1.461,-2.000,-1.500,1.800,1.500,0.102,0.039,1
9.450,3,4,-1.972,-1.416,1.774,0.013,0.011,1.457,-2.000,-1.500,1.800,1.500,0.093,0.043,1
9.500,3,4,-1.977,-1.419,1.760,0.002,0.009,1.460,-2.000,-1.500,1.800,1.500,0.093,0.040,1
9.550,3,4,-1.980,-1.418,1.768,0.007,0.010,1.460,-2.000,-1.500,1.800,1.500,0.090,0.040,1
9.600,3,4,-1.980,-1.415,1.770,0.006,-0.007,1.464,-2.000,-1.500,1.800,1.500,0.092,0.036,1
9.650,3,4,-1.980,-1.413,1.774,-0.001,-0.006,1.466,-2.000,-1.500,1.800,1.500,0.093,0.034,1
9.700,3,4,-1.978,-1.414,1.763,-0.013,-0.014,1.443,-2.000,-1.500,1.800,1.500,0.096,0.057,1
9.750,3,4,-1.976,-1.420,1.766,-0.010,0.006,1.457,-2.000,-1.500,1.800,1.500,0.090,0.043,1
9.800,3,4,-1.976,-1.424,1.766,-0.016,-0.002,1.457,-2.000,-1.500,1.800,1.500,0.086,0.043,1
9.850,3,4,-1.977,-1.426,1.770,-0.011,0.008,1.458,-2.000,-1.500,1.800,1.500,0.083,0.042,1
9.900,3,4,-1.978,-1.427,1.770,-0.014,0.014,1.469,-2.000,-1.500,1.800,1.500,0.082,0.031,1
9.950,3,4,-1.977,-1.425,1.771,0.006,0.001,1.459,-2.000,-1.500,1.800,1.500,0.084,0.041,1
10.000,3,4,-1.975,-1.422,1.776,-0.004,0.002,1.462,-2.000,-1.500,1.800,1.500,0.086,0.038,1
10.050,3,4,-1.972,-1.417,1.774,0.001,-0.010,1.467,-2.000,-1.500,1.800,1.500,0.091,0.033,1
10.100,3,4,-1.971,-1.412,1.772,-0.005,-0.003,1.465,-2.000,-1.500,1.800,1.500,0.097,0.035,1
10.150,3,4,-1.970,-1.408,1.769,-0.008,-0.001,1.469,-2.000,-1.500,1.800,1.500,0.102,0.031,1
10.200,3,4,-1.972,-1.402,1.767,0.007,-0.002,1.472,-2.000,-1.500,1.800,1.500,0.107,0.028,1
10.250,3,4,-1.973,-1.397,1.761,0.014,-0.010,1.471,-2.000,-1.500,1.800,1.500,0.113,0.029,1
10.300,3,4,-1.974,-1.394,1.753,-0.001,-0.012,1.469,-2.000,-1.500,1.800,1.500,0.119,0.031,1
10.350,3,4,-1.975,-1.394,1.757,-0.001,-0.010,1.472,-2.000,-1.500,1.800,1.500,0.117,0.028,1
10.400,3,4,-1.974,-1.396,1.755,-0.002,-0.009,1.464,-2.000,-1.500,1.800,1.500,0.116,0.036,1
10.450,3,4,-1.974,-1.400,1.760,0.000,-0.009,1.466,-2.000,-1.500,1.800,1.500,0.111,0.034,1
10.500,3,4,-1.975,-1.404,1.765,-0.010,0.006,1.468,-2.000,-1.500,1.800,1.500,0.106,0.032,1
10.550,3,4,-1.976,-1.407,1.765,0.015,-0.013,1.459,-2.000,-1.500,1.800,1.500,0.102,0.041,1
10.600,3,4,-1.975,-1.414,1.768,-0.005,0.013,1.458,-2.000,-1.500,1.800,1.500,0.095,0.042,1
10.650,3,4,-1.976,-1.417,1.767,-0.003,0.002,1.468,-2.000,-1.500,1.800,1.500,0.093,0.032,1
10.700,3,4,-1.976,-1.417,1.762,0.001,0.003,1.463,-2.000,-1.500,1.800,1.500,0.095,0.037,1
10.750,3,4,-1.976,-1.415,1.766,0.011,-0.000,1.463,-2.000,-1.500,1.800,1.500,0.095,0.037,1
10.800,3,4,-1.975,-1.413,1.764,-0.011,0.008,1.471,-2.000,-1.500,1.800,1.500,0.098,0.029,1
10.850,4,5,-1.971,-1.322,1.714,-1.757,0.735,-1.075,0.000,2.500,1.000,-1.000,4.359,0.075,0
10.900,4,5,-1.748,-0.967,1.446,-1.776,-0.305,-0.397,0.000,2.500,1.000,-1.000,3.908,0.603,0
10.950,4,5,-1.454,-0.278,1.002,-0.334,0.424,-0.307,0.000,2.500,1.000,-1.000,3.135,0.693,0
11.000,4,5,-1.007,0.499,0.696,-0.461,-0.356,-0.764,0.000,2.500,1.000,-1.000,2.261,0.236,0
11.050,4,5,-0.570,1.473,0.497,0.152,0.271,-0.247,0.000,2.500,1.000,-1.000,1.277,0.753,0
11.100,4,5,-0.090,2.469,0.373,0.518,-0.060,-0.345,0.000,2.500,1.000,-1.000,0.634,0.655,0
11.150,4,5,0.411,3.313,0.450,0.137,0.039,-0.599,0.000,2.500,1.000,-1.000,1.064,0.401,0
11.200,4,5,0.817,3.987,0.825,0.669,-0.011,-0.771,0.000,2.500,1.000,-1.000,1.705,0.229,0
11.250,4,5,0.986,4.288,1.330,0.891,0.306,-0.532,0.000,2.500,1.000,-1.000,2.068,0.468,0
11.300,4,5,0.985,4.194,1.789,0.716,0.437,-0.759,0.000,2.500,1.000,-1.000,2.113,0.241,0
11.350,4,5,0.921,3.912,2.033,0.507,0.396,-1.007,0.000,2.500,1.000,-1.000,1.977,0.007,0
11.400,4,5,0.804,3.532,2.043,0.370,0.190,-1.120,0.000,2.500,1.000,-1.000,1.673,0.120,0
11.450,4,5,0.621,3.093,1.894,0.166,-0.018,-1.152,0.000,2.500,1.000,-1.000,1.240,0.152,0
11.500,4,5,0.383,2.655,1.662,0.028,-0.191,-1.139,0.000,2.500,1.000,-1.000,0.781,0.139,0
11.550,4,5,0.113,2.289,1.452,-0.128,-0.220,-1.108,0.000,2.500,1.000,-1.000,0.511,0.108,0
11.600,4,5,-0.145,2.040,1.308,-0.237,-0.166,-1.096,0.000,2.500,1.000,-1.000,0.572,0.096,0
11.650,4,5,-0.344,1.910,1.221,-0.311,-0.110,-1.080,0.000,2.500,1.000,-1.000,0.717,0.080,0
11.700,4,5,-0.440,1.893,1.197,-0.323,-0.055,-1.062,0.000,2.500,1.000,-1.000,0.775,0.062,0
11.750,4,5,-0.433,1.959,1.180,-0.256,-0.022,-1.038,0.000,2.500,1.000,-1.000,0.716,0.038,0
11.800,4,5,-0.347,2.082,1.147,-0.149,-0.005,-1.008,0.000,2.500,1.000,-1.000,0.563,0.008,0
11.850,4,5,-0.212,2.238,1.115,-0.026,-0.011,-0.989,0.000,2.500,1.000,-1.000,0.356,0.011,0
11.900,4,5,-0.065,2.398,1.086,0.059,0.012,-0.960,0.000,2.500,1.000,-1.000,0.148,0.040,1
11.950,4,5,0.071,2.538,1.071,0.132,0.049,-0.949,0.000,2.500,1.000,-1.000,0.107,0.051,1
12.000,4,5,0.174,2.629,1.068,0.186,0.060,-0.954,0.000,2.500,1.000,-1.000,0.227,0.046,1
12.050,4,5,0.230,2.660,1.073,0.196,0.030,-0.971,0.000,2.500,1.000,-1.000,0.290,0.029,1
12.100,4,5,0.233,2.640,1.077,0.152,-0.009,-0.984,0.000,2.500,1.000,-1.000,0.283,0.016,1
12.150,4,5,0.187,2.590,1.070,0.106,-0.012,-0.994,0.000,2.500,1.000,-1.000,0.220,0.006,1
12.200,4,5,0.108,2.522,1.056,0.029,0.002,-1.006,0.000,2.500,1.000,-1.000,0.124,0.006,1
12.250,4,5,0.017,2.451,1.043,-0.017,-0.021,-1.015,0.000,2.500,1.000,-1.000,0.067,0.015,1
12.300,4,5,-0.070,2.388,1.024,-0.069,-0.003,-1.019,0.000,2.500,1.000,-1.000,0.134,0.019,1
12.350,4,5,-0.137,2.341,1.008,-0.092,-0.010,-1.022,0.000,2.500,1.000,-1.000,0.210,0.022,1
12.400,4,5,-0.173,2.313,0.999,-0.095,-0.005,-1.023,0.000,2.500,1.000,-1.000,0.255,0.023,1
12.450,4,5,-0.180,2.307,0.996,-0.070,-0.012,-1.018,0.000,2.500,1.000,-1.000,0.264,0.018,1
12.500,4,5,-0.162,2.320,1.004,-0.062,0.101,-0.992,0.000,2.500,1.000,-1.000,0.242,0.008,1
12.550,4,5,-0.123,2.335,1.007,-0.030,-0.008,-0.999,0.000,2.500,1.000,-1.000,0.206,0.001,1
12.600,4,5,-0.075,2.358,1.006,-0.003,-0.005,-0.997,0.000,2.500,1.000,-1.000,0.161,0.003,1
12.650,4,5,-0.028,2.384,1.001,0.020,-0.005,-0.993,0.000,2.500,1.000,-1.000,0.119,0.007,1
12.700,4,5,0.013,2.407,1.000,0.032,-0.008,-0.989,0.000,2.500,1.000,-1.000,0.094,0.011,1
12.750,4,5,0.044,2.423,1.005,0.059,-0.020,-0.976,0.000,2.500,1.000,-1.000,0.089,0.024,1
12.800,4,5,0.057,2.433,1.001,0.061,0.007,-0.968,0.000,2.500,1.000,-1.000,0.088,0.032,1
12.850,4,5,0.050,2.433,1.002,0.032,0.014,-0.988,0.000,2.500,1.000,-1.000,0.083,0.012,1
12.900,4,5,0.037,2.427,1.000,0.052,-0.032,-0.995,0.000,2.500,1.000,-1.000,0.082,0.005,1
12.950,4,5,0.009,2.416,0.988,-0.012,0.025,-1.000,0.000,2.500,1.000,-1.000,0.086,0.000,1
13.000,4,5,-0.016,2.401,0.993,-0.022,0.016,-0.996,0.000,2.500,1.000,-1.000,0.101,0.004,1
13.050,4,5,-0.037,2.390,0.990,-0.025,0.005,-1.004,0.000,2.500,1.000,-1.000,0.117,0.004,1
13.100,4,5,-0.050,2.381,0.988,-0.032,0.023,-1.017,0.000,2.500,1.000,-1.000,0.129,0.017,1
13.150,4,5,-0.059,2.378,0.981,-0.018,0.009,-1.011,0.000,2.500,1.000,-1.000,0.137,0.011,1
13.200,4,5,-0.062,2.378,0.981,-0.025,0.007,-1.006,0.000,2.500,1.000,-1.000,0.138,0.006,1
13.250,4,5,-0.056,2.380,0.981,-0.017,0.004,-1.001,0.000,2.500,1.000,-1.000,0.133,0.001,1
13.300,4,5,-0.043,2.382,0.984,0.015,-0.043,-0.986,0.000,2.500,1.000,-1.000,0.127,0.014,1
13.350,4,5,-0.034,2.387,0.986,-0.002,0.018,-1.001,0.000,2.500,1.000,-1.000,0.119,0.001,1
13.400,4,5,-0.027,2.395,0.980,0.001,-0.017,-1.000,0.000,2.500,1.000,-1.000,0.111,0.000,1
13.450,4,5,-0.026,2.405,0.984,0.004,0.020,-0.999,0.000,2.500,1.000,-1.000,0.100,0.001,1
13.500,4,5,-0.027,2.408,0.986,0.029,0.023,-0.983,0.000,2.500,1.000,-1.000,0.096,0.017,1
13.550,4,5,-0.031,2.405,0.979,0.000,-0.003,-0.996,0.000,2.500,1.000,-1.000,0.102,0.004,1
13.600,4,5,-0.039,2.403,0.993,0.020,-0.006,-1.005,0.000,2.500,1.000,-1.000,0.105,0.005,1
13.650,4,5,-0.048,2.398,0.993,-0.033,0.064,-0.994,0.000,2.500,1.000,-1.000,0.113,0.006,1
13.700,4,5,-0.049,2.384,0.983,-0.018,-0.004,-1.001,0.000,2.500,1.000,-1.000,0.127,0.001,1
13.750,4,5,-0.048,2.374,0.980,-0.019,-0.020,-1.001,0.000,2.500,1.000,-1.000,0.136,0.001,1
13.800,4,5,-0.047,2.374,0.984,0.021,-0.032,-1.006,0.000,2.500,1.000,-1.000,0.136,0.006,1
13.850,4,5,-0.049,2.379,0.982,-0.016,-0.009,-0.994,0.000,2.500,1.000,-1.000,0.132,0.006,1
13.900,5,6,-0.014,2.343,0.996,-0.853,1.526,-2.398,1.500,-2.500,2.200,-0.500,5.215,1.898,0
13.950,5,6,0.017,1.900,0.844,-0.756,0.673,-0.902,1.500,-2.500,2.200,-0.500,4.837,0.402,0
14.000,5,6,0.192,1.177,0.647,0.042,0.411,-0.141,1.500,-2.500,2.200,-0.500,4.200,0.359,0
14.050,5,6,0.443,0.257,0.571,0.893,-0.080,0.230,1.500,-2.500,2.200,-0.500,3.372,0.730,0
14.100,5,6,0.657,-0.846,0.648,0.730,-0.671,0.017,1.500,-2.500,2.200,-0.500,2.420,0.517,0
14.150,5,6,0.736,-2.106,0.911,0.113,-0.076,0.122,1.500,-2.500,2.200,-0.500,1.549,0.622,0
14.200,5,6,0.815,-3.338,1.190,-0.175,-0.381,-0.400,1.500,-2.500,2.200,-0.500,1.480,0.100,0
14.250,5,6,0.730,-4.311,1.503,-0.672,-0.629,-0.502,1.500,-2.500,2.200,-0.500,2.088,0.002,0
14.300,5,6,0.623,-4.828,1.894,-0.865,-0.348,-0.549,1.500,-2.500,2.200,-0.500,2.507,0.049,0
14.350,5,6,0.655,-4.982,2.325,-0.558,-0.138,-0.520,1.500,-2.500,2.200,-0.500,2.625,0.020,0
14.400,5,6,0.811,-4.814,2.708,-0.415,-0.239,-0.461,1.500,-2.500,2.200,-0.500,2.467,0.039,0
14.450,5,6,0.991,-4.450,2.922,-0.370,-0.435,-0.419,1.500,-2.500,2.200,-0.500,2.141,0.081,0
14.500,5,6,1.146,-3.974,2.888,-0.335,-0.517,-0.383,1.500,-2.500,2.200,-0.500,1.664,0.117,0
14.550,5,6,1.224,-3.383,2.702,0.031,-0.095,-0.434,1.500,-2.500,2.200,-0.500,1.052,0.066,0
14.600,5,6,1.263,-2.789,2.486,0.272,0.172,-0.338,1.500,-2.500,2.200,-0.500,0.471,0.162,0
14.650,5,6,1.297,-2.309,2.352,0.277,-0.035,-0.469,1.500,-2.500,2.200,-0.500,0.317,0.031,0
14.700,5,6,1.288,-1.995,2.310,0.228,0.164,-0.453,1.500,-2.500,2.200,-0.500,0.558,0.047,0
14.750,5,6,1.281,-1.825,2.333,0.258,0.216,-0.502,1.500,-2.500,2.200,-0.500,0.722,0.002,0
14.800,5,6,1.298,-1.782,2.368,0.184,0.198,-0.528,1.500,-2.500,2.200,-0.500,0.764,0.028,0
14.850,5,6,1.339,-1.832,2.382,0.143,0.120,-0.524,1.500,-2.500,2.200,-0.500,0.711,0.024,0
14.900,5,6,1.386,-1.944,2.377,0.038,0.006,-0.493,1.500,-2.500,2.200,-0.500,0.595,0.007,0
14.950,5,6,1.422,-2.086,2.346,-0.085,-0.059,-0.466,1.500,-2.500,2.200,-0.500,0.446,0.034,0
15.000,5,6,1.441,-2.234,2.297,-0.177,-0.094,-0.444,1.500,-2.500,2.200,-0.500,0.290,0.056,1
15.050,5,6,1.447,-2.360,2.267,-0.193,-0.116,-0.438,1.500,-2.500,2.200,-0.500,0.164,0.062,1
15.100,5,6,1.439,-2.445,2.235,-0.124,-0.083,-0.449,1.500,-2.500,2.200,-0.500,0.089,0.051,1
15.150,5,6,1.427,-2.484,2.217,-0.042,-0.038,-0.474,1.500,-2.500,2.200,-0.500,0.076,0.026,1
15.200,5,6,1.417,-2.482,2.205,0.005,0.008,-0.488,1.500,-2.500,2.200,-0.500,0.085,0.012,1
15.250,5,6,1.412,-2.461,2.195,-0.015,0.011,-0.500,1.500,-2.500,2.200,-0.500,0.097,0.000,1
15.300,5,6,1.410,-2.424,2.190,0.002,0.012,-0.506,1.500,-2.500,2.200,-0.500,0.118,0.006,1
15.350,5,6,1.410,-2.382,2.185,0.017,0.008,-0.516,1.500,-2.500,2.200,-0.500,0.149,0.016,1
15.400,5,6,1.411,-2.341,2.199,0.035,0.024,-0.521,1.500,-2.500,2.200,-0.500,0.182,0.021,1
15.450,5,6,1.411,-2.309,2.199,0.029,0.028,-0.513,1.500,-2.500,2.200,-0.500,0.211,0.013,1
15.500,5,6,1.414,-2.287,2.209,0.030,0.024,-0.513,1.500,-2.500,2.200,-0.500,0.230,0.013,1
15.550,5,6,1.417,-2.275,2.212,0.030,0.023,-0.510,1.500,-2.500,2.200,-0.500,0.240,0.010,1
15.600,5,6,1.421,-2.275,2.211,-0.022,0.008,-0.504,1.500,-2.500,2.200,-0.500,0.239,0.004,1
15.650,5,6,1.424,-2.286,2.206,-0.028,-0.000,-0.495,1.500,-2.500,2.200,-0.500,0.227,0.005,1
15.700,5,6,1.426,-2.300,2.194,-0.068,-0.036,-0.483,1.500,-2.500,2.200,-0.500,0.214,0.017,1
15.750,5,6,1.428,-2.313,2.196,-0.051,-0.030,-0.496,1.500,-2.500,2.200,-0.500,0.201,0.004,1
15.800,5,6,1.430,-2.319,2.186,0.066,0.011,-0.486,1.500,-2.500,2.200,-0.500,0.194,0.014,1
15.850,5,6,1.432,-2.328,2.195,0.056,0.024,-0.491,1.500,-2.500,2.200,-0.500,0.185,0.009,1
15.900,5,6,1.433,-2.338,2.197,0.070,0.027,-0.497,1.500,-2.500,2.200,-0.500,0.175,0.003,1
15.950,5,6,1.432,-2.347,2.207,0.024,0.014,-0.495,1.500,-2.500,2.200,-0.500,0.168,0.005,1
16.000,5,6,1.430,-2.350,2.209,-0.010,0.005,-0.492,1.500,-2.500,2.200,-0.500,0.166,0.008,1
16.050,5,6,1.428,-2.348,2.200,-0.028,-0.005,-0.491,1.500,-2.500,2.200,-0.500,0.168,0.009,1
16.100,5,6,1.424,-2.342,2.197,-0.041,-0.023,-0.493,1.500,-2.500,2.200,-0.500,0.175,0.007,1
16.150,5,6,1.420,-2.338,2.201,-0.068,-0.026,-0.498,1.500,-2.500,2.200,-0.500,0.180,0.002,1
16.200,5,6,1.418,-2.334,2.206,-0.048,-0.028,-0.504,1.500,-2.500,2.200,-0.500,0.186,0.004,1
16.250,5,6,1.417,-2.331,2.201,-0.034,-0.022,-0.501,1.500,-2.500,2.200,-0.500,0.189,0.001,1
16.300,5,6,1.417,-2.326,2.206,0.036,0.010,-0.507,1.500,-2.500,2.200,-0.500,0.193,0.007,1
16.350,5,6,1.416,-2.325,2.201,0.042,0.036,-0.505,1.500,-2.500,2.200,-0.500,0.194,0.005,1
16.400,5,6,1.419,-2.325,2.200,0.070,0.034,-0.500,1.500,-2.500,2.200,-0.500,0.193,0.000,1
16.450,5,6,1.423,-2.326,2.198,0.070,0.039,-0.491,1.500,-2.500,2.200,-0.500,0.190,0.009,1
16.500,5,6,1.429,-2.326,2.196,0.074,0.046,-0.486,1.500,-2.500,2.200,-0.500,0.188,0.014,1
16.550,5,6,1.434,-2.324,2.188,0.034,0.026,-0.486,1.500,-2.500,2.200,-0.500,0.189,0.014,1
16.600,5,6,1.436,-2.320,2.197,0.022,0.018,-0.494,1.500,-2.500,2.200,-0.500,0.191,0.006,1
16.650,5,6,1.434,-2.317,2.186,-0.021,0.004,-0.488,1.500,-2.500,2.200,-0.500,0.195,0.012,1
16.700,5,6,1.432,-2.319,2.187,-0.068,-0.035,-0.490,1.500,-2.500,2.200,-0.500,0.194,0.010,1
16.750,5,6,1.429,-2.321,2.184,-0.073,-0.034,-0.486,1.500,-2.500,2.200,-0.500,0.193,0.014,1
16.800,5,6,1.426,-2.322,2.175,-0.026,-0.020,-0.484,1.500,-2.500,2.200,-0.500,0.194,0.016,1
16.850,5,6,1.423,-2.322,2.173,0.009,-0.000,-0.485,1.500,-2.500,2.200,-0.500,0.196,0.015,1
16.900,5,6,1.422,-2.322,2.188,0.075,0.013,-0.495,1.500,-2.500,2.200,-0.500,0.194,0.005,1
16.950,5,6,1.421,-2.326,2.188,0.071,0.030,-0.493,1.500,-2.500,2.200,-0.500,0.192,0.007,1
17.000,6,7,1.422,-2.330,2.193,0.003,0.016,-0.495,-1.500,2.000,1.400,0.800,5.283,1.295,0
17.050,6,7,1.358,-2.222,2.077,-1.238,-0.539,0.424,-1.500,2.000,1.400,0.800,5.143,0.376,0
17.100,6,7,1.050,-1.722,1.862,-0.719,-0.197,0.708,-1.500,2.000,1.400,0.800,4.535,0.092,0
17.150,6,7,0.590,-0.974,1.764,-0.467,0.855,0.293,-1.500,2.000,1.400,0.800,3.653,0.507,0
17.200,6,7,0.223,0.015,1.572,-0.176,0.731,0.828,-1.500,2.000,1.400,0.800,2.634,0.028,0
17.250,6,7,0.006,1.304,1.405,-0.307,0.902,1.023,-1.500,2.000,1.400,0.800,1.659,0.223,0
17.300,6,7,-0.134,2.797,1.149,-0.204,0.571,1.378,-1.500,2.000,1.400,0.800,1.601,0.578,0
17.350,6,7,-0.312,4.452,0.991,-0.206,-0.166,1.606,-1.500,2.000,1.400,0.800,2.756,0.806,0
17.400,6,7,0.003,-0.003,1.006,-0.643,-0.426,0.187,-1.500,2.000,1.400,0.800,2.535,0.613,0
17.450,6,7,-0.152,0.180,1.049,-0.313,-0.072,0.407,-1.500,2.000,1.400,0.800,2.291,0.393,0
17.500,6,7,-0.427,0.513,1.147,-0.208,0.019,0.633,-1.500,2.000,1.400,0.800,1.851,0.167,0
17.550,6,7,-0.729,0.896,1.145,-0.018,0.108,0.696,-1.500,2.000,1.400,0.800,1.371,0.104,0
17.600,6,7,-1.016,1.296,1.102,0.154,0.217,0.753,-1.500,2.000,1.400,0.800,0.905,0.047,0
17.650,6,7,-1.246,1.691,1.060,0.223,0.097,0.780,-1.500,2.000,1.400,0.800,0.525,0.020,0
17.700,6,7,-1.396,2.045,1.086,0.273,0.084,0.804,-1.500,2.000,1.400,0.800,0.334,0.004,0
17.750,6,7,-1.448,2.333,1.147,0.270,-0.091,0.798,-1.500,2.000,1.400,0.800,0.421,0.002,0
17.800,6,7,-1.430,2.506,1.242,0.233,-0.216,0.810,-1.500,2.000,1.400,0.800,0.535,0.010,0
17.850,6,7,-1.396,2.551,1.350,0.176,-0.213,0.831,-1.500,2.000,1.400,0.800,0.563,0.031,0
17.900,6,7,-1.371,2.504,1.414,0.068,-0.148,0.821,-1.500,2.000,1.400,0.800,0.521,0.021,0
17.950,6,7,-1.372,2.401,1.438,-0.006,-0.111,0.806,-1.500,2.000,1.400,0.800,0.422,0.006,0
18.000,6,7,-1.401,2.267,1.444,-0.023,-0.046,0.782,-1.500,2.000,1.400,0.800,0.288,0.018,1
18.050,6,7,-1.448,2.129,1.439,-0.030,0.021,0.758,-1.500,2.000,1.400,0.800,0.144,0.042,1
18.100,6,7,-1.496,2.005,1.431,-0.032,0.074,0.739,-1.500,2.000,1.400,0.800,0.031,0.061,1
18.150,6,7,-1.531,1.912,1.430,-0.034,0.101,0.730,-1.500,2.000,1.400,0.800,0.098,0.070,1
18.200,6,7,-1.547,1.852,1.417,-0.021,0.099,0.733,-1.500,2.000,1.400,0.800,0.156,0.067,1
18.250,6,7,-1.541,1.825,1.413,-0.035,0.084,0.737,-1.500,2.000,1.400,0.800,0.180,0.063,1
18.300,6,7,-1.519,1.825,1.409,-0.029,0.049,0.749,-1.500,2.000,1.400,0.800,0.176,0.051,1
18.350,6,7,-1.489,1.848,1.421,-0.008,0.016,0.761,-1.500,2.000,1.400,0.800,0.154,0.039,1
18.400,6,7,-1.456,1.881,1.407,-0.000,-0.005,0.761,-1.500,2.000,1.400,0.800,0.127,0.039,1
18.450,6,7,-1.425,1.914,1.413,-0.036,-0.032,0.767,-1.500,2.000,1.400,0.800,0.115,0.033,1
18.500,6,7,-1.405,1.943,1.414,0.005,-0.030,0.771,-1.500,2.000,1.400,0.800,0.111,0.029,1
18.550,6,7,-1.392,1.964,1.429,0.002,-0.030,0.772,-1.500,2.000,1.400,0.800,0.117,0.028,1
18.600,6,7,-1.385,1.976,1.432,-0.002,-0.029,0.774,-1.500,2.000,1.400,0.800,0.121,0.026,1
18.650,6,7,-1.385,1.981,1.410,0.001,-0.009,0.762,-1.500,2.000,1.400,0.800,0.117,0.038,1
18.700,6,7,-1.386,1.982,1.416,-0.013,-0.021,0.760,-1.500,2.000,1.400,0.800,0.116,0.040,1
18.750,6,7,-1.391,1.979,1.420,0.011,-0.005,0.765,-1.500,2.000,1.400,0.800,0.113,0.035,1
18.800,6,7,-1.397,1.976,1.413,0.005,0.001,0.767,-1.500,2.000,1.400,0.800,0.107,0.033,1
18.850,6,7,-1.401,1.972,1.424,-0.001,-0.010,0.762,-1.500,2.000,1.400,0.800,0.106,0.038,1
18.900,6,7,-1.406,1.967,1.424,0.025,-0.013,0.759,-1.500,2.000,1.400,0.800,0.103,0.041,1
18.950,6,7,-1.410,1.957,1.403,0.005,-0.005,0.755,-1.500,2.000,1.400,0.800,0.100,0.045,1
19.000,6,7,-1.414,1.947,1.396,-0.001,0.015,0.750,-1.500,2.000,1.400,0.800,0.101,0.050,1
19.050,6,7,-1.414,1.941,1.410,-0.015,0.003,0.760,-1.500,2.000,1.400,0.800,0.104,0.040,1
19.100,6,7,-1.414,1.939,1.416,-0.011,0.013,0.758,-1.500,2.000,1.400,0.800,0.107,0.042,1
19.150,6,7,-1.411,1.940,1.424,-0.010,-0.004,0.759,-1.500,2.000,1.400,0.800,0.110,0.041,1
19.200,6,7,-1.410,1.944,1.404,-0.007,0.005,0.758,-1.500,2.000,1.400,0.800,0.106,0.042,1
19.250,6,7,-1.409,1.950,1.412,-0.008,-0.010,0.761,-1.500,2.000,1.400,0.800,0.104,0.039,1
19.300,6,7,-1.409,1.956,1.423,0.004,-0.008,0.765,-1.500,2.000,1.400,0.800,0.104,0.035,1
19.350,6,7,-1.410,1.960,1.414,0.013,-0.001,0.761,-1.500,2.000,1.400,0.800,0.099,0.039,1
19.400,6,7,-1.410,1.962,1.425,-0.003,-0.005,0.763,-1.500,2.000,1.400,0.800,0.101,0.037,1
19.450,6,7,-1.411,1.965,1.427,0.013,-0.001,0.766,-1.500,2.000,1.400,0.800,0.099,0.034,1
19.500,6,7,-1.411,1.966,1.428,0.004,-0.014,0.766,-1.500,2.000,1.400,0.800,0.099,0.034,1
19.550,6,7,-1.412,1.964,1.433,0.014,-0.009,0.764,-1.500,2.000,1.400,0.800,0.100,0.036,1
19.600,6,7,-1.414,1.960,1.432,0.011,0.003,0.760,-1.500,2.000,1.400,0.800,0.100,0.040,1
19.650,6,7,-1.417,1.956,1.418,0.004,0.000,0.760,-1.500,2.000,1.400,0.800,0.096,0.040,1
19.700,6,7,-1.420,1.954,1.411,0.003,0.011,0.757,-1.500,2.000,1.400,0.800,0.093,0.043,1
19.750,6,7,-1.419,1.954,1.414,-0.006,-0.002,0.760,-1.500,2.000,1.400,0.800,0.094,0.040,1
19.800,6,7,-1.418,1.954,1.419,-0.012,0.002,0.763,-1.500,2.000,1.400,0.800,0.096,0.037,1
19.850,6,7,-1.415,1.956,1.419,-0.003,-0.003,0.763,-1.500,2.000,1.400,0.800,0.097,0.037,1
19.900,6,7,-1.414,1.957,1.418,0.008,0.009,0.757,-1.500,2.000,1.400,0.800,0.098,0.043,1
19.950,6,7,-1.413,1.958,1.412,-0.001,-0.001,0.763,-1.500,2.000,1.400,0.800,0.098,0.037,1
20.000,7,8,-1.412,1.959,1.419,0.001,-0.005,0.765,2.500,0.000,1.900,0.200,4.401,0.565,0
20.050,7,8,-1.254,1.928,1.398,0.626,0.716,0.955,2.500,0.000,1.900,0.200,4.250,0.755,0
20.100,7,8,-0.614,1.820,1.334,0.557,0.508,0.075,2.500,0.000,1.900,0.200,3.651,0.125,0
20.150,7,8,0.320,1.527,1.374,0.030,-0.308,0.148,2.500,0.000,1.900,0.200,2.713,0.052,0
20.200,7,8,1.269,1.308,1.599,-0.006,0.190,-0.082,2.500,0.000,1.900,0.200,1.822,0.282,0
20.250,7,8,2.250,1.114,1.722,-0.699,-0.234,0.136,2.500,0.000,1.900,0.200,1.155,0.064,0
20.300,7,8,3.041,0.978,1.663,-0.040,-1.044,0.536,2.500,0.000,1.900,0.200,1.143,0.336,0
20.350,7,8,3.274,0.749,1.680,0.068,-0.485,0.340,2.500,0.000,1.900,0.200,1.099,0.140,0
20.400,7,8,3.199,0.477,1.800,-0.057,-0.148,0.320,2.500,0.000,1.900,0.200,0.852,0.120,0
20.450,7,8,3.063,0.200,1.836,-0.146,-0.100,0.302,2.500,0.000,1.900,0.200,0.601,0.102,0
20.500,7,8,2.893,-0.049,1.853,-0.139,0.034,0.260,2.500,0.000,1.900,0.200,0.399,0.060,0
20.550,7,8,2.726,-0.236,1.848,-0.114,0.144,0.227,2.500,0.000,1.900,0.200,0.331,0.027,0
20.600,7,8,2.596,-0.339,1.850,-0.180,0.181,0.197,2.500,0.000,1.900,0.200,0.356,0.003,0
20.650,7,8,2.514,-0.365,1.851,-0.119,0.130,0.171,2.500,0.000,1.900,0.200,0.369,0.029,0
20.700,7,8,2.477,-0.334,1.863,-0.082,0.103,0.141,2.500,0.000,1.900,0.200,0.336,0.059,0
20.750,7,8,2.473,-0.271,1.872,-0.032,0.026,0.137,2.500,0.000,1.900,0.200,0.273,0.063,1
20.800,7,8,2.487,-0.194,1.870,-0.002,0.026,0.137,2.500,0.000,1.900,0.200,0.197,0.063,1
20.850,7,8,2.511,-0.116,1.873,0.021,0.003,0.143,2.500,0.000,1.900,0.200,0.120,0.057,1
20.900,7,8,2.539,-0.048,1.879,0.034,0.002,0.150,2.500,0.000,1.900,0.200,0.065,0.050,1
20.950,7,8,2.566,0.006,1.870,0.049,-0.013,0.160,2.500,0.000,1.900,0.200,0.073,0.040,1
21.000,7,8,2.588,0.044,1.876,0.033,-0.020,0.167,2.500,0.000,1.900,0.200,0.102,0.033,1
21.050,7,8,2.605,0.068,1.881,0.015,-0.025,0.171,2.500,0.000,1.900,0.200,0.126,0.029,1
21.100,7,8,2.615,0.081,1.883,0.009,-0.024,0.178,2.500,0.000,1.900,0.200,0.142,0.022,1
21.150,7,8,2.618,0.087,1.890,0.011,-0.017,0.180,2.500,0.000,1.900,0.200,0.147,0.020,1
21.200,7,8,2.617,0.085,1.890,-0.005,-0.015,0.182,2.500,0.000,1.900,0.200,0.145,0.018,1
21.250,7,8,2.614,0.080,1.893,-0.010,-0.008,0.181,2.500,0.000,1.900,0.200,0.139,0.019,1
21.300,7,8,2.608,0.074,1.898,0.007,-0.001,0.182,2.500,0.000,1.900,0.200,0.131,0.018,1
21.350,7,8,2.604,0.066,1.892,-0.020,-0.004,0.183,2.500,0.000,1.900,0.200,0.123,0.017,1
21.400,7,8,2.601,0.059,1.891,-0.006,0.015,0.181,2.500,0.000,1.900,0.200,0.117,0.019,1
21.450,7,8,2.598,0.055,1.893,0.007,0.010,0.180,2.500,0.000,1.900,0.200,0.113,0.020,1
21.500,7,8,2.598,0.051,1.892,-0.005,0.005,0.179,2.500,0.000,1.900,0.200,0.111,0.021,1
21.550,7,8,2.597,0.050,1.898,0.003,-0.004,0.179,2.500,0.000,1.900,0.200,0.109,0.021,1
21.600,7,8,2.596,0.048,1.896,-0.010,-0.001,0.178,2.500,0.000,1.900,0.200,0.107,0.022,1
21.650,7,8,2.596,0.047,1.896,-0.003,-0.015,0.179,2.500,0.000,1.900,0.200,0.107,0.021,1
21.700,7,8,2.595,0.046,1.898,-0.006,-0.001,0.179,2.500,0.000,1.900,0.200,0.105,0.021,1
21.750,7,8,2.595,0.045,1.894,-0.006,0.001,0.180,2.500,0.000,1.900,0.200,0.105,0.020,1
21.800,7,8,2.596,0.044,1.896,-0.005,-0.001,0.178,2.500,0.000,1.900,0.200,0.106,0.022,1
21.850,7,8,2.597,0.044,1.896,0.006,0.003,0.177,2.500,0.000,1.900,0.200,0.107,0.023,1
21.900,7,8,2.598,0.046,1.898,0.012,-0.002,0.176,2.500,0.000,1.900,0.200,0.108,0.024,1
21.950,7,8,2.598,0.048,1.896,0.004,-0.002,0.175,2.500,0.000,1.900,0.200,0.109,0.025,1
22.000,7,8,2.598,0.049,1.893,-0.004,-0.004,0.177,2.500,0.000,1.900,0.200,0.110,0.023,1
22.050,7,8,2.598,0.050,1.895,0.001,-0.004,0.178,2.500,0.000,1.900,0.200,0.110,0.022,1
22.100,7,8,2.598,0.049,1.893,0.009,0.005,0.183,2.500,0.000,1.900,0.200,0.110,0.017,1
22.150,7,8,2.599,0.048,1.897,0.005,-0.002,0.178,2.500,0.000,1.900,0.200,0.110,0.022,1
22.200,7,8,2.599,0.049,1.895,0.007,-0.000,0.176,2.500,0.000,1.900,0.200,0.111,0.024,1
22.250,7,8,2.598,0.048,1.896,-0.007,0.012,0.178,2.500,0.000,1.900,0.200,0.109,0.022,1
22.300,7,8,2.597,0.048,1.898,0.014,0.005,0.178,2.500,0.000,1.900,0.200,0.108,0.022,1
22.350,7,8,2.597,0.048,1.892,-0.011,-0.002,0.178,2.500,0.000,1.900,0.200,0.109,0.022,1
22.400,7,8,2.598,0.048,1.896,0.006,0.004,0.179,2.500,0.000,1.900,0.200,0.109,0.021,1
22.450,7,8,2.598,0.047,1.894,-0.013,-0.002,0.182,2.500,0.000,1.900,0.200,0.109,0.018,1
22.500,7,8,2.599,0.045,1.893,-0.017,-0.007,0.179,2.500,0.000,1.900,0.200,0.109,0.021,1
22.550,7,8,2.600,0.044,1.891,-0.007,0.001,0.178,2.500,0.000,1.900,0.200,0.109,0.022,1
22.600,7,8,2.600,0.045,1.894,0.007,-0.007,0.177,2.500,0.000,1.900,0.200,0.110,0.023,1
22.650,7,8,2.600,0.044,1.889,0.009,0.004,0.184,2.500,0.000,1.900,0.200,0.109,0.016,1
22.700,7,8,2.599,0.043,1.882,0.002,0.002,0.186,2.500,0.000,1.900,0.200,0.110,0.014,1
22.750,8,9,2.599,0.044,1.882,-0.292,-0.330,0.241,-2.500,0.000,2.100,-0.800,5.103,1.041,0
22.800,8,9,2.349,0.113,1.923,0.051,-0.915,0.006,-2.500,0.000,2.100,-0.800,4.853,0.806,0
22.850,8,9,1.607,0.226,2.039,0.374,-0.593,-0.003,-2.500,0.000,2.100,-0.800,4.113,0.797,0
22.900,8,9,0.435,0.231,2.271,0.258,-0.607,-0.315,-2.500,0.000,2.100,-0.800,2.949,0.485,0
22.950,8,9,-1.013,0.104,2.541,1.664,0.341,1.074,-2.500,0.000,2.100,-0.800,1.555,1.874,0
23.000,8,9,-2.343,-0.076,2.439,0.986,1.013,1.000,-2.500,0.000,2.100,-0.800,0.381,1.800,0
23.050,8,9,-3.496,-0.238,1.972,0.546,1.437,0.937,-2.500,0.000,2.100,-0.800,1.032,1.737,0
23.100,8,9,-4.474,-0.213,1.083,-0.244,-0.474,1.054,-2.500,0.000,2.100,-0.800,2.231,1.854,0
23.150,8,9,0.002,0.010,1.014,-0.217,-0.360,0.192,-2.500,0.000,2.100,-0.800,2.728,0.992,0
23.200,8,9,-0.151,-0.026,1.155,-0.147,-0.430,-0.157,-2.500,0.000,2.100,-0.800,2.532,0.643,0
23.250,8,9,-0.563,-0.092,1.507,0.120,-0.263,-0.512,-2.500,0.000,2.100,-0.800,2.028,0.288,0
23.300,8,9,-1.110,-0.203,1.818,-0.025,0.030,-0.677,-2.500,0.000,2.100,-0.800,1.433,0.123,0
23.350,8,9,-1.680,-0.339,1.893,0.135,-0.075,-0.834,-2.500,0.000,2.100,-0.800,0.911,0.034,0
23.400,8,9,-2.296,-0.502,1.949,-0.142,0.143,-0.844,-2.500,0.000,2.100,-0.800,0.562,0.044,0
23.450,8,9,-2.857,-0.677,1.944,-0.199,0.196,-0.929,-2.500,0.000,2.100,-0.800,0.781,0.129,0
23.500,8,9,-3.248,-0.820,1.959,-0.402,0.116,-0.934,-2.500,0.000,2.100,-0.800,1.119,0.134,0
23.550,8,9,-3.386,-0.849,2.108,-0.559,0.018,-0.938,-2.500,0.000,2.100,-0.800,1.227,0.138,0
23.600,8,9,-3.330,-0.753,2.242,-0.466,0.001,-0.925,-2.500,0.000,2.100,-0.800,1.130,0.125,0
23.650,8,9,-3.157,-0.569,2.281,-0.306,-0.008,-0.879,-2.500,0.000,2.100,-0.800,0.888,0.079,0
23.700,8,9,-2.912,-0.323,2.240,-0.136,-0.026,-0.818,-2.500,0.000,2.100,-0.800,0.542,0.018,0
23.750,8,9,-2.638,-0.040,2.196,0.028,-0.023,-0.763,-2.500,0.000,2.100,-0.800,0.173,0.037,1
23.800,8,9,-2.380,0.238,2.159,0.157,-0.007,-0.720,-2.500,0.000,2.100,-0.800,0.273,0.080,1
23.850,8,9,-2.168,0.461,2.140,0.286,-0.007,-0.734,-2.500,0.000,2.100,-0.800,0.569,0.066,0
23.900,8,9,-2.022,0.569,2.169,0.363,0.044,-0.746,-2.500,0.000,2.100,-0.800,0.746,0.054,0
23.950,8,9,-1.961,0.557,2.220,0.293,-0.022,-0.745,-2.500,0.000,2.100,-0.800,0.784,0.055,0
24.000,8,9,-1.979,0.471,2.234,0.198,-0.036,-0.756,-2.500,0.000,2.100,-0.800,0.715,0.044,0
24.050,8,9,-2.054,0.342,2.219,0.094,-0.020,-0.776,-2.500,0.000,2.100,-0.800,0.574,0.024,0
24.100,8,9,-2.160,0.193,2.178,0.007,-0.009,-0.804,-2.500,0.000,2.100,-0.800,0.399,0.004,0
24.150,8,9,-2.274,0.047,2.136,-0.069,-0.016,-0.824,-2.500,0.000,2.100,-0.800,0.234,0.024,1
24.200,8,9,-2.373,-0.076,2.102,-0.131,-0.027,-0.838,-2.500,0.000,2.100,-0.800,0.148,0.038,1
24.250,8,9,-2.440,-0.153,2.091,-0.169,-0.043,-0.844,-2.500,0.000,2.100,-0.800,0.165,0.044,1
24.300,8,9,-2.467,-0.175,2.088,-0.159,-0.031,-0.844,-2.500,0.000,2.100,-0.800,0.178,0.044,1
24.350,8,9,-2.456,-0.146,2.084,-0.117,-0.011,-0.836,-2.500,0.000,2.100,-0.800,0.154,0.036,1
24.400,8,9,-2.414,-0.081,2.085,-0.072,-0.006,-0.820,-2.500,0.000,2.100,-0.800,0.119,0.020,1
24.450,8,9,-2.356,0.002,2.067,0.007,0.018,-0.817,-2.500,0.000,2.100,-0.800,0.147,0.017,1
24.500,8,9,-2.297,0.079,2.072,0.042,0.029,-0.810,-2.500,0.000,2.100,-0.800,0.220,0.010,1
24.550,8,9,-2.245,0.142,2.069,0.062,-0.019,-0.795,-2.500,0.000,2.100,-0.800,0.294,0.005,1
24.600,8,9,-2.209,0.187,2.079,0.110,0.057,-0.787,-2.500,0.000,2.100,-0.800,0.347,0.013,0
24.650,8,9,-2.189,0.201,2.070,0.061,-0.006,-0.795,-2.500,0.000,2.100,-0.800,0.372,0.005,0
24.700,8,9,-2.187,0.193,2.076,0.053,0.012,-0.790,-2.500,0.000,2.100,-0.800,0.369,0.010,0
24.750,8,9,-2.203,0.169,2.080,0.032,-0.007,-0.794,-2.500,0.000,2.100,-0.800,0.342,0.006,0
24.800,8,9,-2.230,0.136,2.078,0.007,-0.004,-0.799,-2.500,0.000,2.100,-0.800,0.303,0.001,0
24.850,8,9,-2.260,0.103,2.074,-0.025,-0.015,-0.803,-2.500,0.000,2.100,-0.800,0.263,0.003,1
24.900,8,9,-2.287,0.080,2.069,-0.022,0.011,-0.809,-2.500,0.000,2.100,-0.800,0.230,0.009,1
24.950,8,9,-2.306,0.062,2.066,-0.031,0.007,-0.812,-2.500,0.000,2.100,-0.800,0.206,0.012,1
25.000,8,9,-2.316,0.053,2.065,-0.050,-0.018,-0.808,-2.500,0.000,2.100,-0.800,0.195,0.008,1
25.050,8,9,-2.317,0.058,2.062,-0.017,0.020,-0.811,-2.500,0.000,2.100,-0.800,0.195,0.011,1
25.100,8,9,-2.311,0.069,2.067,-0.018,0.000,-0.807,-2.500,0.000,2.100,-0.800,0.204,0.007,1
25.150,8,9,-2.299,0.086,2.068,0.001,-0.010,-0.803,-2.500,0.000,2.100,-0.800,0.221,0.003,1
25.200,8,9,-2.286,0.101,2.067,0.019,0.020,-0.802,-2.500,0.000,2.100,-0.800,0.239,0.002,1
25.250,8,9,-2.276,0.109,2.057,0.035,0.022,-0.802,-2.500,0.000,2.100,-0.800,0.253,0.002,1
25.300,8,9,-2.270,0.107,2.059,0.002,-0.026,-0.801,-2.500,0.000,2.100,-0.800,0.257,0.001,1
25.350,8,9,-2.271,0.108,2.061,-0.003,-0.006,-0.801,-2.500,0.000,2.100,-0.800,0.256,0.001,1
25.400,8,9,-2.274,0.113,2.066,0.014,0.040,-0.803,-2.500,0.000,2.100,-0.800,0.255,0.003,1
25.450,8,9,-2.275,0.111,2.060,0.008,0.011,-0.803,-2.500,0.000,2.100,-0.800,0.254,0.003,1
25.500,8,9,-2.277,0.107,2.065,-0.027,-0.025,-0.798,-2.500,0.000,2.100,-0.800,0.250,0.002,1
25.550,8,9,-2.275,0.108,2.073,-0.001,0.008,-0.799,-2.500,0.000,2.100,-0.800,0.251,0.001,1
25.600,8,9,-2.275,0.108,2.074,-0.007,-0.005,-0.802,-2.500,0.000,2.100,-0.800,0.251,0.002,1
25.650,8,9,-2.276,0.110,2.070,-0.003,0.007,-0.806,-2.500,0.000,2.100,-0.800,0.251,0.006,1
25.700,8,9,-2.277,0.109,2.068,-0.009,-0.019,-0.805,-2.500,0.000,2.100,-0.800,0.251,0.005,1
25.750,8,9,-2.278,0.111,2.069,-0.026,0.033,-0.800,-2.500,0.000,2.100,-0.800,0.250,0.000,1
25.800,8,9,-2.276,0.110,2.067,-0.025,-0.033,-0.799,-2.500,0.000,2.100,-0.800,0.252,0.001,1
25.850,8,9,-2.276,0.116,2.069,-0.003,0.004,-0.802,-2.500,0.000,2.100,-0.800,0.254,0.002,1
25.900,8,9,-2.277,0.121,2.067,0.014,0.019,-0.802,-2.500,0.000,2.100,-0.800,0.256,0.002,1
25.950,8,9,-2.275,0.119,2.069,0.012,0.007,-0.799,-2.500,0.000,2.100,-0.800,0.256,0.001,1
26.000,8,9,-2.274,0.113,2.071,0.004,0.031,-0.805,-2.500,0.000,2.100,-0.800,0.255,0.005,1
26.050,8,9,-2.271,0.108,2.064,-0.006,-0.043,-0.794,-2.500,0.000,2.100,-0.800,0.255,0.006,1
26.100,8,9,-2.273,0.110,2.066,-0.011,0.001,-0.804,-2.500,0.000,2.100,-0.800,0.254,0.004,1
26.150,8,9,-2.275,0.114,2.067,0.011,0.017,-0.801,-2.500,0.000,2.100,-0.800,0.254,0.001,1
26.200,8,9,-2.278,0.112,2.066,0.000,0.010,-0.805,-2.500,0.000,2.100,-0.800,0.251,0.005,1
26.250,8,9,-2.280,0.108,2.073,-0.003,-0.001,-0.803,-2.500,0.000,2.100,-0.800,0.247,0.003,1
26.300,8,9,-2.281,0.104,2.071,0.003,0.004,-0.802,-2.500,0.000,2.100,-0.800,0.244,0.002,1
26.350,8,9,-2.281,0.102,2.068,-0.019,0.029,-0.806,-2.500,0.000,2.100,-0.800,0.244,0.006,1
26.400,8,9,-2.279,0.102,2.062,-0.006,-0.010,-0.798,-2.500,0.000,2.100,-0.800,0.247,0.002,1
26.450,8,9,-2.277,0.101,2.062,0.031,0.038,-0.803,-2.500,0.000,2.100,-0.800,0.248,0.003,1
26.500,8,9,-2.277,0.096,2.062,-0.023,-0.027,-0.797,-2.500,0.000,2.100,-0.800,0.246,0.003,1
26.550,8,9,-2.273,0.098,2.058,0.023,0.010,-0.805,-2.500,0.000,2.100,-0.800,0.250,0.005,1
26.600,8,9,-2.271,0.092,2.058,0.001,-0.020,-0.802,-2.500,0.000,2.100,-0.800,0.250,0.002,1
26.650,8,9,-2.272,0.086,2.063,-0.000,-0.012,-0.803,-2.500,0.000,2.100,-0.800,0.246,0.003,1
26.700,8,9,-2.275,0.084,2.067,-0.018,-0.012,-0.803,-2.500,0.000,2.100,-0.800,0.242,0.003,1
26.750,8,9,-2.278,0.086,2.067,-0.009,0.008,-0.804,-2.500,0.000,2.100,-0.800,0.241,0.004,1
26.800,8,9,-2.280,0.089,2.069,-0.014,-0.003,-0.806,-2.500,0.000,2.100,-0.800,0.239,0.006,1
26.850,9,10,-2.185,0.037,2.050,-0.400,0.973,-1.957,0.000,-2.500,1.300,-1.200,3.431,0.757,0
26.900,9,10,-1.877,-0.391,1.916,-0.651,0.575,-1.524,0.000,-2.500,1.300,-1.200,2.889,0.324,0
26.950,9,10,-1.239,-1.092,1.863,-0.645,0.069,-1.233,0.000,-2.500,1.300,-1.200,1.958,0.033,0
27.000,9,10,-0.362,-1.758,1.844,-0.750,0.067,-0.986,0.000,-2.500,1.300,-1.200,0.989,0.214,0
27.050,9,10,0.651,-2.260,1.678,-1.085,-0.243,-0.236,0.000,-2.500,1.300,-1.200,0.790,0.964,0
27.100,9,10,1.584,-2.283,1.357,-0.106,-0.513,0.402,0.000,-2.500,1.300,-1.200,1.600,1.602,0
27.150,9,10,2.147,-2.264,1.075,-0.179,-0.870,-0.632,0.000,-2.500,1.300,-1.200,2.171,0.568,0
27.200,9,10,2.338,-2.096,0.834,0.760,-0.364,-0.979,0.000,-2.500,1.300,-1.200,2.418,0.221,0
27.250,9,10,2.055,-2.003,0.695,0.393,-0.227,-0.925,0.000,-2.500,1.300,-1.200,2.199,0.275,0
27.300,9,10,1.419,-2.075,0.800,0.777,0.004,-0.762,0.000,-2.500,1.300,-1.200,1.563,0.438,0
27.350,9,10,0.503,-2.431,1.006,0.711,0.597,-0.558,0.000,-2.500,1.300,-1.200,0.586,0.642,0
27.400,9,10,-0.373,-2.883,0.950,-0.301,0.365,-0.923,0.000,-2.500,1.300,-1.200,0.639,0.277,0
27.450,9,10,-1.007,-3.379,0.985,-0.286,0.055,-1.148,0.000,-2.500,1.300,-1.200,1.373,0.052,0
27.500,9,10,-1.434,-3.760,1.123,-0.494,-0.135,-1.267,0.000,-2.500,1.300,-1.200,1.917,0.067,0
27.550,9,10,-1.555,-3.911,1.427,-0.686,-0.237,-1.246,0.000,-2.500,1.300,-1.200,2.104,0.046,0
27.600,9,10,-1.411,-3.890,1.706,-0.450,-0.301,-1.165,0.000,-2.500,1.300,-1.200,2.022,0.035,0
27.650,9,10,-1.135,-3.742,1.827,-0.320,-0.407,-1.097,0.000,-2.500,1.300,-1.200,1.763,0.103,0
27.700,9,10,-0.778,-3.411,1.837,-0.226,-0.491,-1.057,0.000,-2.500,1.300,-1.200,1.313,0.143,0
27.750,9,10,-0.409,-2.916,1.726,-0.085,-0.179,-1.072,0.000,-2.500,1.300,-1.200,0.722,0.128,0
27.800,9,10,-0.085,-2.344,1.591,0.251,0.016,-0.985,0.000,-2.500,1.300,-1.200,0.341,0.215,0
27.850,9,10,0.134,-1.848,1.535,0.333,0.169,-0.991,0.000,-2.500,1.300,-1.200,0.706,0.209,0
27.900,9,10,0.246,-1.537,1.588,0.323,0.357,-1.055,0.000,-2.500,1.300,-1.200,1.035,0.145,0
27.950,9,10,0.295,-1.437,1.673,0.217,0.406,-1.172,0.000,-2.500,1.300,-1.200,1.165,0.028,0
28.000,9,10,0.308,-1.514,1.717,0.185,0.287,-1.226,0.000,-2.500,1.300,-1.200,1.114,0.026,0
28.050,9,10,0.287,-1.706,1.692,0.202,0.199,-1.223,0.000,-2.500,1.300,-1.200,0.931,0.023,0
28.100,9,10,0.231,-1.974,1.629,0.070,0.060,-1.203,0.000,-2.500,1.300,-1.200,0.662,0.003,0
28.150,9,10,0.155,-2.268,1.536,0.027,-0.025,-1.192,0.000,-2.500,1.300,-1.200,0.365,0.008,0
28.200,9,10,0.068,-2.552,1.462,-0.075,-0.128,-1.185,0.000,-2.500,1.300,-1.200,0.184,0.015,1
28.250,9,10,-0.007,-2.772,1.414,-0.152,-0.192,-1.182,0.000,-2.500,1.300,-1.200,0.295,0.018,1
28.300,9,10,-0.053,-2.895,1.390,-0.168,-0.201,-1.184,0.000,-2.500,1.300,-1.200,0.409,0.016,0
28.350,9,10,-0.063,-2.914,1.389,-0.158,-0.192,-1.187,0.000,-2.500,1.300,-1.200,0.428,0.013,0
28.400,9,10,-0.045,-2.840,1.385,-0.111,-0.167,-1.187,0.000,-2.500,1.300,-1.200,0.353,0.013,0
28.450,9,10,-0.012,-2.694,1.367,-0.064,-0.114,-1.187,0.000,-2.500,1.300,-1.200,0.206,0.013,1
28.500,9,10,0.023,-2.506,1.347,0.016,-0.017,-1.187,0.000,-2.500,1.300,-1.200,0.053,0.013,1
28.550,9,10,0.049,-2.315,1.335,0.010,0.054,-1.193,0.000,-2.500,1.300,-1.200,0.194,0.007,1
28.600,9,10,0.074,-2.155,1.335,0.033,0.123,-1.203,0.000,-2.500,1.300,-1.200,0.354,0.003,0
28.650,9,10,0.098,-2.054,1.347,0.099,0.183,-1.204,0.000,-2.500,1.300,-1.200,0.459,0.004,0
28.700,9,10,0.116,-2.023,1.358,0.073,0.153,-1.216,0.000,-2.500,1.300,-1.200,0.495,0.016,0
28.750,9,10,0.127,-2.055,1.374,0.048,0.092,-1.216,0.000,-2.500,1.300,-1.200,0.468,0.016,0
28.800,9,10,0.128,-2.132,1.366,0.058,0.072,-1.207,0.000,-2.500,1.300,-1.200,0.395,0.007,0
28.850,9,10,0.118,-2.237,1.351,-0.006,-0.012,-1.197,0.000,-2.500,1.300,-1.200,0.293,0.003,1
28.900,9,10,0.097,-2.348,1.345,-0.002,-0.032,-1.195,0.000,-2.500,1.300,-1.200,0.186,0.005,1
28.950,9,10,0.072,-2.443,1.324,-0.089,-0.097,-1.180,0.000,-2.500,1.300,-1.200,0.095,0.020,1
29.000,9,10,0.049,-2.511,1.316,-0.055,-0.078,-1.199,0.000,-2.500,1.300,-1.200,0.053,0.001,1
29.050,9,10,0.034,-2.545,1.320,-0.063,-0.080,-1.203,0.000,-2.500,1.300,-1.200,0.060,0.003,1
29.100,9,10,0.031,-2.543,1.314,-0.069,-0.072,-1.202,0.000,-2.500,1.300,-1.200,0.055,0.002,1
29.150,9,10,0.040,-2.510,1.310,0.048,-0.004,-1.204,0.000,-2.500,1.300,-1.200,0.042,0.004,1
29.200,9,10,0.049,-2.462,1.302,-0.052,-0.030,-1.202,0.000,-2.500,1.300,-1.200,0.062,0.002,1
29.250,9,10,0.066,-2.401,1.309,0.005,0.003,-1.201,0.000,-2.500,1.300,-1.200,0.120,0.001,1
29.300,9,10,0.085,-2.340,1.310,-0.008,0.012,-1.201,0.000,-2.500,1.300,-1.200,0.182,0.001,1
29.350,9,10,0.102,-2.289,1.313,0.034,0.036,-1.201,0.000,-2.500,1.300,-1.200,0.235,0.001,1
29.400,9,10,0.115,-2.257,1.309,0.039,0.053,-1.201,0.000,-2.500,1.300,-1.200,0.270,0.001,1
29.450,9,10,0.125,-2.245,1.319,0.010,0.035,-1.198,0.000,-2.500,1.300,-1.200,0.284,0.002,1
29.500,9,10,0.132,-2.252,1.326,0.050,0.024,-1.196,0.000,-2.500,1.300,-1.200,0.282,0.004,1
29.550,9,10,0.132,-2.274,1.332,0.027,0.028,-1.199,0.000,-2.500,1.300,-1.200,0.263,0.001,1
29.600,9,10,0.127,-2.305,1.328,0.005,0.002,-1.197,0.000,-2.500,1.300,-1.200,0.235,0.003,1
29.650,9,10,0.117,-2.339,1.322,-0.014,-0.029,-1.201,0.000,-2.500,1.300,-1.200,0.200,0.001,1
29.700,9,10,0.103,-2.370,1.319,0.003,-0.006,-1.200,0.000,-2.500,1.300,-1.200,0.167,0.000,1
29.750,9,10,0.091,-2.394,1.315,-0.001,-0.023,-1.202,0.000,-2.500,1.300,-1.200,0.140,0.002,1
29.800,9,10,0.080,-2.408,1.313,-0.051,-0.034,-1.202,0.000,-2.500,1.300,-1.200,0.123,0.002,1
29.850,9,10,0.078,-2.410,1.317,-0.031,-0.022,-1.198,0.000,-2.500,1.300,-1.200,0.120,0.002,1
29.900,9,10,0.077,-2.406,1.310,-0.024,-0.023,-1.205,0.000,-2.500,1.300,-1.200,0.122,0.005,1
29.950,9,10,0.075,-2.398,1.310,-0.037,-0.025,-1.202,0.000,-2.500,1.300,-1.200,0.127,0.002,1
