time,drone_x,drone_y,drone_z,drone_roll,drone_pitch,drone_yaw,target_x,target_y,target_z,target_direction,distance_to_target,aiming_error,desired_x,desired_y,desired_z,desired_yaw
0.000,-0.000,0.000,0.999,-0.059,-0.059,0.015,0.000,0.000,2.000,0.785,1.001,0.793,-0.354,-0.354,2.000,0.000
0.050,-0.036,-0.005,1.140,0.053,-0.069,0.302,0.025,0.025,2.004,0.785,0.867,0.156,-0.329,-0.329,2.004,0.458
0.100,-0.107,-0.046,1.417,0.004,0.019,0.525,0.050,0.050,2.008,0.785,0.619,0.022,-0.304,-0.303,2.008,0.548
0.150,-0.174,-0.084,1.576,-0.014,0.037,0.604,0.075,0.075,2.012,0.785,0.527,0.035,-0.279,-0.278,2.012,0.571
0.200,-0.232,-0.112,1.699,0.003,0.035,0.613,0.100,0.100,2.017,0.784,0.506,0.045,-0.254,-0.253,2.017,0.571
0.250,-0.279,-0.133,1.802,0.000,0.041,0.595,0.125,0.125,2.021,0.784,0.527,0.027,-0.229,-0.228,2.021,0.569
0.300,-0.316,-0.146,1.861,-0.005,0.036,0.578,0.150,0.150,2.025,0.783,0.576,0.012,-0.204,-0.203,2.025,0.568
0.350,-0.341,-0.152,1.914,-0.003,0.023,0.567,0.175,0.175,2.029,0.782,0.621,0.002,-0.180,-0.178,2.029,0.566
0.400,-0.355,-0.150,1.954,-0.005,0.038,0.554,0.200,0.199,2.033,0.782,0.661,0.008,-0.155,-0.153,2.033,0.563
0.450,-0.357,-0.141,1.985,0.003,0.025,0.536,0.225,0.224,2.037,0.781,0.689,0.024,-0.130,-0.128,2.037,0.562
0.500,-0.349,-0.128,2.005,0.001,0.021,0.522,0.250,0.249,2.042,0.780,0.708,0.040,-0.106,-0.103,2.042,0.563
0.550,-0.333,-0.111,2.016,-0.004,0.020,0.514,0.275,0.273,2.046,0.778,0.719,0.050,-0.081,-0.078,2.046,0.565
0.600,-0.311,-0.090,2.025,-0.004,0.013,0.511,0.300,0.298,2.050,0.777,0.723,0.055,-0.057,-0.053,2.050,0.567
0.650,-0.284,-0.065,2.038,-0.006,0.005,0.512,0.324,0.322,2.054,0.776,0.722,0.055,-0.033,-0.028,2.054,0.568
0.700,-0.256,-0.040,2.042,-0.002,-0.000,0.511,0.349,0.347,2.058,0.774,0.719,0.057,-0.008,-0.003,2.058,0.569
0.750,-0.228,-0.014,2.045,-0.007,-0.002,0.507,0.374,0.371,2.062,0.773,0.715,0.063,0.016,0.022,2.062,0.571
0.800,-0.198,0.012,2.047,-0.008,-0.002,0.506,0.399,0.395,2.067,0.771,0.710,0.064,0.040,0.047,2.067,0.571
0.850,-0.170,0.039,2.051,-0.006,-0.004,0.505,0.424,0.419,2.071,0.769,0.705,0.066,0.064,0.072,2.071,0.571
0.900,-0.144,0.066,2.040,-0.011,-0.005,0.510,0.448,0.443,2.075,0.767,0.703,0.058,0.088,0.096,2.075,0.569
0.950,-0.121,0.096,2.046,-0.004,-0.009,0.509,0.473,0.467,2.079,0.765,0.701,0.050,0.112,0.121,2.079,0.561
1.000,-0.099,0.126,2.043,-0.002,0.008,0.499,0.498,0.491,2.083,0.763,0.700,0.050,0.136,0.145,2.083,0.551
1.050,-0.076,0.157,2.052,-0.002,0.000,0.490,0.522,0.514,2.087,0.760,0.698,0.050,0.160,0.170,2.087,0.541
1.100,-0.051,0.187,2.059,-0.000,-0.005,0.483,0.547,0.538,2.092,0.758,0.694,0.047,0.184,0.194,2.092,0.532
1.150,-0.027,0.216,2.066,-0.004,-0.004,0.477,0.571,0.561,2.096,0.755,0.692,0.046,0.207,0.218,2.096,0.525
1.200,-0.004,0.242,2.072,0.001,-0.006,0.467,0.596,0.584,2.100,0.753,0.691,0.051,0.231,0.242,2.100,0.520
1.250,0.020,0.267,2.077,0.003,-0.007,0.461,0.620,0.607,2.104,0.750,0.691,0.055,0.255,0.266,2.104,0.517
1.300,0.043,0.290,2.081,0.005,-0.002,0.455,0.645,0.630,2.108,0.747,0.692,0.058,0.278,0.290,2.108,0.515
1.350,0.065,0.312,2.083,-0.001,0.001,0.455,0.669,0.652,2.112,0.744,0.694,0.059,0.301,0.314,2.112,0.514
1.400,0.087,0.333,2.087,-0.002,0.000,0.454,0.694,0.675,2.116,0.741,0.697,0.059,0.325,0.337,2.116,0.514
1.450,0.108,0.353,2.088,-0.003,-0.004,0.455,0.718,0.697,2.121,0.737,0.701,0.059,0.348,0.361,2.121,0.514
1.500,0.129,0.374,2.096,0.001,-0.003,0.455,0.742,0.719,2.125,0.734,0.705,0.058,0.371,0.384,2.125,0.514
1.550,0.150,0.394,2.100,-0.002,-0.002,0.453,0.766,0.741,2.129,0.730,0.708,0.059,0.394,0.407,2.129,0.513
1.600,0.171,0.415,2.104,-0.001,0.001,0.451,0.791,0.763,2.133,0.726,0.711,0.060,0.417,0.430,2.133,0.512
1.650,0.192,0.436,2.106,0.003,0.005,0.448,0.815,0.784,2.137,0.723,0.714,0.062,0.440,0.453,2.137,0.510
1.700,0.214,0.458,2.107,-0.002,0.005,0.445,0.839,0.805,2.141,0.718,0.716,0.062,0.462,0.476,2.141,0.508
1.750,0.236,0.481,2.111,-0.003,0.002,0.444,0.863,0.826,2.145,0.714,0.716,0.060,0.485,0.499,2.145,0.505
1.800,0.259,0.503,2.111,-0.001,-0.004,0.442,0.887,0.847,2.149,0.710,0.716,0.059,0.507,0.521,2.149,0.502
1.850,0.281,0.526,2.119,-0.004,-0.001,0.439,0.910,0.867,2.154,0.705,0.717,0.059,0.530,0.543,2.154,0.499
1.900,0.304,0.548,2.126,-0.001,-0.003,0.435,0.934,0.888,2.158,0.701,0.717,0.059,0.552,0.565,2.158,0.496
1.950,0.326,0.569,2.131,-0.000,-0.001,0.433,0.958,0.908,2.162,0.696,0.717,0.059,0.574,0.587,2.162,0.493
2.000,0.348,0.591,2.134,0.004,0.004,0.429,0.982,0.928,2.166,0.691,0.718,0.059,0.596,0.609,2.166,0.490
2.050,0.370,0.612,2.136,-0.001,0.003,0.424,1.005,0.947,2.170,0.685,0.719,0.061,0.618,0.631,2.170,0.486
2.100,0.393,0.635,2.140,-0.000,0.000,0.420,1.029,0.966,2.174,0.680,0.718,0.060,0.640,0.652,2.174,0.482
2.150,0.416,0.658,2.141,-0.003,0.004,0.415,1.052,0.985,2.178,0.674,0.717,0.060,0.662,0.673,2.178,0.477
2.200,0.439,0.681,2.145,-0.001,-0.002,0.412,1.076,1.004,2.182,0.669,0.715,0.058,0.683,0.694,2.182,0.471
2.250,0.461,0.703,2.147,-0.001,-0.005,0.408,1.099,1.022,2.186,0.663,0.714,0.056,0.705,0.715,2.186,0.466
2.300,0.483,0.724,2.155,0.000,-0.003,0.403,1.122,1.041,2.190,0.657,0.714,0.056,0.726,0.735,2.190,0.461
2.350,0.504,0.746,2.161,0.004,-0.002,0.398,1.145,1.058,2.195,0.650,0.714,0.056,0.747,0.756,2.195,0.455
2.400,0.526,0.767,2.166,0.000,-0.004,0.392,1.168,1.076,2.199,0.644,0.714,0.056,0.768,0.776,2.199,0.449
2.450,0.547,0.789,2.169,-0.001,-0.002,0.384,1.191,1.093,2.203,0.637,0.713,0.057,0.789,0.796,2.203,0.443
2.500,0.569,0.811,2.171,-0.002,0.003,0.376,1.214,1.110,2.207,0.630,0.712,0.059,0.810,0.816,2.207,0.436
2.550,0.592,0.832,2.166,0.002,-0.002,0.371,1.237,1.127,2.211,0.623,0.711,0.057,0.831,0.835,2.211,0.430
2.600,0.613,0.853,2.169,0.000,0.001,0.365,1.260,1.143,2.215,0.615,0.710,0.057,0.851,0.855,2.215,0.423
2.650,0.635,0.874,2.172,-0.000,-0.000,0.358,1.282,1.159,2.219,0.607,0.709,0.057,0.872,0.874,2.219,0.417
2.700,0.657,0.894,2.172,-0.002,-0.002,0.352,1.305,1.175,2.223,0.599,0.708,0.057,0.892,0.893,2.223,0.411
2.750,0.679,0.914,2.180,0.001,-0.004,0.347,1.327,1.190,2.227,0.591,0.707,0.056,0.912,0.912,2.227,0.405
2.800,0.701,0.933,2.185,-0.001,-0.003,0.341,1.350,1.205,2.231,0.583,0.705,0.057,0.932,0.930,2.231,0.399
2.850,0.723,0.952,2.189,0.002,-0.003,0.335,1.372,1.220,2.235,0.574,0.704,0.057,0.952,0.949,2.235,0.393
2.900,0.745,0.971,2.187,-0.001,0.005,0.327,1.394,1.234,2.239,0.565,0.702,0.060,0.972,0.967,2.239,0.388
2.950,0.768,0.989,2.184,0.000,0.001,0.322,1.416,1.249,2.243,0.556,0.700,0.059,0.992,0.985,2.243,0.382
3.000,0.791,1.008,2.189,-0.000,-0.002,0.317,1.438,1.262,2.247,0.546,0.698,0.057,1.011,1.003,2.247,0.375
3.050,0.813,1.026,2.193,-0.001,-0.002,0.311,1.460,1.276,2.251,0.536,0.696,0.056,1.030,1.020,2.251,0.369
3.100,0.834,1.044,2.197,-0.002,-0.002,0.305,1.482,1.289,2.255,0.526,0.695,0.055,1.050,1.037,2.255,0.362
3.150,0.854,1.062,2.201,-0.004,-0.003,0.299,1.504,1.301,2.259,0.515,0.695,0.055,1.069,1.055,2.259,0.355
3.200,0.874,1.079,2.212,-0.002,-0.002,0.292,1.525,1.313,2.264,0.505,0.694,0.053,1.088,1.072,2.264,0.347
3.250,0.893,1.096,2.216,-0.001,0.002,0.285,1.547,1.325,2.268,0.494,0.694,0.052,1.106,1.088,2.268,0.339
3.300,0.912,1.113,2.218,0.001,0.001,0.277,1.568,1.337,2.272,0.482,0.695,0.052,1.125,1.105,2.272,0.330
3.350,0.930,1.129,2.219,0.000,0.001,0.269,1.589,1.348,2.276,0.470,0.697,0.052,1.144,1.121,2.276,0.322
3.400,0.949,1.146,2.219,-0.001,0.001,0.261,1.610,1.359,2.280,0.458,0.697,0.051,1.162,1.138,2.280,0.313
3.450,0.968,1.163,2.228,0.001,-0.002,0.254,1.632,1.369,2.284,0.445,0.697,0.048,1.180,1.154,2.284,0.303
3.500,0.987,1.179,2.234,0.005,-0.001,0.245,1.652,1.379,2.288,0.432,0.697,0.047,1.198,1.170,2.288,0.294
3.550,1.005,1.195,2.240,-0.000,-0.003,0.236,1.673,1.389,2.292,0.419,0.698,0.047,1.217,1.185,2.292,0.284
3.600,1.024,1.211,2.243,-0.003,-0.003,0.225,1.694,1.398,2.296,0.405,0.697,0.048,1.234,1.201,2.296,0.274
3.650,1.044,1.226,2.246,-0.001,0.002,0.214,1.715,1.407,2.299,0.391,0.697,0.049,1.252,1.216,2.299,0.264
3.700,1.064,1.242,2.244,0.002,0.004,0.203,1.735,1.415,2.303,0.377,0.696,0.050,1.270,1.231,2.303,0.254
3.750,1.085,1.258,2.248,-0.001,-0.005,0.193,1.755,1.423,2.307,0.362,0.693,0.050,1.288,1.246,2.307,0.244
3.800,1.107,1.273,2.250,0.001,-0.001,0.184,1.776,1.431,2.311,0.346,0.689,0.048,1.305,1.261,2.311,0.233
3.850,1.129,1.289,2.252,0.001,-0.000,0.173,1.796,1.438,2.315,0.331,0.686,0.048,1.323,1.276,2.315,0.222
3.900,1.152,1.303,2.249,-0.003,-0.002,0.160,1.816,1.445,2.319,0.314,0.682,0.050,1.340,1.291,2.319,0.212
3.950,1.175,1.318,2.256,0.001,-0.005,0.152,1.835,1.452,2.323,0.298,0.677,0.048,1.357,1.305,2.323,0.201
4.000,1.197,1.332,2.258,0.003,-0.003,0.143,1.855,1.458,2.327,0.280,0.673,0.046,1.375,1.319,2.327,0.190
4.050,1.218,1.345,2.260,0.002,-0.002,0.133,1.875,1.464,2.331,0.263,0.671,0.045,1.392,1.334,2.331,0.180
4.100,1.238,1.358,2.262,0.001,-0.002,0.123,1.894,1.469,2.335,0.245,0.670,0.044,1.409,1.348,2.335,0.169
4.150,1.257,1.371,2.264,0.000,0.001,0.112,1.913,1.474,2.339,0.226,0.669,0.043,1.426,1.362,2.339,0.157
4.200,1.275,1.383,2.265,-0.000,-0.000,0.101,1.933,1.478,2.343,0.207,0.669,0.042,1.443,1.375,2.343,0.145
4.250,1.294,1.396,2.279,-0.009,-0.006,0.092,1.952,1.482,2.347,0.188,0.667,0.039,1.460,1.389,2.347,0.132
4.300,1.311,1.409,2.273,0.003,-0.002,0.082,1.971,1.486,2.351,0.168,0.668,0.034,1.478,1.402,2.351,0.118
4.350,1.328,1.422,2.281,-0.002,-0.004,0.068,1.989,1.489,2.355,0.147,0.669,0.032,1.495,1.416,2.355,0.102
4.400,1.345,1.435,2.289,-0.003,-0.004,0.054,2.008,1.492,2.359,0.126,0.669,0.031,1.512,1.429,2.359,0.087
4.450,1.361,1.448,2.296,0.000,0.002,0.037,2.027,1.494,2.362,0.105,0.670,0.032,1.529,1.442,2.362,0.071
4.500,1.378,1.460,2.299,0.003,0.005,0.021,2.045,1.496,2.366,0.083,0.671,0.033,1.547,1.455,2.366,0.055
4.550,1.396,1.472,2.301,0.001,0.004,0.005,2.063,1.498,2.370,0.061,0.671,0.034,1.564,1.467,2.370,0.040
4.600,1.415,1.483,2.304,0.003,0.005,-0.011,2.081,1.499,2.374,0.038,0.670,0.034,1.582,1.480,2.374,0.025
4.650,1.434,1.493,2.306,0.002,0.003,-0.025,2.099,1.500,2.378,0.015,0.669,0.035,1.599,1.492,2.378,0.011
4.700,1.454,1.503,2.308,0.002,0.002,-0.039,2.117,1.500,2.382,-0.008,0.667,0.035,1.617,1.504,2.382,-0.003
4.750,1.474,1.512,2.311,0.001,0.001,-0.053,2.135,1.500,2.386,-0.032,0.665,0.035,1.635,1.516,2.386,-0.017
4.800,1.494,1.520,2.315,0.001,0.000,-0.066,2.152,1.499,2.389,-0.056,0.662,0.034,1.653,1.528,2.389,-0.030
4.850,1.515,1.528,2.319,0.001,-0.001,-0.079,2.169,1.498,2.393,-0.081,0.660,0.034,1.671,1.539,2.393,-0.044
4.900,1.535,1.536,2.323,-0.003,-0.003,-0.092,2.187,1.497,2.397,-0.106,0.657,0.033,1.689,1.550,2.397,-0.058
4.950,1.554,1.543,2.328,-0.003,-0.005,-0.106,2.204,1.495,2.401,-0.131,0.655,0.033,1.708,1.561,2.401,-0.072
5.000,1.574,1.550,2.333,0.002,-0.001,-0.120,2.221,1.493,2.405,-0.157,0.653,0.032,1.727,1.571,2.405,-0.086
5.050,1.593,1.557,2.334,0.003,0.001,-0.134,2.237,1.491,2.409,-0.182,0.652,0.032,1.746,1.581,2.409,-0.101
5.100,1.612,1.564,2.336,-0.000,-0.000,-0.148,2.254,1.487,2.412,-0.208,0.651,0.030,1.765,1.591,2.412,-0.117
5.150,1.630,1.571,2.338,0.001,0.002,-0.164,2.270,1.484,2.416,-0.234,0.650,0.029,1.784,1.600,2.416,-0.134
5.200,1.649,1.578,2.340,0.001,0.001,-0.179,2.287,1.480,2.420,-0.261,0.650,0.027,1.803,1.609,2.420,-0.151
5.250,1.668,1.585,2.343,0.001,0.001,-0.195,2.303,1.476,2.424,-0.287,0.649,0.026,1.823,1.618,2.424,-0.168
5.300,1.687,1.591,2.346,0.001,0.001,-0.212,2.319,1.471,2.427,-0.313,0.648,0.024,1.843,1.625,2.427,-0.186
5.350,1.706,1.598,2.349,0.001,0.001,-0.230,2.334,1.466,2.431,-0.340,0.647,0.023,1.863,1.633,2.431,-0.205
5.400,1.726,1.603,2.352,-0.000,0.001,-0.247,2.350,1.461,2.435,-0.366,0.646,0.022,1.883,1.640,2.435,-0.223
5.450,1.745,1.609,2.356,-0.003,-0.000,-0.265,2.365,1.455,2.439,-0.393,0.644,0.022,1.903,1.646,2.439,-0.242
5.500,1.765,1.614,2.360,-0.001,-0.003,-0.283,2.381,1.449,2.442,-0.419,0.643,0.021,1.924,1.652,2.442,-0.260
5.550,1.784,1.618,2.365,0.003,-0.001,-0.301,2.396,1.442,2.446,-0.445,0.642,0.021,1.945,1.657,2.446,-0.279
5.600,1.803,1.622,2.366,0.004,-0.000,-0.318,2.411,1.435,2.450,-0.471,0.642,0.019,1.965,1.662,2.450,-0.297
5.650,1.821,1.625,2.366,0.002,0.000,-0.335,2.426,1.427,2.454,-0.497,0.643,0.019,1.986,1.666,2.454,-0.315
5.700,1.839,1.628,2.365,0.002,0.002,-0.353,2.440,1.419,2.457,-0.523,0.643,0.019,2.007,1.669,2.457,-0.333
5.750,1.857,1.630,2.382,0.005,-0.002,-0.370,2.455,1.411,2.461,-0.548,0.641,0.019,2.028,1.672,2.461,-0.351
5.800,1.875,1.633,2.379,0.002,0.000,-0.387,2.469,1.403,2.465,-0.573,0.643,0.017,2.049,1.674,2.465,-0.369
5.850,1.893,1.635,2.380,0.002,0.005,-0.407,2.483,1.393,2.468,-0.598,0.644,0.019,2.070,1.675,2.468,-0.387
5.900,1.911,1.636,2.380,0.001,-0.001,-0.425,2.497,1.384,2.472,-0.623,0.645,0.019,2.091,1.676,2.472,-0.404
5.950,1.929,1.636,2.387,-0.002,-0.000,-0.441,2.511,1.374,2.476,-0.647,0.644,0.018,2.112,1.675,2.476,-0.422
6.000,1.947,1.636,2.394,0.001,-0.000,-0.459,2.524,1.364,2.479,-0.671,0.644,0.019,2.133,1.675,2.479,-0.439
6.050,1.965,1.634,2.398,0.001,0.000,-0.478,2.538,1.353,2.483,-0.694,0.643,0.022,2.153,1.673,2.483,-0.455
6.100,1.983,1.632,2.398,0.003,-0.000,-0.492,2.551,1.342,2.487,-0.717,0.644,0.020,2.174,1.671,2.487,-0.471
6.150,2.000,1.631,2.398,0.001,-0.002,-0.506,2.564,1.331,2.490,-0.740,0.645,0.018,2.195,1.668,2.490,-0.487
6.200,2.017,1.628,2.400,-0.001,-0.001,-0.525,2.577,1.319,2.494,-0.762,0.646,0.021,2.215,1.665,2.494,-0.503
6.250,2.034,1.625,2.406,0.002,0.000,-0.540,2.590,1.307,2.498,-0.784,0.647,0.020,2.236,1.660,2.498,-0.519
6.300,2.051,1.622,2.408,0.003,0.000,-0.554,2.602,1.295,2.501,-0.805,0.648,0.017,2.256,1.655,2.501,-0.535
6.350,2.067,1.620,2.408,0.001,-0.001,-0.569,2.615,1.282,2.505,-0.827,0.650,0.015,2.276,1.650,2.505,-0.552
6.400,2.084,1.617,2.408,0.001,0.004,-0.589,2.627,1.269,2.508,-0.847,0.652,0.018,2.296,1.644,2.508,-0.569
6.450,2.102,1.613,2.415,-0.000,-0.002,-0.608,2.639,1.255,2.512,-0.867,0.652,0.021,2.315,1.637,2.512,-0.586
6.500,2.119,1.608,2.421,0.003,-0.001,-0.623,2.651,1.241,2.516,-0.887,0.652,0.019,2.335,1.629,2.516,-0.603
6.550,2.136,1.603,2.426,0.003,-0.003,-0.637,2.662,1.227,2.519,-0.907,0.653,0.016,2.354,1.621,2.519,-0.620
6.600,2.152,1.599,2.430,0.003,-0.001,-0.652,2.674,1.213,2.523,-0.925,0.656,0.014,2.373,1.612,2.523,-0.637
6.650,2.167,1.595,2.433,-0.000,-0.001,-0.669,2.685,1.198,2.526,-0.944,0.659,0.014,2.392,1.603,2.526,-0.654
6.700,2.182,1.592,2.434,-0.001,-0.000,-0.686,2.696,1.183,2.530,-0.962,0.663,0.013,2.410,1.593,2.530,-0.671
6.750,2.197,1.588,2.443,0.000,-0.001,-0.706,2.707,1.167,2.533,-0.980,0.667,0.016,2.428,1.582,2.533,-0.689
6.800,2.213,1.583,2.443,0.001,0.001,-0.723,2.717,1.151,2.537,-0.997,0.671,0.015,2.446,1.571,2.537,-0.706
6.850,2.228,1.578,2.442,0.000,0.000,-0.739,2.728,1.135,2.540,-1.014,0.675,0.014,2.464,1.560,2.540,-0.724
6.900,2.244,1.572,2.447,0.001,-0.002,-0.755,2.738,1.119,2.544,-1.031,0.678,0.013,2.481,1.547,2.544,-0.741
6.950,2.259,1.567,2.452,-0.001,0.000,-0.773,2.748,1.102,2.547,-1.047,0.682,0.013,2.498,1.535,2.547,-0.759
7.000,2.275,1.561,2.456,-0.002,0.002,-0.790,2.758,1.085,2.551,-1.063,0.685,0.013,2.515,1.521,2.551,-0.776
7.050,2.290,1.554,2.462,0.005,0.003,-0.808,2.768,1.067,2.554,-1.078,0.689,0.014,2.532,1.508,2.554,-0.794
7.100,2.305,1.547,2.466,0.005,0.002,-0.824,2.778,1.049,2.558,-1.093,0.692,0.013,2.548,1.494,2.558,-0.810
7.150,2.320,1.539,2.470,0.003,0.000,-0.840,2.787,1.031,2.561,-1.108,0.696,0.013,2.564,1.479,2.561,-0.826
7.200,2.335,1.531,2.472,0.001,-0.000,-0.856,2.796,1.013,2.565,-1.123,0.700,0.013,2.579,1.464,2.565,-0.842
7.250,2.349,1.523,2.473,0.000,0.001,-0.873,2.805,0.995,2.568,-1.137,0.704,0.014,2.595,1.448,2.568,-0.858
7.300,2.364,1.514,2.480,-0.002,-0.000,-0.888,2.814,0.976,2.572,-1.151,0.707,0.014,2.610,1.432,2.572,-0.874
7.350,2.378,1.504,2.487,-0.004,0.001,-0.904,2.822,0.957,2.575,-1.164,0.711,0.014,2.625,1.416,2.575,-0.889
7.400,2.393,1.494,2.492,-0.001,0.001,-0.919,2.831,0.937,2.578,-1.178,0.714,0.015,2.639,1.399,2.578,-0.904
7.450,2.407,1.484,2.497,0.002,0.001,-0.934,2.839,0.918,2.582,-1.191,0.718,0.015,2.653,1.382,2.582,-0.918
7.500,2.421,1.474,2.496,0.004,0.002,-0.949,2.847,0.898,2.585,-1.203,0.722,0.015,2.667,1.364,2.585,-0.933
7.550,2.435,1.463,2.493,0.001,0.002,-0.964,2.855,0.878,2.588,-1.216,0.727,0.016,2.681,1.346,2.588,-0.948
7.600,2.449,1.451,2.497,0.001,-0.000,-0.978,2.862,0.857,2.592,-1.228,0.729,0.015,2.694,1.328,2.592,-0.962
7.650,2.464,1.438,2.499,-0.000,-0.001,-0.992,2.870,0.837,2.595,-1.240,0.732,0.015,2.707,1.309,2.595,-0.977
7.700,2.478,1.425,2.509,0.003,0.003,-1.008,2.877,0.816,2.599,-1.252,0.734,0.017,2.720,1.290,2.599,-0.990
7.750,2.492,1.411,2.508,0.001,0.001,-1.022,2.884,0.795,2.602,-1.264,0.737,0.018,2.733,1.271,2.602,-1.004
7.800,2.506,1.397,2.509,-0.001,0.003,-1.039,2.891,0.773,2.605,-1.275,0.739,0.021,2.745,1.252,2.605,-1.017
7.850,2.520,1.381,2.515,-0.001,-0.000,-1.052,2.897,0.752,2.608,-1.286,0.740,0.021,2.757,1.232,2.608,-1.030
7.900,2.534,1.365,2.519,-0.002,-0.002,-1.062,2.904,0.730,2.612,-1.297,0.741,0.018,2.769,1.211,2.612,-1.044
7.950,2.547,1.350,2.521,0.001,-0.001,-1.073,2.910,0.708,2.615,-1.308,0.743,0.016,2.780,1.191,2.615,-1.056
8.000,2.560,1.335,2.525,0.001,0.001,-1.088,2.916,0.686,2.618,-1.319,0.746,0.019,2.791,1.170,2.618,-1.069
8.050,2.573,1.320,2.526,0.001,-0.000,-1.100,2.922,0.664,2.622,-1.329,0.749,0.018,2.802,1.149,2.622,-1.081
8.100,2.585,1.304,2.526,-0.000,0.001,-1.112,2.927,0.641,2.625,-1.339,0.752,0.017,2.812,1.128,2.625,-1.094
8.150,2.598,1.288,2.533,-0.002,0.000,-1.124,2.933,0.618,2.628,-1.349,0.755,0.017,2.823,1.106,2.628,-1.107
8.200,2.610,1.272,2.538,-0.003,0.001,-1.137,2.938,0.596,2.631,-1.359,0.757,0.017,2.833,1.084,2.631,-1.119
8.250,2.622,1.255,2.543,-0.002,-0.001,-1.149,2.943,0.572,2.635,-1.369,0.760,0.017,2.843,1.062,2.635,-1.132
8.300,2.634,1.239,2.545,0.002,0.000,-1.161,2.947,0.549,2.638,-1.379,0.763,0.016,2.852,1.040,2.638,-1.144
8.350,2.646,1.221,2.547,0.000,-0.000,-1.174,2.952,0.526,2.641,-1.389,0.765,0.018,2.861,1.018,2.641,-1.156
8.400,2.658,1.204,2.560,-0.005,-0.000,-1.186,2.956,0.502,2.644,-1.398,0.767,0.018,2.870,0.995,2.644,-1.168
8.450,2.669,1.185,2.568,-0.002,-0.007,-1.201,2.960,0.479,2.647,-1.407,0.768,0.022,2.879,0.972,2.647,-1.179
8.500,2.680,1.167,2.564,0.006,-0.000,-1.209,2.964,0.455,2.651,-1.417,0.772,0.019,2.888,0.949,2.651,-1.190
8.550,2.690,1.150,2.565,0.000,0.001,-1.221,2.968,0.431,2.654,-1.426,0.775,0.019,2.896,0.926,2.654,-1.201
8.600,2.701,1.132,2.565,-0.001,0.001,-1.231,2.972,0.407,2.657,-1.435,0.779,0.018,2.904,0.903,2.657,-1.212
8.650,2.711,1.114,2.571,-0.001,0.001,-1.242,2.975,0.383,2.660,-1.444,0.782,0.019,2.912,0.879,2.660,-1.223
8.700,2.721,1.095,2.575,-0.005,0.002,-1.253,2.978,0.359,2.663,-1.453,0.785,0.019,2.919,0.855,2.663,-1.234
8.750,2.731,1.076,2.579,0.001,0.006,-1.263,2.981,0.335,2.666,-1.461,0.788,0.018,2.926,0.832,2.666,-1.245
8.800,2.741,1.056,2.585,0.004,-0.001,-1.272,2.984,0.310,2.669,-1.470,0.789,0.016,2.934,0.808,2.669,-1.256
8.850,2.750,1.036,2.592,-0.004,-0.004,-1.284,2.986,0.286,2.672,-1.479,0.791,0.018,2.940,0.784,2.672,-1.266
8.900,2.760,1.017,2.595,-0.005,0.000,-1.294,2.989,0.261,2.676,-1.487,0.794,0.018,2.947,0.759,2.676,-1.276
8.950,2.769,0.998,2.597,0.001,0.000,-1.305,2.991,0.236,2.679,-1.496,0.797,0.018,2.953,0.735,2.679,-1.287
9.000,2.778,0.978,2.596,0.003,0.001,-1.316,2.992,0.212,2.682,-1.505,0.800,0.018,2.959,0.711,2.682,-1.297
9.050,2.787,0.958,2.598,0.004,0.000,-1.326,2.994,0.187,2.685,-1.513,0.803,0.017,2.965,0.686,2.685,-1.308
9.100,2.796,0.937,2.598,0.000,0.001,-1.336,2.996,0.162,2.688,-1.521,0.805,0.017,2.971,0.661,2.688,-1.318
9.150,2.805,0.916,2.610,-0.006,0.001,-1.347,2.997,0.137,2.691,-1.530,0.806,0.019,2.976,0.637,2.691,-1.328
9.200,2.814,0.895,2.605,-0.001,0.002,-1.360,2.998,0.112,2.694,-1.538,0.808,0.020,2.982,0.612,2.694,-1.339
9.250,2.824,0.874,2.615,0.007,0.004,-1.369,2.999,0.087,2.697,-1.547,0.810,0.018,2.987,0.587,2.697,-1.351
9.300,2.832,0.852,2.622,0.000,0.004,-1.381,2.999,0.062,2.700,-1.555,0.811,0.019,2.991,0.562,2.700,-1.362
9.350,2.841,0.831,2.622,0.002,0.003,-1.391,3.000,0.037,2.703,-1.563,0.814,0.018,2.996,0.537,2.703,-1.373
9.400,2.849,0.810,2.625,-0.002,0.001,-1.403,3.000,0.012,2.706,-1.572,0.815,0.020,3.000,0.512,2.706,-1.383
9.450,2.857,0.788,2.626,0.002,-0.001,-1.414,3.000,-0.013,2.709,-1.580,0.817,0.020,3.005,0.487,2.709,-1.393
9.500,2.865,0.765,2.628,0.001,-0.001,-1.425,3.000,-0.038,2.712,-1.588,0.818,0.021,3.009,0.462,2.712,-1.404
9.550,2.872,0.742,2.637,0.001,0.004,-1.436,2.999,-0.063,2.714,-1.597,0.818,0.021,3.012,0.437,2.714,-1.414
9.600,2.880,0.720,2.642,0.007,-0.003,-1.444,2.999,-0.088,2.717,-1.605,0.819,0.019,3.016,0.412,2.717,-1.425
9.650,2.888,0.698,2.640,-0.006,-0.001,-1.455,2.998,-0.113,2.720,-1.613,0.822,0.019,3.019,0.387,2.720,-1.435
9.700,2.895,0.676,2.648,-0.009,-0.005,-1.464,2.997,-0.137,2.723,-1.622,0.823,0.018,3.022,0.362,2.723,-1.445
9.750,2.902,0.656,2.658,0.001,-0.003,-1.474,2.996,-0.162,2.726,-1.630,0.826,0.017,3.025,0.337,2.726,-1.456
9.800,2.908,0.636,2.657,-0.001,0.005,-1.484,2.994,-0.187,2.729,-1.639,0.831,0.017,3.028,0.312,2.729,-1.467
9.850,2.914,0.616,2.658,-0.003,-0.002,-1.494,2.992,-0.212,2.732,-1.647,0.835,0.017,3.031,0.287,2.732,-1.476
9.900,2.920,0.596,2.670,-0.009,-0.019,-1.504,2.991,-0.237,2.735,-1.656,0.838,0.017,3.033,0.262,2.735,-1.486
9.950,2.927,0.576,2.668,-0.000,0.004,-1.518,2.989,-0.261,2.737,-1.665,0.843,0.021,3.035,0.237,2.737,-1.497
10.000,2.933,0.556,2.674,0.011,-0.001,-1.527,2.986,-0.286,2.740,-1.673,0.847,0.018,3.037,0.212,2.740,-1.508
10.050,2.939,0.537,2.672,0.004,0.003,-1.538,2.984,-0.310,2.743,-1.682,0.851,0.020,3.039,0.187,2.743,-1.518
10.100,2.946,0.517,2.672,0.006,0.001,-1.547,2.981,-0.335,2.746,-1.691,0.855,0.018,3.041,0.162,2.746,-1.529
10.150,2.952,0.495,2.670,0.004,0.003,-1.558,2.978,-0.359,2.749,-1.700,0.858,0.018,3.042,0.137,2.749,-1.539
10.200,2.957,0.473,2.682,-0.000,-0.001,-1.568,2.975,-0.383,2.751,-1.709,0.859,0.018,3.044,0.112,2.751,-1.549
10.250,2.963,0.449,2.683,0.002,0.004,-1.579,2.972,-0.407,2.754,-1.718,0.860,0.018,3.045,0.087,2.754,-1.560
10.300,2.969,0.426,2.686,0.009,-0.002,-1.588,2.968,-0.431,2.757,-1.727,0.860,0.016,3.046,0.062,2.757,-1.571
10.350,2.975,0.403,2.688,0.006,0.001,-1.600,2.964,-0.455,2.759,-1.736,0.862,0.016,3.047,0.038,2.759,-1.583
10.400,2.980,0.381,2.688,-0.006,0.002,-1.610,2.960,-0.479,2.762,-1.746,0.864,0.017,3.047,0.013,2.762,-1.593
10.450,2.985,0.360,2.689,0.001,0.005,-1.622,2.956,-0.503,2.765,-1.755,0.866,0.018,3.048,-0.011,2.765,-1.604
10.500,2.990,0.337,2.689,0.001,0.000,-1.632,2.952,-0.526,2.768,-1.765,0.867,0.017,3.048,-0.036,2.768,-1.614
10.550,2.995,0.314,2.696,-0.002,-0.005,-1.641,2.947,-0.550,2.770,-1.774,0.868,0.015,3.049,-0.060,2.770,-1.625
10.600,3.001,0.291,2.706,-0.003,-0.004,-1.653,2.943,-0.573,2.773,-1.784,0.868,0.015,3.049,-0.084,2.773,-1.637
10.650,3.006,0.270,2.709,-0.000,-0.003,-1.666,2.938,-0.596,2.775,-1.794,0.871,0.017,3.048,-0.108,2.775,-1.649
10.700,3.012,0.249,2.712,-0.003,-0.006,-1.678,2.932,-0.619,2.778,-1.804,0.874,0.016,3.048,-0.132,2.778,-1.661
10.750,3.017,0.229,2.713,0.006,-0.000,-1.689,2.927,-0.641,2.781,-1.815,0.878,0.016,3.048,-0.156,2.781,-1.673
10.800,3.021,0.209,2.716,0.012,-0.002,-1.700,2.922,-0.664,2.783,-1.825,0.881,0.016,3.047,-0.180,2.783,-1.684
10.850,3.026,0.190,2.718,0.006,0.001,-1.712,2.916,-0.686,2.786,-1.836,0.886,0.016,3.047,-0.204,2.786,-1.695
10.900,3.031,0.172,2.720,-0.003,0.002,-1.725,2.910,-0.708,2.788,-1.847,0.891,0.017,3.046,-0.227,2.788,-1.707
10.950,3.036,0.152,2.720,-0.008,0.004,-1.736,2.904,-0.730,2.791,-1.858,0.895,0.017,3.045,-0.251,2.791,-1.718
11.000,3.040,0.132,2.727,-0.005,-0.001,-1.747,2.897,-0.752,2.794,-1.869,0.898,0.016,3.044,-0.274,2.794,-1.731
11.050,3.046,0.111,2.730,-0.003,0.002,-1.763,2.891,-0.773,2.796,-1.880,0.900,0.018,3.043,-0.297,2.796,-1.744
11.100,3.052,0.089,2.732,0.009,0.001,-1.774,2.884,-0.795,2.799,-1.892,0.902,0.015,3.042,-0.320,2.799,-1.758
11.150,3.058,0.067,2.736,-0.001,-0.005,-1.787,2.877,-0.816,2.801,-1.904,0.904,0.014,3.040,-0.343,2.801,-1.772
11.200,3.064,0.046,2.745,0.000,-0.001,-1.803,2.870,-0.837,2.804,-1.916,0.906,0.015,3.039,-0.366,2.804,-1.786
11.250,3.070,0.026,2.748,-0.007,-0.008,-1.816,2.862,-0.857,2.806,-1.928,0.909,0.014,3.037,-0.389,2.806,-1.800
11.300,3.076,0.007,2.750,-0.004,-0.000,-1.832,2.855,-0.878,2.809,-1.941,0.914,0.016,3.035,-0.412,2.809,-1.815
11.350,3.082,-0.012,2.755,-0.007,0.007,-1.847,2.847,-0.898,2.811,-1.954,0.919,0.017,3.034,-0.434,2.811,-1.829
11.400,3.088,-0.030,2.757,-0.005,0.004,-1.862,2.839,-0.918,2.813,-1.967,0.924,0.017,3.032,-0.456,2.813,-1.844
11.450,3.096,-0.049,2.762,0.006,-0.000,-1.877,2.831,-0.937,2.816,-1.980,0.929,0.016,3.030,-0.479,2.816,-1.859
11.500,3.103,-0.068,2.765,0.011,0.001,-1.891,2.822,-0.957,2.818,-1.994,0.934,0.015,3.028,-0.501,2.818,-1.875
11.550,3.110,-0.086,2.763,0.006,0.005,-1.908,2.814,-0.976,2.821,-2.008,0.939,0.017,3.025,-0.523,2.821,-1.891
11.600,3.116,-0.106,2.768,-0.007,-0.003,-1.921,2.805,-0.995,2.823,-2.022,0.943,0.014,3.023,-0.545,2.823,-1.906
11.650,3.122,-0.127,2.775,-0.005,0.001,-1.942,2.796,-1.013,2.825,-2.036,0.946,0.019,3.021,-0.567,2.825,-1.922
11.700,3.128,-0.149,2.773,0.008,0.002,-1.957,2.787,-1.032,2.828,-2.051,0.948,0.017,3.018,-0.588,2.828,-1.938
11.750,3.134,-0.172,2.773,0.008,0.005,-1.972,2.778,-1.050,2.830,-2.067,0.949,0.016,3.015,-0.610,2.830,-1.955
11.800,3.138,-0.196,2.773,-0.007,0.002,-1.986,2.768,-1.067,2.832,-2.082,0.949,0.013,3.013,-0.631,2.832,-1.971
11.850,3.143,-0.221,2.780,-0.007,-0.004,-2.003,2.758,-1.085,2.835,-2.098,0.947,0.013,3.010,-0.653,2.835,-1.988
11.900,3.148,-0.246,2.779,-0.001,0.006,-2.021,2.748,-1.102,2.837,-2.114,0.947,0.014,3.007,-0.674,2.837,-2.006
11.950,3.153,-0.270,2.779,-0.006,0.003,-2.039,2.738,-1.119,2.839,-2.131,0.946,0.014,3.004,-0.695,2.839,-2.024
12.000,3.158,-0.295,2.788,0.005,-0.002,-2.056,2.728,-1.135,2.841,-2.148,0.946,0.012,3.001,-0.716,2.841,-2.042
12.050,3.163,-0.318,2.793,-0.005,-0.007,-2.073,2.717,-1.151,2.844,-2.165,0.947,0.012,2.997,-0.737,2.844,-2.060
12.100,3.169,-0.339,2.798,-0.008,-0.007,-2.092,2.707,-1.167,2.846,-2.183,0.950,0.012,2.994,-0.758,2.846,-2.079
12.150,3.177,-0.360,2.801,-0.006,-0.004,-2.112,2.696,-1.183,2.848,-2.201,0.954,0.012,2.991,-0.779,2.848,-2.098
12.200,3.184,-0.379,2.803,0.001,-0.005,-2.131,2.685,-1.198,2.850,-2.220,0.960,0.013,2.987,-0.800,2.850,-2.117
12.250,3.192,-0.399,2.805,0.001,0.002,-2.152,2.674,-1.213,2.853,-2.239,0.966,0.014,2.983,-0.820,2.853,-2.136
12.300,3.198,-0.419,2.803,-0.001,0.006,-2.174,2.662,-1.227,2.855,-2.259,0.971,0.017,2.979,-0.841,2.855,-2.155
12.350,3.205,-0.442,2.804,0.002,0.002,-2.191,2.650,-1.242,2.857,-2.278,0.974,0.014,2.975,-0.862,2.857,-2.175
12.400,3.211,-0.466,2.808,-0.006,0.001,-2.211,2.639,-1.255,2.859,-2.299,0.976,0.013,2.971,-0.882,2.859,-2.196
12.450,3.217,-0.491,2.811,-0.009,0.000,-2.232,2.627,-1.269,2.861,-2.319,0.978,0.012,2.967,-0.903,2.861,-2.218
12.500,3.223,-0.517,2.813,-0.005,0.000,-2.255,2.615,-1.282,2.863,-2.341,0.979,0.012,2.962,-0.923,2.863,-2.240
12.550,3.229,-0.543,2.814,0.003,-0.004,-2.277,2.602,-1.295,2.865,-2.362,0.981,0.012,2.958,-0.943,2.865,-2.264
12.600,3.235,-0.570,2.812,0.001,0.005,-2.302,2.590,-1.307,2.867,-2.384,0.981,0.013,2.953,-0.964,2.867,-2.287
12.650,3.240,-0.597,2.819,0.010,-0.005,-2.325,2.577,-1.319,2.869,-2.406,0.982,0.012,2.948,-0.984,2.869,-2.312
12.700,3.246,-0.625,2.824,0.007,-0.002,-2.349,2.564,-1.331,2.872,-2.429,0.983,0.011,2.942,-1.004,2.872,-2.336
12.750,3.251,-0.653,2.823,-0.001,0.001,-2.373,2.551,-1.342,2.874,-2.452,0.984,0.010,2.937,-1.025,2.874,-2.361
12.800,3.255,-0.682,2.819,0.001,0.002,-2.398,2.538,-1.353,2.876,-2.476,0.984,0.009,2.931,-1.045,2.876,-2.386
12.850,3.258,-0.712,2.821,-0.008,0.004,-2.422,2.524,-1.364,2.878,-2.500,0.983,0.007,2.925,-1.065,2.878,-2.412
12.900,3.261,-0.743,2.822,-0.007,0.004,-2.448,2.511,-1.374,2.880,-2.524,0.982,0.006,2.918,-1.085,2.880,-2.439
12.950,3.263,-0.774,2.830,-0.002,-0.002,-2.475,2.497,-1.384,2.882,-2.549,0.981,0.005,2.912,-1.105,2.882,-2.467
13.000,3.266,-0.805,2.839,-0.003,-0.008,-2.503,2.483,-1.394,2.884,-2.574,0.980,0.006,2.904,-1.125,2.884,-2.494
13.050,3.269,-0.835,2.842,-0.006,-0.001,-2.531,2.469,-1.403,2.885,-2.599,0.983,0.007,2.897,-1.144,2.885,-2.522
13.100,3.274,-0.864,2.843,-0.001,-0.001,-2.560,2.455,-1.411,2.887,-2.624,0.986,0.007,2.889,-1.164,2.887,-2.550
13.150,3.277,-0.892,2.842,0.005,-0.004,-2.587,2.440,-1.420,2.889,-2.650,0.990,0.007,2.881,-1.184,2.889,-2.577
13.200,3.280,-0.920,2.847,-0.005,0.011,-2.614,2.425,-1.427,2.891,-2.676,0.994,0.008,2.872,-1.203,2.891,-2.604
13.250,3.282,-0.948,2.853,0.007,0.001,-2.642,2.411,-1.435,2.893,-2.702,0.999,0.010,2.863,-1.222,2.893,-2.630
13.300,3.283,-0.977,2.852,-0.005,0.015,-2.667,2.396,-1.442,2.895,-2.728,1.002,0.009,2.854,-1.241,2.895,-2.656
13.350,3.282,-1.007,2.847,-0.004,0.007,-2.688,2.381,-1.449,2.897,-2.754,1.005,0.002,2.844,-1.260,2.897,-2.683
13.400,3.280,-1.039,2.857,-0.004,0.013,-2.719,2.365,-1.455,2.899,-2.781,1.006,0.004,2.833,-1.278,2.899,-2.712
13.450,3.278,-1.072,2.858,0.003,0.008,-2.752,2.350,-1.461,2.900,-2.807,1.007,0.007,2.822,-1.297,2.900,-2.742
13.500,3.274,-1.107,2.862,0.005,-0.001,-2.782,2.334,-1.466,2.902,-2.834,1.007,0.005,2.811,-1.315,2.902,-2.773
13.550,3.269,-1.144,2.866,-0.001,0.002,-2.812,2.318,-1.471,2.904,-2.860,1.006,0.003,2.799,-1.332,2.904,-2.806
13.600,3.263,-1.182,2.864,-0.012,0.009,-2.841,2.302,-1.476,2.906,-2.886,1.005,0.004,2.786,-1.350,2.906,-2.841
13.650,3.257,-1.221,2.872,-0.002,0.002,-2.875,2.286,-1.480,2.908,-2.913,1.005,0.005,2.773,-1.367,2.908,-2.877
13.700,3.250,-1.261,2.871,-0.000,0.013,-2.914,2.270,-1.484,2.909,-2.939,1.006,0.003,2.760,-1.383,2.909,-2.914
13.750,3.242,-1.301,2.869,0.005,0.009,-2.952,2.254,-1.488,2.911,-2.965,1.006,0.004,2.746,-1.399,2.911,-2.952
13.800,3.232,-1.343,2.876,-0.003,0.002,-2.982,2.237,-1.491,2.913,-2.990,1.006,0.011,2.731,-1.415,2.913,-2.990
13.850,3.222,-1.383,2.886,-0.005,-0.013,-3.020,2.220,-1.493,2.914,-3.016,1.008,0.012,2.716,-1.430,2.914,-3.028
13.900,3.212,-1.422,2.887,-0.005,0.006,-3.056,2.203,-1.495,2.916,-3.041,1.012,0.013,2.701,-1.445,2.916,-3.065
13.950,3.201,-1.461,2.886,-0.003,0.017,-3.096,2.186,-1.497,2.918,-3.066,1.015,0.010,2.685,-1.459,2.918,-3.103
14.000,3.185,-1.501,2.897,0.001,0.011,-3.135,2.169,-1.498,2.919,-3.090,1.016,0.010,2.669,-1.473,2.919,-3.140
14.050,3.157,-1.537,2.917,0.076,0.129,3.124,2.152,-1.499,2.921,-3.114,1.006,0.019,2.652,-1.486,2.921,3.107
14.100,3.088,-1.543,2.931,0.086,0.083,3.097,2.134,-1.500,2.923,-3.138,0.954,0.001,2.634,-1.498,2.923,3.096
14.150,2.990,-1.520,2.934,0.062,0.017,3.090,2.117,-1.500,2.924,3.122,0.874,0.029,2.617,-1.510,2.924,3.115
14.200,2.884,-1.474,2.929,0.031,-0.032,3.107,2.099,-1.500,2.926,3.099,0.785,0.068,2.599,-1.521,2.926,-3.116
14.250,2.787,-1.414,2.922,0.013,-0.059,-3.137,2.081,-1.499,2.927,3.076,0.711,0.115,2.580,-1.532,2.927,-3.032
14.300,2.703,-1.370,2.909,-0.099,-0.030,-3.045,2.063,-1.498,2.929,3.054,0.653,0.101,2.561,-1.542,2.929,-2.950
14.350,2.634,-1.362,2.898,-0.067,-0.068,-2.967,2.045,-1.496,2.931,3.032,0.605,0.050,2.542,-1.551,2.931,-2.919
14.400,2.593,-1.377,2.886,-0.033,-0.086,-2.937,2.026,-1.494,2.932,3.011,0.581,0.000,2.522,-1.559,2.932,-2.934
14.450,2.587,-1.401,2.877,-0.009,-0.072,-2.953,2.008,-1.492,2.934,2.990,0.589,0.032,2.502,-1.567,2.934,-2.981
14.500,2.611,-1.423,2.872,-0.003,-0.060,-2.992,1.989,-1.489,2.935,2.970,0.629,0.044,2.482,-1.575,2.935,-3.032
14.550,2.659,-1.439,2.862,0.001,-0.034,-3.038,1.970,-1.486,2.936,2.950,0.694,0.035,2.461,-1.581,2.936,-3.071
14.600,2.719,-1.447,2.861,0.006,-0.006,-3.080,1.952,-1.482,2.938,2.930,0.772,0.016,2.440,-1.587,2.938,-3.095
14.650,2.782,-1.448,2.868,0.015,0.018,-3.114,1.932,-1.478,2.939,2.911,0.854,0.008,2.419,-1.592,2.939,-3.106
14.700,2.842,-1.441,2.881,0.007,0.031,-3.136,1.913,-1.474,2.941,2.893,0.931,0.030,2.398,-1.597,2.941,-3.107
14.750,2.889,-1.431,2.889,0.003,0.085,3.135,1.894,-1.469,2.942,2.875,0.997,0.045,2.376,-1.601,2.942,-3.104
14.800,2.902,-1.421,2.921,0.002,0.112,3.138,1.875,-1.464,2.944,2.857,1.029,0.045,2.354,-1.604,2.944,-3.101
14.850,2.873,-1.409,2.942,-0.084,0.058,-3.141,1.855,-1.458,2.945,2.840,1.020,0.047,2.332,-1.606,2.945,-3.095
14.900,2.821,-1.418,2.947,-0.021,0.003,-3.133,1.835,-1.452,2.946,2.824,0.987,0.026,2.310,-1.608,2.946,-3.106
14.950,2.757,-1.448,2.944,-0.089,0.007,3.141,1.815,-1.445,2.948,2.808,0.941,0.002,2.288,-1.609,2.948,-3.140
15.000,2.678,-1.498,2.949,-0.058,-0.029,-3.138,1.795,-1.438,2.949,2.792,0.885,0.072,2.265,-1.610,2.949,3.080
15.050,2.588,-1.551,2.956,0.075,0.104,3.087,1.775,-1.431,2.950,2.777,0.822,0.092,2.242,-1.610,2.950,3.002
15.100,2.468,-1.578,2.949,0.087,0.041,3.009,1.755,-1.423,2.952,2.762,0.730,0.081,2.219,-1.609,2.952,2.933
15.150,2.335,-1.574,2.933,0.071,-0.014,2.943,1.735,-1.415,2.953,2.747,0.622,0.060,2.196,-1.607,2.953,2.886
15.200,2.213,-1.545,2.924,0.046,-0.063,2.896,1.714,-1.407,2.954,2.733,0.518,0.025,2.173,-1.605,2.954,2.870
15.250,2.118,-1.502,2.921,0.036,-0.091,2.868,1.694,-1.398,2.955,2.720,0.438,0.032,2.150,-1.603,2.955,2.895
15.300,2.060,-1.457,2.920,0.015,-0.091,2.877,1.673,-1.389,2.957,2.706,0.395,0.092,2.126,-1.600,2.957,2.959
15.350,2.039,-1.416,2.915,-0.003,-0.077,2.929,1.652,-1.379,2.958,2.694,0.391,0.118,2.103,-1.596,2.958,3.038
15.400,2.049,-1.384,2.915,-0.028,-0.054,3.007,1.631,-1.369,2.959,2.681,0.420,0.100,2.079,-1.591,2.959,3.100
15.450,2.077,-1.364,2.916,-0.032,-0.016,3.077,1.610,-1.359,2.960,2.669,0.469,0.053,2.055,-1.586,2.960,3.127
15.500,2.110,-1.356,2.909,-0.026,0.016,3.111,1.589,-1.348,2.961,2.657,0.524,0.015,2.032,-1.581,2.961,3.125
15.550,2.137,-1.358,2.909,-0.023,0.040,3.116,1.568,-1.337,2.962,2.646,0.572,0.012,2.008,-1.575,2.962,3.105
15.600,2.148,-1.365,2.907,-0.011,0.044,3.097,1.547,-1.325,2.964,2.635,0.606,0.022,1.984,-1.568,2.964,3.076
15.650,2.142,-1.374,2.901,0.005,0.045,3.064,1.525,-1.313,2.965,2.624,0.623,0.021,1.960,-1.561,2.965,3.044
15.700,2.118,-1.381,2.910,0.012,0.037,3.034,1.503,-1.301,2.966,2.613,0.622,0.022,1.935,-1.553,2.966,3.014
15.750,2.080,-1.383,2.909,0.018,0.022,3.001,1.482,-1.288,2.967,2.603,0.608,0.017,1.911,-1.545,2.967,2.985
15.800,2.033,-1.379,2.910,0.008,0.009,2.974,1.460,-1.275,2.968,2.593,0.586,0.012,1.887,-1.536,2.968,2.963
15.850,1.984,-1.372,2.909,0.018,-0.003,2.952,1.438,-1.262,2.969,2.584,0.560,0.009,1.862,-1.527,2.969,2.944
15.900,1.937,-1.362,2.908,0.015,-0.009,2.932,1.416,-1.248,2.970,2.575,0.537,0.005,1.838,-1.517,2.970,2.927
15.950,1.895,-1.349,2.912,0.007,-0.014,2.918,1.394,-1.234,2.971,2.566,0.517,0.003,1.813,-1.507,2.971,2.915
16.000,1.857,-1.336,2.914,0.001,-0.016,2.908,1.372,-1.220,2.972,2.557,0.502,0.002,1.789,-1.496,2.972,2.906
16.050,1.825,-1.323,2.917,-0.005,-0.014,2.899,1.350,-1.205,2.973,2.549,0.493,0.001,1.764,-1.485,2.973,2.897
16.100,1.798,-1.312,2.919,-0.009,-0.011,2.891,1.327,-1.190,2.974,2.541,0.490,0.002,1.740,-1.473,2.974,2.888
16.150,1.776,-1.302,2.920,-0.012,-0.009,2.882,1.305,-1.175,2.975,2.533,0.491,0.005,1.715,-1.461,2.975,2.877
16.200,1.756,-1.294,2.921,-0.009,-0.008,2.872,1.282,-1.159,2.976,2.525,0.496,0.008,1.690,-1.448,2.976,2.863
16.250,1.737,-1.288,2.921,-0.001,-0.003,2.858,1.259,-1.143,2.977,2.518,0.502,0.011,1.665,-1.435,2.977,2.847
16.300,1.718,-1.283,2.922,0.002,0.001,2.841,1.237,-1.127,2.978,2.510,0.509,0.013,1.640,-1.422,2.978,2.828
16.350,1.699,-1.278,2.916,0.007,0.002,2.818,1.214,-1.110,2.978,2.503,0.517,0.010,1.616,-1.408,2.978,2.808
16.400,1.678,-1.272,2.917,-0.003,0.005,2.800,1.191,-1.093,2.979,2.497,0.523,0.011,1.591,-1.394,2.979,2.790
16.450,1.656,-1.265,2.918,-0.004,0.005,2.784,1.168,-1.076,2.980,2.490,0.527,0.013,1.566,-1.379,2.980,2.772
16.500,1.632,-1.258,2.918,0.006,0.002,2.763,1.145,-1.058,2.981,2.484,0.530,0.011,1.541,-1.364,2.981,2.753
16.550,1.607,-1.250,2.916,0.003,0.007,2.743,1.122,-1.040,2.982,2.478,0.533,0.009,1.516,-1.349,2.982,2.734
16.600,1.581,-1.241,2.927,0.003,0.001,2.729,1.099,-1.022,2.982,2.472,0.532,0.013,1.491,-1.333,2.982,2.717
16.650,1.554,-1.231,2.927,-0.002,0.004,2.710,1.075,-1.004,2.983,2.466,0.532,0.011,1.465,-1.317,2.983,2.699
16.700,1.526,-1.219,2.929,0.003,0.001,2.696,1.052,-0.985,2.984,2.460,0.531,0.013,1.440,-1.300,2.984,2.683
16.750,1.498,-1.206,2.931,-0.002,0.000,2.677,1.028,-0.966,2.985,2.455,0.530,0.009,1.415,-1.283,2.985,2.669
16.800,1.471,-1.192,2.932,-0.005,-0.002,2.663,1.005,-0.947,2.985,2.450,0.529,0.006,1.390,-1.266,2.985,2.657
16.850,1.444,-1.177,2.932,-0.007,-0.003,2.650,0.981,-0.927,2.986,2.445,0.528,0.004,1.365,-1.248,2.986,2.646
16.900,1.418,-1.163,2.927,-0.006,-0.008,2.638,0.958,-0.908,2.987,2.440,0.529,0.003,1.340,-1.230,2.987,2.635
16.950,1.393,-1.149,2.934,0.007,-0.009,2.629,0.934,-0.888,2.987,2.435,0.531,0.005,1.314,-1.212,2.987,2.624
17.000,1.369,-1.135,2.937,0.002,-0.000,2.615,0.910,-0.867,2.988,2.431,0.533,0.001,1.289,-1.194,2.988,2.613
17.050,1.346,-1.121,2.938,0.008,0.007,2.598,0.886,-0.847,2.989,2.426,0.537,0.005,1.264,-1.175,2.989,2.603
17.100,1.322,-1.106,2.939,-0.001,0.000,2.590,0.862,-0.826,2.989,2.422,0.541,0.005,1.239,-1.155,2.989,2.595
17.150,1.299,-1.091,2.935,-0.000,0.004,2.580,0.838,-0.805,2.990,2.418,0.545,0.005,1.213,-1.136,2.990,2.585
17.200,1.275,-1.076,2.939,0.006,0.009,2.575,0.814,-0.784,2.991,2.414,0.548,0.000,1.188,-1.116,2.991,2.575
17.250,1.248,-1.061,2.943,0.003,0.008,2.566,0.790,-0.762,2.991,2.411,0.549,0.003,1.163,-1.096,2.991,2.564
17.300,1.220,-1.046,2.943,0.004,0.005,2.555,0.766,-0.741,2.992,2.407,0.549,0.004,1.137,-1.076,2.992,2.551
17.350,1.191,-1.029,2.944,0.003,0.003,2.543,0.742,-0.719,2.992,2.404,0.548,0.005,1.112,-1.055,2.992,2.538
17.400,1.162,-1.011,2.944,0.001,0.001,2.530,0.718,-0.697,2.993,2.400,0.546,0.005,1.087,-1.035,2.993,2.526
17.450,1.132,-0.993,2.944,-0.002,-0.000,2.517,0.693,-0.675,2.993,2.397,0.544,0.004,1.061,-1.013,2.993,2.514
17.500,1.102,-0.974,2.944,-0.005,-0.002,2.505,0.669,-0.652,2.994,2.394,0.541,0.003,1.036,-0.992,2.994,2.502
17.550,1.072,-0.955,2.943,-0.007,-0.003,2.494,0.645,-0.630,2.994,2.391,0.540,0.003,1.010,-0.971,2.994,2.491
17.600,1.043,-0.937,2.943,-0.007,-0.004,2.482,0.620,-0.607,2.995,2.388,0.539,0.003,0.985,-0.949,2.995,2.479
17.650,1.015,-0.919,2.940,-0.007,-0.006,2.470,0.596,-0.584,2.995,2.386,0.539,0.004,0.960,-0.927,2.995,2.467
17.700,0.987,-0.903,2.934,0.003,0.001,2.449,0.571,-0.561,2.995,2.383,0.542,0.005,0.934,-0.905,2.995,2.454
17.750,0.961,-0.886,2.939,-0.003,-0.002,2.443,0.547,-0.538,2.996,2.381,0.544,0.001,0.909,-0.882,2.996,2.443
17.800,0.934,-0.870,2.940,0.000,0.003,2.435,0.522,-0.514,2.996,2.378,0.547,0.006,0.883,-0.860,2.996,2.429
17.850,0.906,-0.853,2.944,-0.004,0.004,2.420,0.497,-0.491,2.997,2.376,0.549,0.004,0.858,-0.837,2.997,2.417
17.900,0.878,-0.835,2.946,-0.005,0.001,2.408,0.473,-0.467,2.997,2.374,0.550,0.003,0.833,-0.814,2.997,2.406
17.950,0.850,-0.815,2.948,-0.005,-0.002,2.398,0.448,-0.443,2.997,2.372,0.550,0.002,0.807,-0.791,2.997,2.397
18.000,0.822,-0.794,2.949,0.001,-0.004,2.388,0.423,-0.419,2.997,2.370,0.550,0.000,0.782,-0.768,2.997,2.388
18.050,0.795,-0.773,2.950,0.006,-0.005,2.379,0.399,-0.395,2.998,2.369,0.549,0.001,0.757,-0.744,2.998,2.381
18.100,0.767,-0.752,2.951,0.004,-0.001,2.369,0.374,-0.371,2.998,2.367,0.550,0.004,0.731,-0.721,2.998,2.373
18.150,0.742,-0.729,2.949,0.005,-0.014,2.349,0.349,-0.347,2.998,2.366,0.550,0.020,0.706,-0.697,2.998,2.369
18.200,0.720,-0.708,2.953,-0.020,-0.006,2.352,0.324,-0.322,2.999,2.364,0.554,0.017,0.681,-0.673,2.999,2.369
18.250,0.697,-0.689,2.958,-0.013,0.001,2.360,0.299,-0.298,2.999,2.363,0.559,0.004,0.655,-0.649,2.999,2.365
18.300,0.673,-0.671,2.957,-0.010,0.002,2.355,0.274,-0.273,2.999,2.362,0.565,0.001,0.630,-0.625,2.999,2.357
18.350,0.647,-0.653,2.956,-0.006,0.002,2.346,0.249,-0.249,2.999,2.361,0.568,0.002,0.605,-0.601,2.999,2.349
18.400,0.620,-0.633,2.956,0.004,-0.002,2.337,0.225,-0.224,2.999,2.360,0.570,0.002,0.579,-0.576,2.999,2.340
18.450,0.592,-0.611,2.952,-0.006,-0.012,2.326,0.200,-0.199,2.999,2.359,0.571,0.005,0.554,-0.552,2.999,2.332
18.500,0.566,-0.590,2.957,0.005,0.011,2.310,0.175,-0.174,3.000,2.358,0.573,0.015,0.529,-0.527,3.000,2.326
18.550,0.541,-0.566,2.959,-0.021,-0.002,2.306,0.150,-0.150,3.000,2.358,0.573,0.019,0.504,-0.503,3.000,2.325
18.600,0.515,-0.544,2.962,-0.011,0.003,2.310,0.125,-0.125,3.000,2.357,0.574,0.011,0.479,-0.478,3.000,2.322
18.650,0.489,-0.522,2.951,-0.007,-0.009,2.306,0.100,-0.100,3.000,2.357,0.576,0.011,0.454,-0.453,3.000,2.317
18.700,0.463,-0.502,2.950,-0.000,0.009,2.296,0.075,-0.075,3.000,2.356,0.580,0.012,0.428,-0.428,3.000,2.310
18.750,0.435,-0.481,2.953,-0.003,0.007,2.292,0.050,-0.050,3.000,2.356,0.580,0.009,0.403,-0.403,3.000,2.301
18.800,0.406,-0.457,2.955,-0.001,0.003,2.285,0.025,-0.025,3.000,2.356,0.579,0.008,0.378,-0.378,3.000,2.294
18.850,0.378,-0.432,2.957,0.000,-0.006,2.279,-0.000,0.000,3.000,2.356,0.576,0.010,0.353,-0.353,3.000,2.290
18.900,0.351,-0.407,2.958,-0.005,-0.005,2.273,-0.025,0.025,3.000,2.356,0.574,0.014,0.328,-0.328,3.000,2.288
18.950,0.325,-0.381,2.959,-0.004,-0.008,2.271,-0.050,0.050,3.000,2.357,0.573,0.015,0.303,-0.303,3.000,2.287
19.000,0.299,-0.356,2.959,0.005,-0.009,2.270,-0.075,0.075,3.000,2.357,0.572,0.015,0.279,-0.278,3.000,2.286
19.050,0.274,-0.332,2.959,0.005,-0.006,2.268,-0.100,0.100,3.000,2.357,0.573,0.017,0.254,-0.253,3.000,2.285
19.100,0.249,-0.308,2.960,-0.004,-0.008,2.266,-0.125,0.125,3.000,2.358,0.574,0.017,0.229,-0.228,3.000,2.284
19.150,0.224,-0.288,2.947,-0.005,0.002,2.259,-0.150,0.150,3.000,2.358,0.579,0.019,0.204,-0.203,3.000,2.279
19.200,0.200,-0.268,2.950,0.007,-0.004,2.256,-0.175,0.175,3.000,2.359,0.583,0.017,0.180,-0.178,3.000,2.274
19.250,0.177,-0.248,2.952,0.006,-0.003,2.249,-0.200,0.200,2.999,2.360,0.587,0.022,0.155,-0.153,2.999,2.272
19.300,0.155,-0.227,2.956,-0.005,0.005,2.250,-0.225,0.224,2.999,2.361,0.592,0.021,0.130,-0.127,2.999,2.272
19.350,0.133,-0.205,2.958,-0.009,0.004,2.252,-0.250,0.249,2.999,2.362,0.595,0.019,0.106,-0.102,2.999,2.271
19.400,0.108,-0.182,2.960,-0.007,0.001,2.253,-0.275,0.274,2.999,2.363,0.597,0.017,0.081,-0.077,2.999,2.270
19.450,0.083,-0.159,2.962,-0.002,-0.005,2.251,-0.300,0.298,2.999,2.365,0.598,0.017,0.057,-0.052,2.999,2.269
19.500,0.059,-0.134,2.963,-0.002,-0.007,2.250,-0.325,0.323,2.999,2.366,0.598,0.018,0.032,-0.027,2.999,2.269
19.550,0.034,-0.110,2.964,0.006,-0.007,2.250,-0.349,0.347,2.998,2.367,0.597,0.018,0.008,-0.003,2.998,2.269
19.600,0.009,-0.085,2.964,0.007,-0.006,2.250,-0.374,0.371,2.998,2.369,0.597,0.019,-0.016,0.022,2.998,2.269
19.650,-0.016,-0.061,2.964,0.008,0.003,2.248,-0.399,0.395,2.998,2.371,0.597,0.021,-0.040,0.047,2.998,2.270
19.700,-0.040,-0.037,2.964,-0.000,0.003,2.247,-0.424,0.420,2.997,2.373,0.598,0.022,-0.064,0.072,2.997,2.270
19.750,-0.064,-0.014,2.960,-0.001,0.003,2.246,-0.449,0.443,2.997,2.375,0.599,0.023,-0.089,0.097,2.997,2.270
19.800,-0.088,0.007,2.942,0.004,-0.015,2.241,-0.473,0.467,2.997,2.377,0.603,0.027,-0.113,0.121,2.997,2.268
19.850,-0.108,0.026,2.948,0.007,0.002,2.228,-0.498,0.491,2.997,2.379,0.609,0.040,-0.136,0.146,2.997,2.268
19.900,-0.128,0.044,2.949,0.003,0.008,2.228,-0.523,0.515,2.996,2.381,0.616,0.040,-0.160,0.170,2.996,2.269
19.950,-0.149,0.061,2.942,-0.011,0.010,2.239,-0.547,0.538,2.996,2.384,0.624,0.027,-0.184,0.194,2.996,2.267
20.000,-0.172,0.078,2.946,-0.004,0.003,2.243,-0.572,0.561,2.995,2.386,0.629,0.018,-0.208,0.218,2.995,2.263
20.050,-0.196,0.097,2.951,-0.007,0.006,2.243,-0.596,0.584,2.995,2.389,0.632,0.015,-0.231,0.243,2.995,2.259
20.100,-0.221,0.119,2.957,0.011,-0.003,2.242,-0.621,0.607,2.995,2.392,0.632,0.015,-0.255,0.266,2.995,2.258
20.150,-0.246,0.143,2.966,0.011,-0.000,2.242,-0.645,0.630,2.994,2.395,0.631,0.015,-0.278,0.290,2.994,2.258
20.200,-0.269,0.167,2.966,0.004,0.004,2.241,-0.670,0.653,2.994,2.398,0.630,0.019,-0.302,0.314,2.994,2.260
20.250,-0.291,0.192,2.967,0.001,0.007,2.240,-0.694,0.675,2.993,2.401,0.629,0.026,-0.325,0.338,2.993,2.266
20.300,-0.313,0.217,2.962,0.009,-0.008,2.241,-0.718,0.697,2.993,2.404,0.629,0.031,-0.348,0.361,2.993,2.272
20.350,-0.332,0.241,2.962,-0.004,-0.000,2.245,-0.742,0.719,2.992,2.408,0.631,0.036,-0.371,0.384,2.992,2.281
20.400,-0.351,0.266,2.960,-0.006,-0.008,2.255,-0.767,0.741,2.992,2.411,0.633,0.034,-0.394,0.408,2.992,2.289
20.450,-0.369,0.288,2.959,-0.010,-0.004,2.265,-0.791,0.763,2.991,2.415,0.636,0.032,-0.417,0.431,2.991,2.297
20.500,-0.388,0.309,2.959,-0.006,-0.007,2.273,-0.815,0.784,2.991,2.419,0.640,0.030,-0.440,0.454,2.991,2.303
20.550,-0.408,0.330,2.959,-0.005,-0.006,2.281,-0.839,0.805,2.990,2.423,0.643,0.027,-0.462,0.476,2.990,2.308
20.600,-0.429,0.351,2.960,0.006,-0.003,2.285,-0.863,0.826,2.989,2.427,0.644,0.026,-0.485,0.499,2.989,2.311
20.650,-0.450,0.373,2.961,0.008,-0.004,2.290,-0.887,0.847,2.989,2.432,0.645,0.025,-0.508,0.521,2.989,2.315
20.700,-0.473,0.396,2.963,0.009,0.009,2.292,-0.911,0.868,2.988,2.436,0.644,0.027,-0.530,0.544,2.988,2.319
20.750,-0.495,0.419,2.964,0.000,0.008,2.295,-0.934,0.888,2.987,2.441,0.643,0.029,-0.552,0.566,2.987,2.324
20.800,-0.517,0.443,2.962,-0.002,0.006,2.300,-0.958,0.908,2.987,2.446,0.641,0.030,-0.574,0.587,2.987,2.330
20.850,-0.539,0.467,2.960,-0.005,0.003,2.306,-0.982,0.928,2.986,2.451,0.639,0.030,-0.596,0.609,2.986,2.337
20.900,-0.560,0.491,2.958,-0.007,-0.000,2.313,-1.005,0.947,2.985,2.456,0.638,0.031,-0.618,0.631,2.985,2.343
20.950,-0.581,0.513,2.956,-0.008,-0.004,2.320,-1.029,0.966,2.985,2.462,0.638,0.030,-0.640,0.652,2.985,2.350
21.000,-0.601,0.534,2.954,-0.007,-0.008,2.328,-1.052,0.985,2.984,2.467,0.639,0.029,-0.662,0.673,2.984,2.356
21.050,-0.620,0.554,2.953,-0.006,-0.010,2.335,-1.076,1.004,2.983,2.473,0.641,0.027,-0.683,0.694,2.983,2.362
21.100,-0.640,0.573,2.953,-0.002,-0.011,2.341,-1.099,1.023,2.982,2.479,0.643,0.026,-0.705,0.715,2.982,2.367
21.150,-0.659,0.591,2.953,0.006,-0.009,2.347,-1.122,1.041,2.982,2.485,0.646,0.025,-0.726,0.736,2.982,2.372
21.200,-0.678,0.609,2.954,0.006,-0.004,2.352,-1.145,1.059,2.981,2.491,0.649,0.024,-0.747,0.756,2.981,2.376
21.250,-0.697,0.628,2.956,0.007,0.010,2.356,-1.168,1.076,2.980,2.498,0.651,0.025,-0.768,0.776,2.980,2.381
21.300,-0.717,0.646,2.959,0.000,0.010,2.360,-1.191,1.093,2.979,2.505,0.652,0.027,-0.789,0.796,2.979,2.386
21.350,-0.736,0.666,2.957,-0.004,-0.003,2.366,-1.214,1.110,2.978,2.512,0.653,0.026,-0.810,0.816,2.978,2.393
21.400,-0.755,0.685,2.956,0.004,-0.006,2.376,-1.237,1.127,2.977,2.519,0.655,0.024,-0.831,0.836,2.977,2.400
21.450,-0.771,0.704,2.951,0.008,-0.012,2.377,-1.260,1.143,2.977,2.527,0.658,0.032,-0.852,0.855,2.977,2.408
21.500,-0.784,0.721,2.940,-0.008,-0.014,2.383,-1.283,1.159,2.976,2.534,0.665,0.037,-0.872,0.874,2.976,2.419
21.550,-0.796,0.734,2.944,-0.000,0.015,2.389,-1.305,1.175,2.975,2.542,0.675,0.039,-0.892,0.893,2.975,2.427
21.600,-0.810,0.747,2.948,0.002,0.005,2.401,-1.328,1.191,2.974,2.550,0.682,0.032,-0.912,0.912,2.974,2.433
21.650,-0.825,0.761,2.947,-0.003,0.012,2.411,-1.350,1.206,2.973,2.559,0.688,0.028,-0.932,0.930,2.973,2.440
21.700,-0.841,0.777,2.949,0.002,0.012,2.419,-1.372,1.220,2.972,2.568,0.692,0.028,-0.952,0.949,2.972,2.446
21.750,-0.859,0.796,2.945,0.010,0.003,2.424,-1.394,1.235,2.971,2.577,0.693,0.030,-0.972,0.967,2.971,2.454
21.800,-0.877,0.817,2.942,0.011,-0.002,2.428,-1.416,1.249,2.970,2.586,0.691,0.038,-0.992,0.985,2.970,2.465
21.850,-0.894,0.839,2.934,-0.004,-0.007,2.440,-1.438,1.262,2.969,2.596,0.691,0.041,-1.011,1.003,2.969,2.480
21.900,-0.909,0.859,2.931,-0.004,-0.009,2.455,-1.460,1.276,2.968,2.605,0.692,0.040,-1.031,1.020,2.968,2.493
21.950,-0.924,0.877,2.930,0.003,0.003,2.463,-1.482,1.289,2.967,2.616,0.694,0.043,-1.050,1.038,2.967,2.505
22.000,-0.939,0.896,2.933,0.004,-0.001,2.478,-1.504,1.301,2.966,2.626,0.696,0.041,-1.069,1.055,2.966,2.518
22.050,-0.956,0.916,2.938,-0.010,0.001,2.501,-1.525,1.314,2.965,2.637,0.695,0.032,-1.088,1.072,2.965,2.531
22.100,-0.972,0.935,2.935,0.002,-0.001,2.510,-1.547,1.325,2.964,2.648,0.696,0.035,-1.107,1.089,2.964,2.544
22.150,-0.988,0.955,2.936,-0.002,0.003,2.519,-1.568,1.337,2.962,2.660,0.696,0.040,-1.125,1.105,2.962,2.558
22.200,-1.005,0.976,2.938,-0.001,-0.010,2.541,-1.590,1.348,2.961,2.672,0.693,0.033,-1.144,1.122,2.961,2.573
22.250,-1.023,0.996,2.933,0.009,-0.018,2.553,-1.611,1.359,2.960,2.684,0.691,0.036,-1.162,1.138,2.960,2.588
22.300,-1.037,1.016,2.936,0.004,0.013,2.552,-1.632,1.369,2.959,2.696,0.692,0.055,-1.180,1.154,2.959,2.605
22.350,-1.051,1.036,2.928,-0.001,0.011,2.563,-1.653,1.379,2.958,2.709,0.694,0.060,-1.199,1.170,2.958,2.622
22.400,-1.068,1.056,2.926,-0.007,0.010,2.588,-1.673,1.389,2.957,2.723,0.692,0.051,-1.217,1.185,2.957,2.637
22.450,-1.088,1.074,2.924,0.009,0.011,2.606,-1.694,1.398,2.955,2.736,0.688,0.045,-1.235,1.201,2.955,2.650
22.500,-1.110,1.094,2.925,0.003,0.010,2.622,-1.715,1.407,2.954,2.750,0.682,0.043,-1.252,1.216,2.954,2.663
22.550,-1.131,1.115,2.919,-0.007,-0.010,2.639,-1.735,1.415,2.953,2.765,0.675,0.040,-1.270,1.232,2.953,2.678
22.600,-1.151,1.134,2.919,-0.004,-0.010,2.661,-1.755,1.424,2.952,2.780,0.671,0.034,-1.288,1.247,2.952,2.693
22.650,-1.167,1.152,2.921,0.010,0.001,2.675,-1.776,1.431,2.950,2.795,0.670,0.036,-1.305,1.262,2.950,2.710
22.700,-1.182,1.171,2.922,0.006,-0.003,2.687,-1.796,1.439,2.949,2.811,0.670,0.043,-1.323,1.276,2.949,2.728
22.750,-1.195,1.190,2.919,0.005,-0.004,2.704,-1.816,1.445,2.948,2.827,0.672,0.047,-1.340,1.291,2.948,2.749
22.800,-1.207,1.208,2.914,0.002,-0.007,2.724,-1.836,1.452,2.946,2.844,0.675,0.047,-1.358,1.305,2.946,2.769
22.850,-1.216,1.224,2.902,-0.005,-0.012,2.740,-1.855,1.458,2.945,2.861,0.682,0.051,-1.375,1.320,2.945,2.789
22.900,-1.223,1.238,2.902,-0.017,-0.006,2.756,-1.875,1.464,2.944,2.879,0.691,0.052,-1.392,1.334,2.944,2.807
22.950,-1.234,1.250,2.902,-0.000,0.021,2.773,-1.894,1.469,2.942,2.897,0.697,0.048,-1.409,1.348,2.942,2.820
23.000,-1.249,1.262,2.903,0.005,0.007,2.796,-1.914,1.474,2.941,2.916,0.698,0.037,-1.426,1.362,2.941,2.832
23.050,-1.265,1.276,2.902,0.005,0.011,2.807,-1.933,1.478,2.939,2.935,0.699,0.040,-1.443,1.375,2.939,2.845
23.100,-1.282,1.292,2.896,0.004,-0.002,2.823,-1.952,1.482,2.938,2.954,0.698,0.042,-1.461,1.389,2.938,2.863
23.150,-1.299,1.310,2.907,-0.003,0.005,2.844,-1.971,1.486,2.936,2.974,0.695,0.042,-1.478,1.402,2.936,2.884
23.200,-1.318,1.330,2.906,0.011,0.005,2.867,-1.990,1.489,2.935,2.994,0.691,0.042,-1.495,1.416,2.935,2.907
23.250,-1.337,1.352,2.904,0.007,0.004,2.887,-2.008,1.492,2.934,3.015,0.686,0.050,-1.512,1.429,2.934,2.934
23.300,-1.358,1.377,2.902,0.000,0.000,2.912,-2.027,1.494,2.932,3.037,0.680,0.056,-1.529,1.442,2.932,2.965
23.350,-1.378,1.402,2.900,-0.004,-0.013,2.948,-2.045,1.496,2.930,3.059,0.674,0.053,-1.547,1.455,2.930,2.998
23.400,-1.395,1.425,2.901,-0.008,-0.008,2.985,-2.063,1.498,2.929,3.081,0.673,0.048,-1.564,1.467,2.929,3.030
23.450,-1.410,1.447,2.893,0.006,-0.024,3.013,-2.081,1.499,2.927,3.104,0.675,0.051,-1.582,1.480,2.927,3.061
23.500,-1.419,1.467,2.893,-0.005,0.005,3.036,-2.099,1.500,2.926,3.127,0.682,0.058,-1.599,1.492,2.926,3.091
23.550,-1.428,1.486,2.894,-0.011,-0.001,3.067,-2.117,1.500,2.924,-3.133,0.690,0.054,-1.617,1.504,2.924,3.118
23.600,-1.438,1.502,2.886,-0.010,0.003,3.098,-2.135,1.500,2.923,-3.109,0.698,0.047,-1.635,1.516,2.923,-3.140
23.650,-1.448,1.516,2.888,-0.004,0.018,3.127,-2.152,1.499,2.921,-3.085,0.705,0.037,-1.653,1.528,2.921,-3.121
23.700,-1.463,1.529,2.889,0.001,0.013,-3.136,-2.170,1.498,2.919,-3.060,0.708,0.038,-1.671,1.539,2.919,-3.101
23.750,-1.485,1.533,2.869,-0.048,0.016,-3.080,-2.187,1.497,2.918,-3.035,0.704,0.011,-1.690,1.550,2.918,-3.090
23.800,-1.513,1.517,2.858,-0.042,0.011,-3.048,-2.204,1.495,2.916,-3.010,0.694,0.061,-1.708,1.561,2.916,-3.106
23.850,-1.542,1.487,2.838,-0.030,0.003,-3.055,-2.221,1.493,2.914,-2.985,0.683,0.096,-1.727,1.571,2.914,3.138
23.900,-1.572,1.446,2.831,-0.018,0.001,-3.083,-2.237,1.490,2.913,-2.959,0.672,0.126,-1.746,1.581,2.913,3.081
23.950,-1.601,1.400,2.828,0.005,-0.003,-3.128,-2.254,1.487,2.911,-2.933,0.664,0.147,-1.765,1.591,2.911,3.016
24.000,-1.635,1.360,2.834,0.084,0.091,3.052,-2.270,1.484,2.909,-2.907,0.651,0.103,-1.784,1.600,2.909,2.955
24.050,-1.698,1.356,2.851,0.099,0.039,2.973,-2.287,1.480,2.908,-2.881,0.604,0.040,-1.804,1.609,2.908,2.934
24.100,-1.770,1.392,2.867,0.076,-0.012,2.956,-2.303,1.476,2.906,-2.854,0.540,0.029,-1.823,1.618,2.906,2.978
24.150,-1.832,1.456,2.872,0.057,-0.083,3.000,-2.319,1.471,2.904,-2.828,0.488,0.111,-1.843,1.626,2.904,3.097
24.200,-1.860,1.534,2.874,0.010,-0.096,3.092,-2.334,1.466,2.902,-2.802,0.480,0.191,-1.863,1.633,2.902,-3.017
24.250,-1.852,1.614,2.873,-0.058,0.012,-3.039,-2.350,1.461,2.900,-2.775,0.521,0.196,-1.883,1.640,2.900,-2.857
24.300,-1.839,1.681,2.846,-0.044,0.004,-2.846,-2.366,1.455,2.899,-2.749,0.576,0.110,-1.904,1.646,2.899,-2.745
24.350,-1.824,1.733,2.829,-0.033,0.007,-2.711,-2.381,1.449,2.897,-2.722,0.629,0.041,-1.924,1.652,2.897,-2.675
24.400,-1.807,1.769,2.817,-0.050,0.026,-2.639,-2.396,1.442,2.895,-2.696,0.679,0.005,-1.945,1.657,2.895,-2.637
24.450,-1.789,1.787,2.812,-0.027,0.010,-2.592,-2.411,1.435,2.893,-2.670,0.719,0.033,-1.965,1.662,2.893,-2.626
24.500,-1.772,1.790,2.808,-0.015,0.016,-2.577,-2.426,1.427,2.891,-2.644,0.752,0.058,-1.986,1.666,2.891,-2.633
24.550,-1.758,1.779,2.798,-0.034,0.035,-2.587,-2.440,1.419,2.889,-2.619,0.777,0.070,-2.007,1.669,2.889,-2.654
24.600,-1.748,1.752,2.800,-0.009,0.018,-2.606,-2.455,1.411,2.887,-2.593,0.790,0.086,-2.028,1.672,2.887,-2.688
24.650,-1.743,1.716,2.805,-0.002,0.015,-2.636,-2.469,1.402,2.885,-2.568,0.795,0.098,-2.049,1.674,2.885,-2.729
24.700,-1.742,1.674,2.805,0.000,0.018,-2.674,-2.483,1.393,2.883,-2.543,0.797,0.106,-2.070,1.675,2.883,-2.775
24.750,-1.746,1.628,2.806,0.001,0.019,-2.717,-2.497,1.384,2.882,-2.519,0.793,0.110,-2.091,1.676,2.882,-2.821
24.800,-1.757,1.581,2.808,0.003,0.019,-2.762,-2.511,1.374,2.880,-2.495,0.785,0.112,-2.112,1.675,2.880,-2.868
24.850,-1.775,1.533,2.810,0.006,0.017,-2.807,-2.525,1.364,2.878,-2.471,0.771,0.113,-2.133,1.675,2.878,-2.915
24.900,-1.801,1.485,2.813,0.008,0.014,-2.851,-2.538,1.353,2.876,-2.447,0.751,0.114,-2.154,1.673,2.876,-2.959
24.950,-1.834,1.439,2.814,0.007,0.012,-2.894,-2.551,1.342,2.874,-2.424,0.726,0.113,-2.174,1.671,2.874,-3.002
25.000,-1.874,1.396,2.811,0.012,0.020,-2.936,-2.564,1.331,2.872,-2.402,0.696,0.112,-2.195,1.668,2.872,-3.042
25.050,-1.924,1.355,2.814,0.010,0.015,-2.976,-2.577,1.319,2.869,-2.379,0.657,0.111,-2.216,1.665,2.869,-3.081
25.100,-1.979,1.318,2.808,0.014,0.023,-3.011,-2.590,1.307,2.867,-2.357,0.613,0.113,-2.236,1.660,2.867,-3.119
25.150,-2.044,1.284,2.807,0.009,0.016,-3.047,-2.602,1.295,2.865,-2.336,0.562,0.114,-2.256,1.655,2.865,3.129
25.200,-2.114,1.254,2.805,0.017,0.012,-3.083,-2.615,1.282,2.863,-2.315,0.505,0.114,-2.276,1.650,2.863,3.092
25.250,-2.188,1.229,2.803,0.016,0.008,-3.114,-2.627,1.269,2.861,-2.294,0.445,0.118,-2.296,1.643,2.861,3.057
25.300,-2.265,1.210,2.799,0.017,0.004,3.139,-2.639,1.255,2.859,-2.274,0.381,0.119,-2.316,1.637,2.859,3.027
25.350,-2.352,1.222,2.819,0.131,-0.002,3.079,-2.651,1.241,2.857,-2.254,0.302,0.003,-2.335,1.629,2.857,3.067
25.400,-2.432,1.285,2.825,0.049,-0.150,3.128,-2.662,1.227,2.855,-2.235,0.239,0.261,-2.354,1.621,2.855,-2.933
25.450,-2.466,1.371,2.824,0.004,-0.069,-2.880,-2.674,1.213,2.853,-2.216,0.263,0.392,-2.373,1.612,2.853,-2.520
25.500,-2.470,1.467,2.804,0.001,-0.078,-2.514,-2.685,1.198,2.850,-2.197,0.348,0.271,-2.392,1.603,2.850,-2.260
25.550,-2.448,1.582,2.798,0.007,-0.032,-2.257,-2.696,1.183,2.848,-2.179,0.473,0.131,-2.410,1.593,2.848,-2.135
25.600,-2.415,1.706,2.800,-0.029,0.017,-2.120,-2.707,1.167,2.846,-2.162,0.614,0.053,-2.428,1.582,2.846,-2.072
25.650,-2.378,1.820,2.793,-0.032,0.049,-2.052,-2.718,1.151,2.844,-2.144,0.752,0.012,-2.446,1.571,2.844,-2.042
25.700,-2.340,1.912,2.798,-0.030,0.066,-2.024,-2.728,1.135,2.841,-2.127,0.869,0.011,-2.464,1.559,2.841,-2.034
25.750,-2.302,1.974,2.791,-0.040,0.085,-2.019,-2.738,1.118,2.839,-2.111,0.962,0.024,-2.481,1.547,2.839,-2.041
25.800,-2.266,2.001,2.790,-0.030,0.080,-2.027,-2.748,1.102,2.837,-2.095,1.022,0.035,-2.498,1.535,2.837,-2.061
25.850,-2.233,1.996,2.788,-0.021,0.069,-2.048,-2.758,1.084,2.835,-2.079,1.053,0.045,-2.515,1.521,2.835,-2.090
25.900,-2.205,1.961,2.778,-0.023,0.066,-2.076,-2.768,1.067,2.832,-2.063,1.058,0.056,-2.532,1.508,2.832,-2.128
25.950,-2.183,1.901,2.777,-0.011,0.045,-2.108,-2.778,1.049,2.830,-2.048,1.040,0.073,-2.548,1.493,2.830,-2.176
26.000,-2.167,1.826,2.771,-0.000,0.037,-2.153,-2.787,1.031,2.828,-2.033,1.010,0.081,-2.564,1.479,2.828,-2.228
26.050,-2.157,1.741,2.764,0.010,0.021,-2.202,-2.796,1.013,2.825,-2.019,0.971,0.090,-2.580,1.464,2.825,-2.285
26.100,-2.154,1.652,2.762,0.017,0.009,-2.252,-2.805,0.994,2.823,-2.005,0.928,0.099,-2.595,1.448,2.823,-2.345
26.150,-2.158,1.562,2.759,0.018,0.008,-2.305,-2.814,0.976,2.821,-1.991,0.882,0.107,-2.610,1.432,2.821,-2.405
26.200,-2.170,1.476,2.759,0.015,0.004,-2.359,-2.822,0.956,2.818,-1.977,0.837,0.111,-2.625,1.416,2.818,-2.463
26.250,-2.188,1.395,2.760,0.018,0.001,-2.413,-2.831,0.937,2.816,-1.964,0.791,0.110,-2.639,1.399,2.816,-2.517
26.300,-2.212,1.320,2.761,0.024,-0.003,-2.464,-2.839,0.917,2.813,-1.951,0.747,0.107,-2.654,1.382,2.813,-2.564
26.350,-2.243,1.253,2.762,0.027,-0.005,-2.509,-2.847,0.898,2.811,-1.938,0.703,0.100,-2.668,1.364,2.811,-2.604
26.400,-2.279,1.194,2.764,0.026,-0.000,-2.547,-2.855,0.877,2.808,-1.926,0.659,0.091,-2.681,1.346,2.808,-2.634
26.450,-2.320,1.143,2.761,0.025,0.001,-2.576,-2.862,0.857,2.806,-1.913,0.614,0.081,-2.694,1.328,2.806,-2.653
26.500,-2.366,1.099,2.762,0.025,-0.004,-2.590,-2.870,0.836,2.804,-1.901,0.570,0.070,-2.708,1.309,2.804,-2.658
26.550,-2.415,1.064,2.752,0.015,-0.002,-2.595,-2.877,0.815,2.801,-1.889,0.527,0.053,-2.720,1.290,2.801,-2.647
26.600,-2.467,1.036,2.748,0.013,-0.011,-2.583,-2.884,0.794,2.799,-1.878,0.485,0.033,-2.733,1.271,2.799,-2.617
26.650,-2.519,1.015,2.740,0.006,-0.016,-2.553,-2.891,0.773,2.796,-1.866,0.447,0.012,-2.745,1.251,2.796,-2.568
26.700,-2.568,1.001,2.731,0.006,-0.023,-2.504,-2.897,0.752,2.794,-1.855,0.418,0.010,-2.757,1.231,2.794,-2.499
26.750,-2.611,0.995,2.721,0.005,-0.028,-2.435,-2.904,0.730,2.791,-1.844,0.401,0.030,-2.769,1.211,2.791,-2.412
26.800,-2.647,0.998,2.719,0.006,-0.035,-2.352,-2.910,0.708,2.788,-1.834,0.398,0.045,-2.780,1.191,2.788,-2.314
26.850,-2.673,1.012,2.714,-0.000,-0.036,-2.258,-2.916,0.686,2.786,-1.823,0.413,0.048,-2.791,1.170,2.786,-2.217
26.900,-2.691,1.037,2.712,-0.007,-0.026,-2.165,-2.922,0.663,2.783,-1.813,0.444,0.042,-2.802,1.149,2.783,-2.130
26.950,-2.702,1.070,2.708,-0.007,-0.023,-2.084,-2.927,0.641,2.781,-1.802,0.490,0.029,-2.813,1.128,2.781,-2.059
27.000,-2.705,1.110,2.702,-0.011,-0.009,-2.016,-2.933,0.618,2.778,-1.792,0.547,0.013,-2.823,1.106,2.778,-2.007
27.050,-2.704,1.152,2.705,-0.006,0.005,-1.968,-2.938,0.595,2.775,-1.782,0.608,0.000,-2.833,1.084,2.775,-1.970
27.100,-2.700,1.192,2.710,-0.010,0.011,-1.936,-2.943,0.572,2.773,-1.772,0.668,0.007,-2.843,1.062,2.773,-1.945
27.150,-2.694,1.224,2.705,-0.017,0.023,-1.915,-2.947,0.549,2.770,-1.763,0.724,0.014,-2.852,1.040,2.770,-1.930
27.200,-2.687,1.247,2.707,-0.012,0.023,-1.903,-2.952,0.526,2.767,-1.753,0.771,0.020,-2.861,1.017,2.767,-1.923
27.250,-2.679,1.259,2.710,-0.006,0.024,-1.899,-2.956,0.502,2.765,-1.744,0.808,0.023,-2.870,0.995,2.765,-1.922
27.300,-2.671,1.259,2.711,-0.006,0.031,-1.901,-2.961,0.479,2.762,-1.734,0.834,0.025,-2.879,0.972,2.762,-1.925
27.350,-2.663,1.249,2.709,-0.005,0.033,-1.906,-2.964,0.455,2.759,-1.725,0.851,0.028,-2.888,0.949,2.759,-1.932
27.400,-2.657,1.228,2.705,0.001,0.024,-1.913,-2.968,0.431,2.757,-1.716,0.858,0.030,-2.896,0.926,2.757,-1.941
27.450,-2.652,1.199,2.706,0.004,0.015,-1.921,-2.972,0.407,2.754,-1.707,0.855,0.033,-2.904,0.902,2.754,-1.953
27.500,-2.649,1.163,2.706,0.003,0.012,-1.931,-2.975,0.383,2.751,-1.698,0.846,0.035,-2.912,0.879,2.751,-1.964
27.550,-2.649,1.122,2.702,0.002,0.010,-1.941,-2.978,0.359,2.748,-1.689,0.833,0.036,-2.919,0.855,2.748,-1.976
27.600,-2.652,1.078,2.697,0.001,0.007,-1.951,-2.981,0.334,2.746,-1.680,0.815,0.037,-2.927,0.831,2.746,-1.986
27.650,-2.658,1.032,2.692,-0.001,0.005,-1.959,-2.984,0.310,2.743,-1.671,0.794,0.036,-2.934,0.807,2.743,-1.993
27.700,-2.666,0.986,2.685,0.007,0.004,-1.964,-2.986,0.285,2.740,-1.663,0.772,0.036,-2.940,0.783,2.740,-1.998
27.750,-2.678,0.941,2.677,0.006,0.002,-1.964,-2.989,0.261,2.737,-1.654,0.750,0.035,-2.947,0.759,2.737,-1.998
27.800,-2.693,0.896,2.675,0.011,-0.007,-1.962,-2.991,0.236,2.734,-1.645,0.726,0.032,-2.953,0.735,2.734,-1.993
27.850,-2.711,0.855,2.671,0.009,-0.007,-1.956,-2.993,0.211,2.732,-1.637,0.705,0.027,-2.959,0.710,2.732,-1.983
