time_seconds,targets_hit,total_targets,drone_x,drone_y,drone_z,drone_roll,drone_pitch,drone_yaw,target_x,target_y,target_z,target_yaw,distance_to_target,yaw_error,is_hitting
0.000,0,1,0.000,0.000,0.999,-0.088,0.088,-0.013,1.000,1.000,1.500,0.000,1.500,0.013,0
0.050,0,1,0.128,0.102,1.119,-0.314,0.256,-0.054,1.000,1.000,1.500,0.000,1.309,0.054,0
0.100,0,1,0.405,0.327,1.307,-0.266,0.081,-0.052,1.000,1.000,1.500,0.000,0.918,0.052,0
0.150,0,1,0.704,0.624,1.396,-0.234,-0.072,-0.053,1.000,1.000,1.500,0.000,0.489,0.053,0
0.200,0,1,0.977,0.994,1.453,-0.052,-0.183,-0.022,1.000,1.000,1.500,0.000,0.053,0.022,1
0.250,0,1,1.172,1.363,1.501,0.279,-0.304,0.003,1.000,1.000,1.500,0.000,0.401,0.003,0
0.300,0,1,1.238,1.602,1.562,0.438,-0.326,0.050,1.000,1.000,1.500,0.000,0.650,0.050,0
0.350,0,1,1.185,1.640,1.639,0.345,-0.142,0.114,1.000,1.000,1.500,0.000,0.681,0.114,0
0.400,0,1,1.098,1.555,1.660,0.188,-0.057,0.098,1.000,1.000,1.500,0.000,0.586,0.098,0
0.450,0,1,0.996,1.399,1.642,0.057,-0.005,0.074,1.000,1.000,1.500,0.000,0.424,0.074,0
0.500,0,1,0.896,1.221,1.611,-0.038,0.060,0.044,1.000,1.000,1.500,0.000,0.268,0.044,1
0.550,0,1,0.820,1.062,1.591,-0.106,0.110,0.011,1.000,1.000,1.500,0.000,0.211,0.011,1
0.600,0,1,0.785,0.948,1.578,-0.148,0.120,-0.016,1.000,1.000,1.500,0.000,0.234,0.016,1
0.650,0,1,0.798,0.890,1.563,-0.125,0.095,-0.040,1.000,1.000,1.500,0.000,0.239,0.040,1
0.700,0,1,0.849,0.882,1.558,-0.090,0.024,-0.052,1.000,1.000,1.500,0.000,0.200,0.052,1
0.750,0,1,0.915,0.910,1.543,-0.045,-0.018,-0.063,1.000,1.000,1.500,0.000,0.131,0.063,1
0.800,0,1,0.975,0.959,1.537,0.004,-0.067,-0.063,1.000,1.000,1.500,0.000,0.061,0.063,1
0.850,0,1,1.014,1.010,1.526,0.024,-0.058,-0.057,1.000,1.000,1.500,0.000,0.031,0.057,1
0.900,0,1,1.028,1.051,1.530,0.044,-0.048,-0.044,1.000,1.000,1.500,0.000,0.066,0.044,1
0.950,0,1,1.023,1.077,1.525,0.035,-0.026,-0.034,1.000,1.000,1.500,0.000,0.084,0.034,1
1.000,0,1,1.008,1.088,1.521,0.028,-0.001,-0.028,1.000,1.000,1.500,0.000,0.091,0.028,1
1.050,0,1,0.989,1.086,1.517,0.017,0.010,-0.024,1.000,1.000,1.500,0.000,0.089,0.024,1
1.100,0,1,0.974,1.077,1.519,0.008,0.013,-0.024,1.000,1.000,1.500,0.000,0.083,0.024,1
1.150,0,1,0.964,1.063,1.517,0.002,0.016,-0.025,1.000,1.000,1.500,0.000,0.075,0.025,1
1.200,0,1,0.959,1.050,1.514,-0.015,0.016,-0.028,1.000,1.000,1.500,0.000,0.066,0.028,1
1.250,0,1,0.960,1.041,1.516,-0.007,0.006,-0.029,1.000,1.000,1.500,0.000,0.059,0.029,1
1.300,0,1,0.963,1.035,1.511,-0.013,0.007,-0.031,1.000,1.000,1.500,0.000,0.052,0.031,1
1.350,0,1,0.967,1.032,1.508,-0.012,0.004,-0.033,1.000,1.000,1.500,0.000,0.047,0.033,1
1.400,0,1,0.972,1.033,1.511,-0.005,-0.004,-0.033,1.000,1.000,1.500,0.000,0.045,0.033,1
1.450,0,1,0.977,1.036,1.514,0.001,-0.006,-0.034,1.000,1.000,1.500,0.000,0.045,0.034,1
1.500,0,1,0.980,1.040,1.510,0.003,-0.006,-0.034,1.000,1.000,1.500,0.000,0.045,0.034,1
1.550,0,1,0.983,1.044,1.507,0.000,-0.003,-0.034,1.000,1.000,1.500,0.000,0.048,0.034,1
1.600,0,1,0.984,1.047,1.507,0.004,-0.003,-0.033,1.000,1.000,1.500,0.000,0.051,0.033,1
1.650,0,1,0.983,1.049,1.506,0.013,-0.007,-0.030,1.000,1.000,1.500,0.000,0.053,0.030,1
1.700,0,1,0.980,1.048,1.509,0.000,0.000,-0.030,1.000,1.000,1.500,0.000,0.053,0.030,1
1.750,0,1,0.975,1.046,1.505,0.001,0.004,-0.031,1.000,1.000,1.500,0.000,0.052,0.031,1
1.800,0,1,0.972,1.043,1.509,-0.005,0.006,-0.031,1.000,1.000,1.500,0.000,0.052,0.031,1
1.850,0,1,0.971,1.042,1.505,0.000,0.003,-0.031,1.000,1.000,1.500,0.000,0.051,0.031,1
1.900,0,1,0.971,1.041,1.502,-0.005,0.006,-0.033,1.000,1.000,1.500,0.000,0.050,0.033,1
1.950,0,1,0.973,1.041,1.504,-0.000,-0.004,-0.030,1.000,1.000,1.500,0.000,0.050,0.030,1
2.000,0,1,0.974,1.042,1.503,-0.010,0.006,-0.031,1.000,1.000,1.500,0.000,0.050,0.031,1
2.050,0,1,0.976,1.045,1.504,0.004,-0.002,-0.032,1.000,1.000,1.500,0.000,0.051,0.032,1
2.100,0,1,0.978,1.047,1.505,0.005,-0.004,-0.031,1.000,1.000,1.500,0.000,0.051,0.031,1
2.150,0,1,0.979,1.047,1.503,-0.002,0.001,-0.031,1.000,1.000,1.500,0.000,0.052,0.031,1
2.200,0,1,0.980,1.048,1.507,0.002,0.001,-0.031,1.000,1.000,1.500,0.000,0.052,0.031,1
2.250,0,1,0.980,1.048,1.506,0.002,-0.000,-0.031,1.000,1.000,1.500,0.000,0.052,0.031,1
2.300,0,1,0.979,1.047,1.507,0.003,-0.001,-0.031,1.000,1.000,1.500,0.000,0.052,0.031,1
2.350,0,1,0.978,1.045,1.505,-0.001,0.001,-0.031,1.000,1.000,1.500,0.000,0.051,0.031,1
2.400,0,1,0.976,1.043,1.503,-0.005,0.006,-0.031,1.000,1.000,1.500,0.000,0.050,0.031,1
2.450,0,1,0.976,1.043,1.503,0.006,-0.001,-0.030,1.000,1.000,1.500,0.000,0.050,0.030,1
2.500,1,2,0.975,1.043,1.497,-0.054,-0.108,-0.014,-1.000,1.000,1.000,0.500,2.037,0.514,0
2.550,1,2,0.788,1.009,1.439,-0.186,-0.540,0.524,-1.000,1.000,1.000,0.500,1.841,0.024,0
2.600,1,2,0.258,0.922,1.451,-0.327,-0.163,0.501,-1.000,1.000,1.000,0.500,1.339,0.001,0
2.650,1,2,-0.340,0.891,1.340,-0.049,0.013,0.555,-1.000,1.000,1.000,0.500,0.751,0.055,0
2.700,1,2,-0.922,0.885,1.216,0.140,0.376,0.610,-1.000,1.000,1.000,0.500,0.256,0.110,0
2.750,1,2,-1.307,0.925,1.171,0.206,0.539,0.588,-1.000,1.000,1.000,0.500,0.359,0.088,0
2.800,1,2,-1.424,1.010,1.177,0.241,0.345,0.504,-1.000,1.000,1.000,0.500,0.460,0.004,0
2.850,1,2,-1.370,1.073,1.157,0.184,0.139,0.464,-1.000,1.000,1.000,0.500,0.409,0.036,0
2.900,1,2,-1.233,1.096,1.132,0.096,-0.014,0.459,-1.000,1.000,1.000,0.500,0.284,0.041,1
2.950,1,2,-1.084,1.082,1.107,0.028,-0.108,0.458,-1.000,1.000,1.000,0.500,0.159,0.042,1
3.000,1,2,-0.965,1.043,1.078,-0.047,-0.111,0.457,-1.000,1.000,1.000,0.500,0.096,0.043,1
3.050,1,2,-0.893,0.999,1.068,-0.060,-0.085,0.458,-1.000,1.000,1.000,0.500,0.126,0.042,1
3.100,1,2,-0.864,0.961,1.061,-0.050,-0.056,0.460,-1.000,1.000,1.000,0.500,0.154,0.040,1
3.150,1,2,-0.865,0.934,1.049,-0.051,-0.020,0.455,-1.000,1.000,1.000,0.500,0.158,0.045,1
3.200,1,2,-0.882,0.919,1.042,-0.036,0.005,0.456,-1.000,1.000,1.000,0.500,0.149,0.044,1
3.250,1,2,-0.903,0.913,1.032,-0.011,0.024,0.460,-1.000,1.000,1.000,0.500,0.134,0.040,1
3.300,1,2,-0.921,0.915,1.026,-0.008,0.019,0.461,-1.000,1.000,1.000,0.500,0.119,0.039,1
3.350,1,2,-0.934,0.923,1.022,-0.029,0.019,0.464,-1.000,1.000,1.000,0.500,0.104,0.036,1
3.400,1,2,-0.944,0.939,1.022,0.010,0.008,0.470,-1.000,1.000,1.000,0.500,0.085,0.030,1
3.450,1,2,-0.949,0.953,1.025,0.010,-0.005,0.472,-1.000,1.000,1.000,0.500,0.074,0.028,1
3.500,1,2,-0.949,0.965,1.029,0.030,-0.017,0.476,-1.000,1.000,1.000,0.500,0.068,0.024,1
3.550,1,2,-0.949,0.970,1.036,0.007,-0.014,0.466,-1.000,1.000,1.000,0.500,0.070,0.034,1
3.600,1,2,-0.951,0.968,1.041,-0.030,0.002,0.469,-1.000,1.000,1.000,0.500,0.071,0.031,1
3.650,1,2,-0.954,0.964,1.036,0.009,0.009,0.460,-1.000,1.000,1.000,0.500,0.069,0.040,1
3.700,1,2,-0.953,0.957,1.022,-0.000,0.006,0.462,-1.000,1.000,1.000,0.500,0.067,0.038,1
3.750,1,2,-0.950,0.950,1.018,0.005,-0.001,0.456,-1.000,1.000,1.000,0.500,0.073,0.044,1
3.800,1,2,-0.946,0.945,1.011,-0.004,0.009,0.461,-1.000,1.000,1.000,0.500,0.078,0.039,1
3.850,1,2,-0.942,0.942,1.001,-0.014,-0.004,0.462,-1.000,1.000,1.000,0.500,0.082,0.038,1
3.900,1,2,-0.940,0.943,0.997,-0.004,-0.001,0.462,-1.000,1.000,1.000,0.500,0.083,0.038,1
3.950,1,2,-0.937,0.943,1.006,-0.013,0.008,0.462,-1.000,1.000,1.000,0.500,0.085,0.038,1
4.000,1,2,-0.934,0.943,1.000,0.006,-0.004,0.461,-1.000,1.000,1.000,0.500,0.087,0.039,1
4.050,1,2,-0.931,0.941,1.006,-0.006,0.002,0.454,-1.000,1.000,1.000,0.500,0.091,0.046,1
4.100,1,2,-0.929,0.939,1.004,0.003,-0.010,0.459,-1.000,1.000,1.000,0.500,0.093,0.041,1
4.150,1,2,-0.929,0.940,1.003,0.008,-0.005,0.456,-1.000,1.000,1.000,0.500,0.093,0.044,1
4.200,1,2,-0.929,0.940,1.006,-0.001,0.002,0.453,-1.000,1.000,1.000,0.500,0.093,0.047,1
4.250,1,2,-0.929,0.939,1.007,0.004,-0.005,0.457,-1.000,1.000,1.000,0.500,0.094,0.043,1
4.300,1,2,-0.929,0.938,1.007,-0.007,0.012,0.453,-1.000,1.000,1.000,0.500,0.095,0.047,1
4.350,1,2,-0.931,0.936,0.995,-0.000,-0.004,0.459,-1.000,1.000,1.000,0.500,0.094,0.041,1
4.400,1,2,-0.933,0.935,0.995,0.005,0.004,0.449,-1.000,1.000,1.000,0.500,0.093,0.051,1
4.450,1,2,-0.933,0.935,0.997,-0.016,-0.001,0.458,-1.000,1.000,1.000,0.500,0.094,0.042,1
4.500,1,2,-0.934,0.937,1.003,-0.012,0.016,0.462,-1.000,1.000,1.000,0.500,0.091,0.038,1
4.550,1,2,-0.934,0.941,1.010,0.005,-0.023,0.464,-1.000,1.000,1.000,0.500,0.090,0.036,1
4.600,1,2,-0.934,0.942,1.010,-0.009,-0.010,0.459,-1.000,1.000,1.000,0.500,0.088,0.041,1
4.650,1,2,-0.937,0.945,1.018,0.015,-0.023,0.467,-1.000,1.000,1.000,0.500,0.085,0.033,1
4.700,1,2,-0.941,0.948,1.016,-0.021,0.012,0.457,-1.000,1.000,1.000,0.500,0.080,0.043,1
4.750,1,2,-0.944,0.953,1.019,0.026,-0.009,0.466,-1.000,1.000,1.000,0.500,0.076,0.034,1
4.800,1,2,-0.944,0.956,1.026,0.017,0.003,0.468,-1.000,1.000,1.000,0.500,0.076,0.032,1
4.850,1,2,-0.942,0.958,1.008,-0.007,0.002,0.465,-1.000,1.000,1.000,0.500,0.072,0.035,1
4.900,2,3,-0.939,0.961,1.011,0.010,-0.004,0.461,2.000,-1.500,2.000,1.000,3.959,0.539,0
4.950,2,3,-0.850,0.827,1.081,0.511,-0.023,1.247,2.000,-1.500,2.000,1.000,3.792,0.247,0
5.000,2,3,-0.418,0.375,1.207,0.267,-0.689,1.269,2.000,-1.500,2.000,1.000,3.161,0.269,0
5.050,2,3,0.126,-0.390,1.425,0.660,-0.514,1.212,2.000,-1.500,2.000,1.000,2.253,0.212,0
5.100,2,3,0.733,-1.329,1.648,-0.083,0.870,1.185,2.000,-1.500,2.000,1.000,1.326,0.185,0
5.150,2,3,1.402,-2.044,1.846,0.239,0.160,1.194,2.000,-1.500,2.000,1.000,0.823,0.194,0
5.200,2,3,2.099,-2.554,2.044,-0.555,0.410,1.129,2.000,-1.500,2.000,1.000,1.059,0.129,0
5.250,2,3,2.622,-2.830,2.225,-0.593,0.450,0.889,2.000,-1.500,2.000,1.000,1.486,0.111,0
5.300,2,3,2.907,-2.723,2.472,-0.776,0.301,1.020,2.000,-1.500,2.000,1.000,1.594,0.020,0
5.350,2,3,2.998,-2.414,2.615,-0.759,-0.235,1.132,2.000,-1.500,2.000,1.000,1.487,0.132,0
5.400,2,3,2.841,-2.080,2.602,-0.562,-0.674,1.003,2.000,-1.500,2.000,1.000,1.185,0.003,0
5.450,2,3,2.413,-1.790,2.455,0.165,-0.251,0.866,2.000,-1.500,2.000,1.000,0.679,0.134,0
5.500,2,3,2.002,-1.595,2.273,0.286,0.075,1.061,2.000,-1.500,2.000,1.000,0.290,0.061,1
5.550,2,3,1.735,-1.468,2.177,0.414,0.039,1.064,2.000,-1.500,2.000,1.000,0.320,0.064,0
5.600,2,3,1.633,-1.412,2.147,0.294,0.071,1.061,2.000,-1.500,2.000,1.000,0.406,0.061,0
5.650,2,3,1.647,-1.389,2.131,0.146,0.065,1.061,2.000,-1.500,2.000,1.000,0.392,0.061,0
5.700,2,3,1.722,-1.370,2.107,0.049,0.029,1.073,2.000,-1.500,2.000,1.000,0.325,0.073,0
5.750,2,3,1.817,-1.351,2.087,-0.021,-0.024,1.078,2.000,-1.500,2.000,1.000,0.252,0.078,1
5.800,2,3,1.902,-1.336,2.066,-0.047,-0.055,1.076,2.000,-1.500,2.000,1.000,0.202,0.076,1
5.850,2,3,1.960,-1.331,2.049,-0.049,-0.063,1.070,2.000,-1.500,2.000,1.000,0.180,0.070,1
5.900,2,3,1.990,-1.339,2.038,-0.035,-0.052,1.065,2.000,-1.500,2.000,1.000,0.166,0.065,1
5.950,2,3,1.998,-1.358,2.032,-0.019,-0.030,1.062,2.000,-1.500,2.000,1.000,0.146,0.062,1
6.000,2,3,1.993,-1.383,2.017,-0.010,-0.009,1.060,2.000,-1.500,2.000,1.000,0.119,0.060,1
6.050,2,3,1.982,-1.408,2.010,-0.008,0.013,1.060,2.000,-1.500,2.000,1.000,0.094,0.060,1
6.100,2,3,1.972,-1.429,2.005,0.004,0.020,1.060,2.000,-1.500,2.000,1.000,0.076,0.060,1
6.150,2,3,1.965,-1.443,1.998,0.001,0.024,1.057,2.000,-1.500,2.000,1.000,0.066,0.057,1
6.200,2,3,1.963,-1.449,2.004,-0.003,0.019,1.054,2.000,-1.500,2.000,1.000,0.063,0.054,1
6.250,2,3,1.964,-1.448,2.007,0.001,0.010,1.050,2.000,-1.500,2.000,1.000,0.064,0.050,1
6.300,2,3,1.965,-1.444,1.996,-0.001,0.003,1.047,2.000,-1.500,2.000,1.000,0.066,0.047,1
6.350,2,3,1.967,-1.439,1.993,-0.004,-0.004,1.047,2.000,-1.500,2.000,1.000,0.070,0.047,1
6.400,2,3,1.968,-1.435,1.992,-0.001,-0.003,1.048,2.000,-1.500,2.000,1.000,0.073,0.048,1
6.450,2,3,1.969,-1.432,1.993,0.004,-0.005,1.049,2.000,-1.500,2.000,1.000,0.076,0.049,1
6.500,2,3,1.968,-1.430,1.992,0.001,-0.002,1.049,2.000,-1.500,2.000,1.000,0.077,0.049,1
6.550,2,3,1.968,-1.430,1.987,0.000,-0.000,1.049,2.000,-1.500,2.000,1.000,0.078,0.049,1
6.600,2,3,1.967,-1.430,1.992,-0.000,-0.000,1.051,2.000,-1.500,2.000,1.000,0.078,0.051,1
6.650,2,3,1.967,-1.430,1.989,0.002,0.000,1.052,2.000,-1.500,2.000,1.000,0.078,0.052,1
6.700,2,3,1.966,-1.430,1.995,0.003,0.002,1.052,2.000,-1.500,2.000,1.000,0.078,0.052,1
6.750,2,3,1.965,-1.430,1.992,0.003,0.001,1.052,2.000,-1.500,2.000,1.000,0.078,0.052,1
6.800,2,3,1.965,-1.430,1.988,0.002,0.001,1.052,2.000,-1.500,2.000,1.000,0.079,0.052,1
6.850,2,3,1.965,-1.430,1.984,-0.002,-0.001,1.052,2.000,-1.500,2.000,1.000,0.079,0.052,1
6.900,2,3,1.965,-1.430,1.990,0.001,-0.002,1.053,2.000,-1.500,2.000,1.000,0.079,0.053,1
6.950,2,3,1.966,-1.430,1.990,0.001,0.001,1.051,2.000,-1.500,2.000,1.000,0.078,0.051,1
7.000,2,3,1.967,-1.430,1.984,-0.000,0.000,1.051,2.000,-1.500,2.000,1.000,0.079,0.051,1
7.050,2,3,1.967,-1.430,1.985,-0.003,-0.002,1.051,2.000,-1.500,2.000,1.000,0.079,0.051,1
7.100,2,3,1.968,-1.430,1.988,-0.007,-0.001,1.052,2.000,-1.500,2.000,1.000,0.078,0.052,1
7.150,2,3,1.967,-1.430,1.994,-0.001,0.004,1.052,2.000,-1.500,2.000,1.000,0.077,0.052,1
7.200,2,3,1.967,-1.430,1.997,-0.005,-0.003,1.052,2.000,-1.500,2.000,1.000,0.077,0.052,1
7.250,2,3,1.967,-1.430,2.000,-0.005,-0.001,1.051,2.000,-1.500,2.000,1.000,0.077,0.051,1
7.300,2,3,1.966,-1.430,2.002,-0.005,-0.003,1.052,2.000,-1.500,2.000,1.000,0.078,0.052,1
7.350,2,3,1.965,-1.430,1.999,0.004,-0.000,1.051,2.000,-1.500,2.000,1.000,0.078,0.051,1
7.400,2,3,1.964,-1.430,2.000,-0.001,-0.001,1.051,2.000,-1.500,2.000,1.000,0.078,0.051,1
7.450,2,3,1.964,-1.431,1.995,-0.004,-0.001,1.052,2.000,-1.500,2.000,1.000,0.078,0.052,1
7.500,2,3,1.964,-1.431,1.993,-0.000,0.001,1.052,2.000,-1.500,2.000,1.000,0.078,0.052,1
7.550,2,3,1.965,-1.431,1.995,-0.000,0.001,1.051,2.000,-1.500,2.000,1.000,0.078,0.051,1
7.600,2,3,1.966,-1.430,2.000,-0.002,-0.001,1.051,2.000,-1.500,2.000,1.000,0.078,0.051,1
7.650,2,3,1.966,-1.429,2.002,-0.003,0.000,1.050,2.000,-1.500,2.000,1.000,0.078,0.050,1
7.700,2,3,1.966,-1.429,2.001,-0.002,-0.003,1.051,2.000,-1.500,2.000,1.000,0.078,0.051,1
7.750,3,4,1.941,-1.432,1.991,-1.442,-0.533,1.499,-2.000,-1.500,1.800,1.500,3.946,0.001,0
7.800,3,4,1.466,-1.446,1.814,-0.542,-0.192,1.070,-2.000,-1.500,1.800,1.500,3.467,0.430,0
7.850,3,4,0.515,-1.465,1.701,-1.230,-0.259,1.483,-2.000,-1.500,1.800,1.500,2.517,0.017,0
7.900,3,4,-0.920,-1.491,1.554,0.109,0.168,1.715,-2.000,-1.500,1.800,1.500,1.107,0.215,0
7.950,3,4,-2.330,-1.436,1.427,1.180,0.085,1.939,-2.000,-1.500,1.800,1.500,0.502,0.439,0
8.000,3,4,-3.073,-1.114,1.251,1.005,-0.146,1.853,-2.000,-1.500,1.800,1.500,1.265,0.353,0
8.050,3,4,-3.103,-0.678,1.105,0.737,-0.438,1.493,-2.000,-1.500,1.800,1.500,1.542,0.007,0
8.100,3,4,-2.667,-0.529,1.087,0.055,-0.515,1.448,-2.000,-1.500,1.800,1.500,1.377,0.052,0
8.150,3,4,-2.210,-0.772,1.330,-0.067,-0.255,1.468,-2.000,-1.500,1.800,1.500,0.891,0.032,0
8.200,3,4,-1.787,-1.127,1.539,-0.331,-0.157,1.532,-2.000,-1.500,1.800,1.500,0.503,0.032,0
8.250,3,4,-1.474,-1.508,1.664,-0.505,0.014,1.560,-2.000,-1.500,1.800,1.500,0.543,0.060,0
8.300,3,4,-1.335,-1.842,1.748,-0.414,0.325,1.515,-2.000,-1.500,1.800,1.500,0.749,0.015,0
8.350,3,4,-1.383,-2.007,1.847,-0.211,0.580,1.464,-2.000,-1.500,1.800,1.500,0.800,0.036,0
8.400,3,4,-1.501,-1.971,1.871,-0.032,0.369,1.476,-2.000,-1.500,1.800,1.500,0.690,0.024,0
8.450,3,4,-1.621,-1.815,1.821,0.053,0.098,1.465,-2.000,-1.500,1.800,1.500,0.494,0.035,0
8.500,3,4,-1.717,-1.619,1.781,0.062,-0.055,1.481,-2.000,-1.500,1.800,1.500,0.307,0.019,0
8.550,3,4,-1.793,-1.449,1.749,0.060,-0.159,1.503,-2.000,-1.500,1.800,1.500,0.219,0.003,1
8.600,3,4,-1.847,-1.344,1.745,0.055,-0.137,1.521,-2.000,-1.500,1.800,1.500,0.225,0.021,1
8.650,3,4,-1.882,-1.296,1.727,0.060,-0.112,1.521,-2.000,-1.500,1.800,1.500,0.247,0.021,1
8.700,3,4,-1.895,-1.293,1.725,0.029,-0.044,1.530,-2.000,-1.500,1.800,1.500,0.244,0.030,1
8.750,3,4,-1.897,-1.309,1.718,0.014,-0.003,1.536,-2.000,-1.500,1.800,1.500,0.232,0.036,1
8.800,3,4,-1.894,-1.326,1.713,0.005,0.008,1.539,-2.000,-1.500,1.800,1.500,0.221,0.039,1
8.850,3,4,-1.889,-1.341,1.707,0.002,0.012,1.541,-2.000,-1.500,1.800,1.500,0.215,0.041,1
8.900,3,4,-1.883,-1.351,1.710,-0.005,0.013,1.540,-2.000,-1.500,1.800,1.500,0.210,0.040,1
8.950,3,4,-1.878,-1.355,1.708,0.002,0.008,1.540,-2.000,-1.500,1.800,1.500,0.210,0.040,1
9.000,3,4,-1.874,-1.357,1.707,-0.006,0.001,1.539,-2.000,-1.500,1.800,1.500,0.212,0.039,1
9.050,3,4,-1.871,-1.355,1.704,0.002,-0.003,1.540,-2.000,-1.500,1.800,1.500,0.216,0.040,1
9.100,3,4,-1.869,-1.353,1.707,0.003,0.007,1.540,-2.000,-1.500,1.800,1.500,0.218,0.040,1
9.150,3,4,-1.866,-1.350,1.703,-0.001,-0.007,1.538,-2.000,-1.500,1.800,1.500,0.223,0.038,1
9.200,3,4,-1.865,-1.348,1.700,-0.000,-0.007,1.535,-2.000,-1.500,1.800,1.500,0.226,0.035,1
9.250,3,4,-1.865,-1.348,1.697,0.001,-0.003,1.536,-2.000,-1.500,1.800,1.500,0.228,0.036,1
9.300,3,4,-1.865,-1.348,1.703,0.001,0.003,1.536,-2.000,-1.500,1.800,1.500,0.225,0.036,1
9.350,3,4,-1.865,-1.348,1.710,0.009,-0.007,1.535,-2.000,-1.500,1.800,1.500,0.222,0.035,1
9.400,3,4,-1.865,-1.349,1.713,-0.002,-0.004,1.536,-2.000,-1.500,1.800,1.500,0.221,0.036,1
9.450,3,4,-1.865,-1.350,1.707,-0.003,0.001,1.535,-2.000,-1.500,1.800,1.500,0.222,0.035,1
9.500,3,4,-1.866,-1.350,1.704,0.006,0.005,1.536,-2.000,-1.500,1.800,1.500,0.223,0.036,1
9.550,3,4,-1.866,-1.350,1.703,-0.001,0.003,1.535,-2.000,-1.500,1.800,1.500,0.223,0.035,1
9.600,3,4,-1.867,-1.350,1.706,0.000,0.000,1.535,-2.000,-1.500,1.800,1.500,0.222,0.035,1
9.650,3,4,-1.866,-1.349,1.706,-0.003,-0.001,1.535,-2.000,-1.500,1.800,1.500,0.222,0.035,1
9.700,3,4,-1.866,-1.350,1.700,-0.002,-0.001,1.536,-2.000,-1.500,1.800,1.500,0.224,0.036,1
9.750,3,4,-1.866,-1.351,1.706,-0.005,-0.002,1.536,-2.000,-1.500,1.800,1.500,0.221,0.036,1
9.800,3,4,-1.867,-1.351,1.705,0.006,0.005,1.536,-2.000,-1.500,1.800,1.500,0.221,0.036,1
9.850,3,4,-1.866,-1.350,1.707,-0.002,-0.002,1.536,-2.000,-1.500,1.800,1.500,0.221,0.036,1
9.900,3,4,-1.865,-1.349,1.707,-0.001,0.000,1.536,-2.000,-1.500,1.800,1.500,0.222,0.036,1
9.950,3,4,-1.865,-1.348,1.706,0.002,0.004,1.535,-2.000,-1.500,1.800,1.500,0.224,0.035,1
10.000,3,4,-1.864,-1.348,1.707,-0.006,-0.004,1.536,-2.000,-1.500,1.800,1.500,0.224,0.036,1
10.050,3,4,-1.864,-1.349,1.703,-0.002,0.000,1.536,-2.000,-1.500,1.800,1.500,0.225,0.036,1
10.100,3,4,-1.865,-1.349,1.703,-0.001,0.000,1.536,-2.000,-1.500,1.800,1.500,0.224,0.036,1
10.150,3,4,-1.866,-1.349,1.704,-0.001,-0.003,1.535,-2.000,-1.500,1.800,1.500,0.223,0.035,1
10.200,3,4,-1.867,-1.350,1.698,0.002,-0.001,1.536,-2.000,-1.500,1.800,1.500,0.225,0.036,1
10.250,3,4,-1.867,-1.350,1.701,-0.000,0.003,1.537,-2.000,-1.500,1.800,1.500,0.223,0.037,1
10.300,3,4,-1.868,-1.349,1.703,-0.002,0.001,1.536,-2.000,-1.500,1.800,1.500,0.223,0.036,1
10.350,3,4,-1.867,-1.348,1.701,0.004,-0.008,1.535,-2.000,-1.500,1.800,1.500,0.225,0.035,1
10.400,3,4,-1.867,-1.348,1.704,-0.001,0.001,1.536,-2.000,-1.500,1.800,1.500,0.224,0.036,1
10.450,3,4,-1.867,-1.348,1.705,0.001,0.002,1.536,-2.000,-1.500,1.800,1.500,0.224,0.036,1
10.500,3,4,-1.866,-1.348,1.699,0.001,-0.003,1.536,-2.000,-1.500,1.800,1.500,0.226,0.036,1
10.550,4,5,-1.854,-1.263,1.682,-1.922,0.758,-1.343,0.000,2.500,1.000,-1.000,4.250,0.343,0
10.600,4,5,-1.675,-0.925,1.403,-1.747,-0.747,-0.469,0.000,2.500,1.000,-1.000,3.834,0.531,0
10.650,4,5,-1.498,-0.274,0.875,0.299,0.116,0.365,0.000,2.500,1.000,-1.000,3.155,1.365,0
10.700,4,5,-1.214,0.427,0.386,0.764,-0.888,-0.931,0.000,2.500,1.000,-1.000,2.479,0.069,0
10.750,4,5,0.018,0.033,1.008,-1.191,0.233,-0.341,0.000,2.500,1.000,-1.000,2.467,0.659,0
10.800,4,5,0.118,0.417,1.025,-0.355,-0.433,-0.511,0.000,2.500,1.000,-1.000,2.086,0.489,0
10.850,4,5,0.083,1.070,1.156,-0.069,-0.523,-0.756,0.000,2.500,1.000,-1.000,1.441,0.244,0
10.900,4,5,-0.024,1.818,1.156,0.199,-0.069,-0.806,0.000,2.500,1.000,-1.000,0.700,0.194,0
10.950,4,5,-0.162,2.498,1.094,0.387,0.374,-0.826,0.000,2.500,1.000,-1.000,0.187,0.174,0
11.000,4,5,-0.300,2.905,1.089,0.219,0.599,-0.915,0.000,2.500,1.000,-1.000,0.512,0.085,0
11.050,4,5,-0.352,2.997,1.159,-0.037,0.520,-1.010,0.000,2.500,1.000,-1.000,0.629,0.010,0
11.100,4,5,-0.292,2.927,1.188,0.029,0.243,-1.061,0.000,2.500,1.000,-1.000,0.550,0.061,0
11.150,4,5,-0.202,2.782,1.148,0.040,0.015,-1.106,0.000,2.500,1.000,-1.000,0.377,0.106,0
11.200,4,5,-0.121,2.624,1.105,0.046,-0.110,-1.115,0.000,2.500,1.000,-1.000,0.203,0.115,0
11.250,4,5,-0.069,2.494,1.062,0.021,-0.137,-1.103,0.000,2.500,1.000,-1.000,0.093,0.103,0
11.300,4,5,-0.048,2.408,1.045,-0.022,-0.103,-1.084,0.000,2.500,1.000,-1.000,0.113,0.084,1
11.350,4,5,-0.039,2.365,1.038,-0.035,-0.071,-1.066,0.000,2.500,1.000,-1.000,0.145,0.066,1
11.400,4,5,-0.032,2.355,1.033,-0.043,-0.037,-1.058,0.000,2.500,1.000,-1.000,0.152,0.058,1
11.450,4,5,-0.021,2.367,1.030,-0.023,-0.021,-1.051,0.000,2.500,1.000,-1.000,0.138,0.051,1
11.500,4,5,-0.009,2.389,1.023,-0.016,0.001,-1.046,0.000,2.500,1.000,-1.000,0.114,0.046,1
11.550,4,5,0.006,2.413,1.026,0.015,0.000,-1.041,0.000,2.500,1.000,-1.000,0.091,0.041,1
11.600,4,5,0.018,2.432,1.025,0.016,0.010,-1.038,0.000,2.500,1.000,-1.000,0.075,0.038,1
11.650,4,5,0.026,2.444,1.023,0.017,0.012,-1.037,0.000,2.500,1.000,-1.000,0.066,0.037,1
11.700,4,5,0.029,2.450,1.023,0.020,0.018,-1.036,0.000,2.500,1.000,-1.000,0.062,0.036,1
11.750,4,5,0.029,2.452,1.027,0.009,0.001,-1.033,0.000,2.500,1.000,-1.000,0.062,0.033,1
11.800,4,5,0.026,2.452,1.024,0.000,0.001,-1.033,0.000,2.500,1.000,-1.000,0.060,0.033,1
11.850,4,5,0.021,2.450,1.024,0.006,0.007,-1.035,0.000,2.500,1.000,-1.000,0.059,0.035,1
11.900,4,5,0.017,2.448,1.020,-0.001,0.004,-1.033,0.000,2.500,1.000,-1.000,0.058,0.033,1
11.950,4,5,0.014,2.446,1.023,-0.008,0.001,-1.034,0.000,2.500,1.000,-1.000,0.060,0.034,1
12.000,4,5,0.013,2.444,1.023,0.006,0.002,-1.037,0.000,2.500,1.000,-1.000,0.062,0.037,1
12.050,4,5,0.011,2.443,1.026,-0.007,-0.002,-1.037,0.000,2.500,1.000,-1.000,0.064,0.037,1
12.100,4,5,0.011,2.443,1.020,0.013,0.001,-1.038,0.000,2.500,1.000,-1.000,0.062,0.038,1
12.150,4,5,0.010,2.442,1.017,0.006,-0.003,-1.038,0.000,2.500,1.000,-1.000,0.061,0.038,1
12.200,4,5,0.011,2.442,1.017,0.004,0.003,-1.038,0.000,2.500,1.000,-1.000,0.061,0.038,1
12.250,4,5,0.011,2.443,1.018,0.009,0.014,-1.039,0.000,2.500,1.000,-1.000,0.060,0.039,1
12.300,4,5,0.011,2.444,1.019,0.000,-0.002,-1.036,0.000,2.500,1.000,-1.000,0.060,0.036,1
12.350,4,5,0.012,2.444,1.016,-0.008,-0.001,-1.037,0.000,2.500,1.000,-1.000,0.060,0.037,1
12.400,4,5,0.012,2.444,1.020,-0.002,0.004,-1.034,0.000,2.500,1.000,-1.000,0.060,0.034,1
12.450,4,5,0.012,2.445,1.019,-0.001,0.006,-1.037,0.000,2.500,1.000,-1.000,0.059,0.037,1
12.500,4,5,0.012,2.446,1.020,0.008,-0.009,-1.036,0.000,2.500,1.000,-1.000,0.059,0.036,1
12.550,4,5,0.012,2.445,1.023,0.008,0.013,-1.037,0.000,2.500,1.000,-1.000,0.061,0.037,1
12.600,4,5,0.013,2.444,1.018,-0.001,-0.002,-1.036,0.000,2.500,1.000,-1.000,0.060,0.036,1
12.650,4,5,0.012,2.443,1.016,0.001,0.006,-1.036,0.000,2.500,1.000,-1.000,0.060,0.036,1
12.700,4,5,0.012,2.443,1.018,0.005,0.005,-1.036,0.000,2.500,1.000,-1.000,0.061,0.036,1
12.750,4,5,0.012,2.442,1.019,-0.008,-0.002,-1.035,0.000,2.500,1.000,-1.000,0.062,0.035,1
12.800,4,5,0.012,2.441,1.021,-0.007,-0.003,-1.036,0.000,2.500,1.000,-1.000,0.063,0.036,1
12.850,4,5,0.013,2.441,1.024,0.007,0.003,-1.037,0.000,2.500,1.000,-1.000,0.065,0.037,1
12.900,4,5,0.013,2.441,1.018,-0.009,-0.007,-1.038,0.000,2.500,1.000,-1.000,0.063,0.038,1
12.950,4,5,0.014,2.442,1.020,0.003,-0.001,-1.036,0.000,2.500,1.000,-1.000,0.063,0.036,1
13.000,4,5,0.015,2.443,1.020,0.010,-0.004,-1.036,0.000,2.500,1.000,-1.000,0.063,0.036,1
13.050,4,5,0.015,2.443,1.026,-0.009,0.002,-1.035,0.000,2.500,1.000,-1.000,0.064,0.035,1
13.100,4,5,0.014,2.443,1.025,-0.012,-0.002,-1.034,0.000,2.500,1.000,-1.000,0.064,0.034,1
13.150,4,5,0.014,2.443,1.024,-0.011,0.002,-1.036,0.000,2.500,1.000,-1.000,0.063,0.036,1
13.200,4,5,0.013,2.443,1.021,0.002,-0.006,-1.037,0.000,2.500,1.000,-1.000,0.062,0.037,1
13.250,4,5,0.013,2.444,1.025,-0.004,0.001,-1.039,0.000,2.500,1.000,-1.000,0.063,0.039,1
13.300,5,6,0.090,2.371,1.021,0.326,0.811,-1.598,1.500,-2.500,2.200,-0.500,5.206,1.098,0
13.350,5,6,0.297,1.920,0.944,0.810,0.214,-0.030,1.500,-2.500,2.200,-0.500,4.750,0.470,0
13.400,5,6,0.593,1.135,0.677,-0.206,0.396,0.293,1.500,-2.500,2.200,-0.500,4.044,0.793,0
13.450,5,6,1.053,0.337,0.306,1.273,-0.229,-0.992,1.500,-2.500,2.200,-0.500,3.441,0.492,0
13.500,5,6,0.044,-0.047,1.022,0.775,0.654,0.155,1.500,-2.500,2.200,-0.500,3.086,0.655,0
13.550,5,6,0.429,-0.466,1.146,0.329,0.235,-0.328,1.500,-2.500,2.200,-0.500,2.529,0.172,0
13.600,5,6,0.933,-1.159,1.516,0.400,0.161,-0.385,1.500,-2.500,2.200,-0.500,1.609,0.115,0
13.650,5,6,1.411,-1.917,1.748,0.052,-0.424,-0.313,1.500,-2.500,2.200,-0.500,0.743,0.187,0
13.700,5,6,1.768,-2.651,1.893,0.054,-0.383,-0.244,1.500,-2.500,2.200,-0.500,0.435,0.256,0
13.750,5,6,1.964,-3.303,1.971,-0.303,-0.485,-0.217,1.500,-2.500,2.200,-0.500,0.955,0.283,0
13.800,5,6,1.908,-3.678,2.135,-0.368,-0.218,-0.415,1.500,-2.500,2.200,-0.500,1.248,0.085,0
13.850,5,6,1.764,-3.728,2.324,-0.302,-0.220,-0.350,1.500,-2.500,2.200,-0.500,1.263,0.150,0
13.900,5,6,1.623,-3.539,2.435,-0.258,-0.300,-0.365,1.500,-2.500,2.200,-0.500,1.072,0.135,0
13.950,5,6,1.448,-3.199,2.405,-0.365,-0.365,-0.462,1.500,-2.500,2.200,-0.500,0.731,0.038,0
14.000,5,6,1.209,-2.732,2.370,0.516,0.269,-0.295,1.500,-2.500,2.200,-0.500,0.409,0.205,0
14.050,5,6,1.035,-2.376,2.309,0.085,0.258,-0.384,1.500,-2.500,2.200,-0.500,0.494,0.116,0
14.100,5,6,0.983,-2.112,2.331,0.125,0.322,-0.451,1.500,-2.500,2.200,-0.500,0.660,0.049,0
14.150,5,6,1.037,-1.956,2.380,0.209,0.329,-0.487,1.500,-2.500,2.200,-0.500,0.737,0.013,0
14.200,5,6,1.166,-1.926,2.418,0.280,0.281,-0.492,1.500,-2.500,2.200,-0.500,0.699,0.008,0
14.250,5,6,1.322,-2.006,2.408,0.286,0.126,-0.459,1.500,-2.500,2.200,-0.500,0.565,0.041,0
14.300,5,6,1.455,-2.158,2.361,0.173,-0.043,-0.433,1.500,-2.500,2.200,-0.500,0.381,0.067,0
14.350,5,6,1.534,-2.314,2.309,0.158,-0.080,-0.417,1.500,-2.500,2.200,-0.500,0.219,0.083,1
14.400,5,6,1.562,-2.427,2.274,0.039,-0.145,-0.408,1.500,-2.500,2.200,-0.500,0.121,0.092,1
14.450,5,6,1.548,-2.471,2.243,-0.071,-0.157,-0.397,1.500,-2.500,2.200,-0.500,0.071,0.103,0
14.500,5,6,1.509,-2.453,2.232,-0.088,-0.118,-0.414,1.500,-2.500,2.200,-0.500,0.058,0.086,1
14.550,5,6,1.455,-2.400,2.231,-0.100,-0.013,-0.443,1.500,-2.500,2.200,-0.500,0.114,0.057,1
14.600,5,6,1.399,-2.337,2.229,-0.068,0.040,-0.454,1.500,-2.500,2.200,-0.500,0.194,0.046,1
14.650,5,6,1.357,-2.272,2.235,0.051,0.094,-0.456,1.500,-2.500,2.200,-0.500,0.271,0.044,1
14.700,5,6,1.338,-2.223,2.245,0.142,0.088,-0.457,1.500,-2.500,2.200,-0.500,0.324,0.043,0
14.750,5,6,1.343,-2.198,2.256,0.148,0.061,-0.456,1.500,-2.500,2.200,-0.500,0.345,0.044,0
14.800,5,6,1.364,-2.196,2.260,0.130,0.019,-0.451,1.500,-2.500,2.200,-0.500,0.338,0.049,0
14.850,5,6,1.391,-2.217,2.250,0.104,-0.027,-0.433,1.500,-2.500,2.200,-0.500,0.307,0.067,0
14.900,5,6,1.415,-2.250,2.248,0.054,-0.051,-0.425,1.500,-2.500,2.200,-0.500,0.268,0.075,1
14.950,5,6,1.437,-2.286,2.246,-0.013,-0.077,-0.409,1.500,-2.500,2.200,-0.500,0.228,0.091,1
15.000,5,6,1.452,-2.322,2.238,-0.134,-0.103,-0.411,1.500,-2.500,2.200,-0.500,0.188,0.089,1
15.050,5,6,1.449,-2.349,2.229,-0.157,-0.021,-0.408,1.500,-2.500,2.200,-0.500,0.162,0.092,1
15.100,5,6,1.441,-2.366,2.222,-0.210,-0.026,-0.420,1.500,-2.500,2.200,-0.500,0.148,0.080,1
15.150,5,6,1.430,-2.358,2.222,-0.134,0.026,-0.434,1.500,-2.500,2.200,-0.500,0.160,0.066,1
15.200,5,6,1.422,-2.332,2.223,0.007,0.042,-0.431,1.500,-2.500,2.200,-0.500,0.186,0.069,1
15.250,5,6,1.413,-2.305,2.221,0.109,0.031,-0.435,1.500,-2.500,2.200,-0.500,0.214,0.065,1
15.300,5,6,1.406,-2.279,2.219,0.119,0.035,-0.435,1.500,-2.500,2.200,-0.500,0.241,0.065,1
15.350,5,6,1.404,-2.254,2.223,0.148,0.014,-0.441,1.500,-2.500,2.200,-0.500,0.265,0.059,1
15.400,5,6,1.406,-2.243,2.222,0.147,0.008,-0.439,1.500,-2.500,2.200,-0.500,0.275,0.061,1
15.450,5,6,1.413,-2.242,2.219,0.164,0.039,-0.430,1.500,-2.500,2.200,-0.500,0.273,0.070,1
15.500,5,6,1.420,-2.255,2.221,0.139,-0.042,-0.430,1.500,-2.500,2.200,-0.500,0.259,0.070,1
15.550,5,6,1.424,-2.272,2.219,0.036,-0.036,-0.417,1.500,-2.500,2.200,-0.500,0.241,0.083,1
15.600,5,6,1.432,-2.283,2.217,0.040,-0.049,-0.415,1.500,-2.500,2.200,-0.500,0.228,0.085,1
15.650,5,6,1.438,-2.295,2.222,-0.058,-0.078,-0.413,1.500,-2.500,2.200,-0.500,0.215,0.087,1
15.700,5,6,1.440,-2.302,2.224,-0.157,-0.021,-0.422,1.500,-2.500,2.200,-0.500,0.208,0.078,1
15.750,5,6,1.441,-2.302,2.217,-0.171,-0.016,-0.431,1.500,-2.500,2.200,-0.500,0.207,0.069,1
15.800,5,6,1.435,-2.293,2.218,-0.108,-0.020,-0.435,1.500,-2.500,2.200,-0.500,0.218,0.065,1
15.850,5,6,1.426,-2.284,2.224,-0.166,0.018,-0.432,1.500,-2.500,2.200,-0.500,0.230,0.068,1
15.900,5,6,1.422,-2.278,2.229,-0.157,0.070,-0.446,1.500,-2.500,2.200,-0.500,0.237,0.054,1
15.950,5,6,1.422,-2.280,2.233,-0.149,0.053,-0.433,1.500,-2.500,2.200,-0.500,0.236,0.067,1
16.000,5,6,1.422,-2.282,2.229,-0.051,0.028,-0.428,1.500,-2.500,2.200,-0.500,0.233,0.072,1
16.050,5,6,1.421,-2.285,2.232,0.064,0.052,-0.423,1.500,-2.500,2.200,-0.500,0.232,0.077,1
16.100,5,6,1.418,-2.288,2.230,0.074,0.036,-0.416,1.500,-2.500,2.200,-0.500,0.229,0.084,1
16.150,5,6,1.414,-2.290,2.231,0.146,0.023,-0.412,1.500,-2.500,2.200,-0.500,0.229,0.088,1
16.200,5,6,1.415,-2.296,2.227,0.148,0.027,-0.419,1.500,-2.500,2.200,-0.500,0.223,0.081,1
16.250,5,6,1.423,-2.302,2.219,0.142,-0.025,-0.428,1.500,-2.500,2.200,-0.500,0.213,0.072,1
16.300,5,6,1.426,-2.311,2.222,0.149,-0.006,-0.424,1.500,-2.500,2.200,-0.500,0.204,0.076,1
16.350,5,6,1.428,-2.314,2.224,0.066,0.014,-0.430,1.500,-2.500,2.200,-0.500,0.200,0.070,1
16.400,5,6,1.431,-2.308,2.223,0.096,0.023,-0.432,1.500,-2.500,2.200,-0.500,0.206,0.068,1
16.450,5,6,1.432,-2.298,2.220,0.129,0.003,-0.433,1.500,-2.500,2.200,-0.500,0.214,0.067,1
16.500,5,6,1.429,-2.290,2.217,0.107,-0.026,-0.436,1.500,-2.500,2.200,-0.500,0.222,0.064,1
16.550,5,6,1.424,-2.280,2.217,0.132,-0.001,-0.435,1.500,-2.500,2.200,-0.500,0.233,0.065,1
16.600,5,6,1.419,-2.280,2.219,0.053,-0.033,-0.428,1.500,-2.500,2.200,-0.500,0.236,0.072,1
16.650,5,6,1.416,-2.282,2.220,-0.031,-0.048,-0.423,1.500,-2.500,2.200,-0.500,0.234,0.077,1
16.700,5,6,1.416,-2.285,2.228,-0.135,-0.027,-0.421,1.500,-2.500,2.200,-0.500,0.233,0.079,1
16.750,5,6,1.416,-2.286,2.227,-0.165,0.021,-0.424,1.500,-2.500,2.200,-0.500,0.231,0.076,1
16.800,5,6,1.417,-2.286,2.234,-0.140,0.045,-0.422,1.500,-2.500,2.200,-0.500,0.232,0.078,1
16.850,5,6,1.418,-2.284,2.230,-0.054,0.030,-0.427,1.500,-2.500,2.200,-0.500,0.233,0.073,1
16.900,6,7,1.396,-2.248,2.206,-2.154,-0.758,1.069,-1.500,2.000,1.400,0.800,5.204,0.269,0
16.950,6,7,1.081,-1.890,1.893,-0.643,-0.171,0.405,-1.500,2.000,1.400,0.800,4.694,0.395,0
17.000,6,7,0.490,-1.263,1.546,-0.021,0.060,1.132,-1.500,2.000,1.400,0.800,3.825,0.332,0
17.050,6,7,-0.124,-0.373,1.082,0.272,0.212,0.116,-1.500,2.000,1.400,0.800,2.762,0.684,0
17.100,6,7,-0.726,0.576,0.590,0.320,-0.427,0.607,-1.500,2.000,1.400,0.800,1.812,0.193,0
17.150,6,7,-1.301,1.342,0.305,1.101,1.065,2.184,-1.500,2.000,1.400,0.800,1.293,1.384,0
17.200,6,7,-0.038,0.038,1.025,-0.746,-0.508,0.430,-1.500,2.000,1.400,0.800,2.476,0.370,0
17.250,6,7,-0.357,0.306,1.168,-0.430,-0.182,0.582,-1.500,2.000,1.400,0.800,2.057,0.218,0
17.300,6,7,-0.792,0.693,1.270,-0.162,0.184,0.615,-1.500,2.000,1.400,0.800,1.492,0.185,0
17.350,6,7,-1.222,1.112,1.195,0.110,0.084,0.718,-1.500,2.000,1.400,0.800,0.953,0.082,0
17.400,6,7,-1.564,1.526,1.191,0.200,0.200,0.759,-1.500,2.000,1.400,0.800,0.522,0.041,0
17.450,6,7,-1.749,1.891,1.184,0.234,0.223,0.829,-1.500,2.000,1.400,0.800,0.348,0.029,0
17.500,6,7,-1.746,2.167,1.241,0.381,-0.070,0.758,-1.500,2.000,1.400,0.800,0.337,0.042,0
17.550,6,7,-1.655,2.311,1.299,0.248,-0.222,0.767,-1.500,2.000,1.400,0.800,0.362,0.033,0
17.600,6,7,-1.552,2.320,1.369,0.139,-0.188,0.801,-1.500,2.000,1.400,0.800,0.326,0.001,0
17.650,6,7,-1.465,2.245,1.398,0.008,-0.168,0.784,-1.500,2.000,1.400,0.800,0.248,0.016,1
17.700,6,7,-1.418,2.127,1.407,-0.070,-0.072,0.768,-1.500,2.000,1.400,0.800,0.151,0.032,1
17.750,6,7,-1.408,2.005,1.405,-0.077,-0.008,0.752,-1.500,2.000,1.400,0.800,0.092,0.048,1
17.800,6,7,-1.420,1.906,1.400,-0.087,0.069,0.739,-1.500,2.000,1.400,0.800,0.123,0.061,1
17.850,6,7,-1.436,1.848,1.400,-0.071,0.087,0.738,-1.500,2.000,1.400,0.800,0.165,0.062,1
17.900,6,7,-1.442,1.829,1.404,-0.018,0.061,0.740,-1.500,2.000,1.400,0.800,0.180,0.060,1
17.950,6,7,-1.439,1.835,1.408,-0.022,0.017,0.743,-1.500,2.000,1.400,0.800,0.176,0.057,1
18.000,6,7,-1.434,1.856,1.397,0.003,0.006,0.745,-1.500,2.000,1.400,0.800,0.158,0.055,1
18.050,6,7,-1.429,1.882,1.408,0.012,-0.006,0.753,-1.500,2.000,1.400,0.800,0.138,0.047,1
18.100,6,7,-1.427,1.903,1.388,-0.003,-0.005,0.748,-1.500,2.000,1.400,0.800,0.122,0.052,1
18.150,6,7,-1.427,1.921,1.390,-0.004,-0.026,0.751,-1.500,2.000,1.400,0.800,0.108,0.049,1
18.200,6,7,-1.429,1.935,1.389,0.013,-0.008,0.755,-1.500,2.000,1.400,0.800,0.097,0.045,1
18.250,6,7,-1.429,1.942,1.398,-0.004,-0.007,0.756,-1.500,2.000,1.400,0.800,0.092,0.044,1
18.300,6,7,-1.428,1.939,1.402,-0.003,-0.002,0.755,-1.500,2.000,1.400,0.800,0.094,0.045,1
18.350,6,7,-1.426,1.933,1.405,-0.016,-0.000,0.754,-1.500,2.000,1.400,0.800,0.100,0.046,1
18.400,6,7,-1.426,1.925,1.416,-0.012,-0.013,0.750,-1.500,2.000,1.400,0.800,0.106,0.050,1
18.450,6,7,-1.433,1.914,1.407,-0.004,0.008,0.747,-1.500,2.000,1.400,0.800,0.109,0.053,1
18.500,6,7,-1.440,1.906,1.409,0.001,0.016,0.745,-1.500,2.000,1.400,0.800,0.112,0.055,1
18.550,6,7,-1.439,1.903,1.408,0.006,0.007,0.745,-1.500,2.000,1.400,0.800,0.115,0.055,1
18.600,6,7,-1.435,1.900,1.404,-0.033,0.003,0.744,-1.500,2.000,1.400,0.800,0.119,0.056,1
18.650,6,7,-1.434,1.904,1.400,0.013,-0.003,0.745,-1.500,2.000,1.400,0.800,0.117,0.055,1
18.700,6,7,-1.430,1.907,1.401,-0.022,0.007,0.750,-1.500,2.000,1.400,0.800,0.116,0.050,1
18.750,6,7,-1.427,1.914,1.403,-0.013,-0.000,0.753,-1.500,2.000,1.400,0.800,0.113,0.047,1
18.800,6,7,-1.423,1.919,1.404,0.011,-0.006,0.752,-1.500,2.000,1.400,0.800,0.112,0.048,1
18.850,6,7,-1.419,1.921,1.399,-0.022,-0.011,0.746,-1.500,2.000,1.400,0.800,0.114,0.054,1
18.900,6,7,-1.419,1.921,1.400,0.011,-0.024,0.742,-1.500,2.000,1.400,0.800,0.113,0.058,1
18.950,6,7,-1.422,1.919,1.405,0.016,0.010,0.751,-1.500,2.000,1.400,0.800,0.113,0.049,1
19.000,6,7,-1.423,1.918,1.409,-0.003,0.006,0.752,-1.500,2.000,1.400,0.800,0.112,0.048,1
19.050,6,7,-1.423,1.918,1.407,0.011,-0.014,0.750,-1.500,2.000,1.400,0.800,0.112,0.050,1
19.100,6,7,-1.425,1.918,1.396,-0.005,0.006,0.749,-1.500,2.000,1.400,0.800,0.111,0.051,1
19.150,6,7,-1.427,1.919,1.401,-0.006,-0.007,0.751,-1.500,2.000,1.400,0.800,0.109,0.049,1
19.200,6,7,-1.429,1.918,1.413,0.016,0.001,0.745,-1.500,2.000,1.400,0.800,0.109,0.055,1
19.250,6,7,-1.428,1.915,1.408,-0.006,-0.021,0.743,-1.500,2.000,1.400,0.800,0.112,0.057,1
19.300,6,7,-1.427,1.909,1.416,0.018,-0.000,0.741,-1.500,2.000,1.400,0.800,0.118,0.059,1
19.350,6,7,-1.430,1.901,1.409,-0.006,-0.005,0.743,-1.500,2.000,1.400,0.800,0.121,0.057,1
19.400,6,7,-1.433,1.898,1.411,-0.008,0.019,0.748,-1.500,2.000,1.400,0.800,0.122,0.052,1
19.450,6,7,-1.434,1.899,1.409,-0.030,0.012,0.749,-1.500,2.000,1.400,0.800,0.121,0.051,1
19.500,6,7,-1.435,1.907,1.411,0.010,-0.011,0.755,-1.500,2.000,1.400,0.800,0.114,0.045,1
19.550,6,7,-1.434,1.913,1.416,0.014,-0.006,0.747,-1.500,2.000,1.400,0.800,0.110,0.053,1
19.600,6,7,-1.431,1.915,1.413,-0.018,0.001,0.746,-1.500,2.000,1.400,0.800,0.110,0.054,1
19.650,7,8,-1.405,1.903,1.424,1.703,0.517,1.275,2.500,0.000,1.900,0.200,4.370,1.075,0
19.700,7,8,-0.938,1.693,1.270,0.124,1.264,0.289,2.500,0.000,1.900,0.200,3.883,0.089,0
19.750,7,8,0.043,1.388,1.075,-0.508,0.434,-0.723,2.500,0.000,1.900,0.200,2.940,0.923,0
19.800,7,8,1.237,1.043,1.001,0.417,-0.529,-0.801,2.500,0.000,1.900,0.200,1.869,1.001,0
19.850,7,8,2.401,0.820,1.064,-0.073,-0.314,-0.528,2.500,0.000,1.900,0.200,1.175,0.728,0
19.900,7,8,3.386,0.738,1.327,-0.067,-0.413,-0.331,2.500,0.000,1.900,0.200,1.288,0.531,0
19.950,7,8,4.020,0.670,1.624,-0.087,-0.891,0.008,2.500,0.000,1.900,0.200,1.684,0.192,0
20.000,7,8,4.132,0.584,1.945,-0.099,-0.644,0.368,2.500,0.000,1.900,0.200,1.734,0.168,0
20.050,7,8,3.974,0.445,2.153,-0.095,-0.656,0.376,2.500,0.000,1.900,0.200,1.561,0.176,0
20.100,7,8,3.620,0.265,2.247,-0.345,-0.112,0.334,2.500,0.000,1.900,0.200,1.202,0.134,0
20.150,7,8,3.160,0.122,2.199,-0.271,0.159,0.274,2.500,0.000,1.900,0.200,0.735,0.074,0
20.200,7,8,2.673,0.042,2.063,-0.067,0.271,0.345,2.500,0.000,1.900,0.200,0.242,0.145,0
20.250,7,8,2.291,0.043,1.984,0.079,0.358,0.355,2.500,0.000,1.900,0.200,0.229,0.155,0
20.300,7,8,2.071,0.090,1.974,0.058,0.346,0.302,2.500,0.000,1.900,0.200,0.445,0.102,0
20.350,7,8,2.005,0.150,2.003,0.067,0.291,0.231,2.500,0.000,1.900,0.200,0.528,0.031,0
20.400,7,8,2.057,0.204,2.024,0.106,0.196,0.192,2.500,0.000,1.900,0.200,0.503,0.008,0
20.450,7,8,2.186,0.233,2.019,0.085,0.048,0.169,2.500,0.000,1.900,0.200,0.408,0.031,0
20.500,7,8,2.336,0.231,1.991,0.019,-0.084,0.166,2.500,0.000,1.900,0.200,0.298,0.034,1
20.550,7,8,2.455,0.215,1.976,-0.015,-0.124,0.177,2.500,0.000,1.900,0.200,0.232,0.023,1
20.600,7,8,2.524,0.196,1.965,-0.030,-0.118,0.189,2.500,0.000,1.900,0.200,0.208,0.011,1
20.650,7,8,2.545,0.179,1.959,-0.021,-0.105,0.198,2.500,0.000,1.900,0.200,0.194,0.002,1
20.700,7,8,2.526,0.165,1.946,-0.013,-0.063,0.202,2.500,0.000,1.900,0.200,0.173,0.002,1
20.750,7,8,2.482,0.151,1.936,-0.008,-0.017,0.206,2.500,0.000,1.900,0.200,0.157,0.006,1
20.800,7,8,2.430,0.141,1.934,-0.015,0.022,0.208,2.500,0.000,1.900,0.200,0.161,0.008,1
20.850,7,8,2.383,0.135,1.930,-0.006,0.039,0.207,2.500,0.000,1.900,0.200,0.181,0.007,1
20.900,7,8,2.352,0.135,1.930,-0.008,0.052,0.203,2.500,0.000,1.900,0.200,0.203,0.003,1
20.950,7,8,2.340,0.141,1.928,-0.004,0.050,0.196,2.500,0.000,1.900,0.200,0.215,0.004,1
21.000,7,8,2.348,0.152,1.932,0.007,0.028,0.192,2.500,0.000,1.900,0.200,0.217,0.008,1
21.050,7,8,2.369,0.162,1.934,0.008,0.014,0.191,2.500,0.000,1.900,0.200,0.211,0.009,1
21.100,7,8,2.395,0.169,1.929,0.001,-0.007,0.191,2.500,0.000,1.900,0.200,0.201,0.009,1
21.150,7,8,2.419,0.174,1.935,0.011,-0.028,0.192,2.500,0.000,1.900,0.200,0.195,0.008,1
21.200,7,8,2.434,0.175,1.928,-0.006,-0.031,0.194,2.500,0.000,1.900,0.200,0.189,0.006,1
21.250,7,8,2.438,0.174,1.929,-0.001,-0.020,0.196,2.500,0.000,1.900,0.200,0.187,0.004,1
21.300,7,8,2.434,0.171,1.935,0.003,-0.015,0.199,2.500,0.000,1.900,0.200,0.186,0.001,1
21.350,7,8,2.425,0.166,1.931,-0.013,-0.002,0.199,2.500,0.000,1.900,0.200,0.185,0.001,1
21.400,7,8,2.413,0.162,1.930,0.001,0.001,0.200,2.500,0.000,1.900,0.200,0.187,0.000,1
21.450,7,8,2.402,0.159,1.929,-0.001,0.012,0.200,2.500,0.000,1.900,0.200,0.189,0.000,1
21.500,7,8,2.395,0.157,1.927,-0.002,0.010,0.200,2.500,0.000,1.900,0.200,0.191,0.000,1
21.550,7,8,2.391,0.156,1.929,0.006,0.018,0.199,2.500,0.000,1.900,0.200,0.193,0.001,1
21.600,7,8,2.393,0.156,1.931,0.001,0.011,0.198,2.500,0.000,1.900,0.200,0.192,0.002,1
21.650,7,8,2.397,0.157,1.933,-0.009,-0.001,0.196,2.500,0.000,1.900,0.200,0.191,0.004,1
21.700,7,8,2.403,0.160,1.934,0.008,-0.005,0.197,2.500,0.000,1.900,0.200,0.190,0.003,1
21.750,7,8,2.409,0.162,1.928,-0.006,-0.007,0.195,2.500,0.000,1.900,0.200,0.188,0.005,1
21.800,7,8,2.412,0.165,1.930,0.003,-0.010,0.195,2.500,0.000,1.900,0.200,0.189,0.005,1
21.850,7,8,2.413,0.166,1.931,-0.001,-0.002,0.195,2.500,0.000,1.900,0.200,0.190,0.005,1
21.900,7,8,2.412,0.166,1.931,0.000,-0.006,0.195,2.500,0.000,1.900,0.200,0.191,0.005,1
21.950,7,8,2.410,0.166,1.932,0.001,0.003,0.197,2.500,0.000,1.900,0.200,0.192,0.003,1
22.000,7,8,2.407,0.165,1.934,0.000,0.003,0.199,2.500,0.000,1.900,0.200,0.192,0.001,1
22.050,7,8,2.405,0.163,1.929,-0.005,0.003,0.197,2.500,0.000,1.900,0.200,0.191,0.003,1
22.100,7,8,2.404,0.164,1.926,-0.005,0.002,0.196,2.500,0.000,1.900,0.200,0.192,0.004,1
22.150,7,8,2.404,0.165,1.924,0.002,-0.004,0.198,2.500,0.000,1.900,0.200,0.193,0.002,1
22.200,7,8,2.404,0.166,1.925,-0.003,0.003,0.197,2.500,0.000,1.900,0.200,0.193,0.003,1
22.250,7,8,2.405,0.166,1.929,-0.009,-0.002,0.197,2.500,0.000,1.900,0.200,0.193,0.003,1
22.300,7,8,2.406,0.166,1.924,0.002,-0.003,0.198,2.500,0.000,1.900,0.200,0.192,0.002,1
22.350,7,8,2.407,0.165,1.930,-0.000,-0.004,0.199,2.500,0.000,1.900,0.200,0.192,0.001,1
22.400,7,8,2.407,0.164,1.932,-0.000,-0.001,0.197,2.500,0.000,1.900,0.200,0.192,0.003,1
22.450,7,8,2.407,0.163,1.931,-0.000,0.005,0.198,2.500,0.000,1.900,0.200,0.191,0.002,1
22.500,8,9,2.407,0.162,1.932,-0.006,-0.004,0.198,-2.500,0.000,2.100,-0.800,4.912,0.998,0
22.550,8,9,2.270,0.207,1.943,0.146,-0.904,0.206,-2.500,0.000,2.100,-0.800,4.777,1.006,0
22.600,8,9,1.629,0.222,1.942,-0.149,-1.077,-0.559,-2.500,0.000,2.100,-0.800,4.138,0.241,0
22.650,8,9,0.558,0.412,1.859,0.274,-1.034,-0.045,-2.500,0.000,2.100,-0.800,3.095,0.755,0
22.700,8,9,-0.969,0.610,1.767,0.710,-0.580,0.040,-2.500,0.000,2.100,-0.800,1.681,0.840,0
22.750,8,9,-2.590,0.514,1.707,-0.227,1.002,1.061,-2.500,0.000,2.100,-0.800,0.653,1.861,0
22.800,8,9,-3.922,0.522,1.456,-0.093,0.912,-1.171,-2.500,0.000,2.100,-0.800,1.646,0.371,0
22.850,8,9,-4.778,0.330,1.071,-1.215,1.166,-0.426,-2.500,0.000,2.100,-0.800,2.521,0.374,0
22.900,8,9,-0.009,-0.004,1.003,0.432,-0.651,-0.188,-2.500,0.000,2.100,-0.800,2.722,0.612,0
22.950,8,9,-0.278,-0.061,1.128,0.022,-0.511,-0.330,-2.500,0.000,2.100,-0.800,2.426,0.470,0
23.000,8,9,-0.873,-0.049,1.469,-0.103,-0.127,-0.473,-2.500,0.000,2.100,-0.800,1.746,0.327,0
23.050,8,9,-1.547,-0.038,1.673,-0.180,0.156,-0.634,-2.500,0.000,2.100,-0.800,1.045,0.166,0
23.100,8,9,-2.228,-0.045,1.749,-0.159,0.401,-0.622,-2.500,0.000,2.100,-0.800,0.447,0.178,0
23.150,8,9,-2.799,-0.104,1.810,-0.318,0.553,-0.700,-2.500,0.000,2.100,-0.800,0.430,0.100,0
23.200,8,9,-3.045,-0.198,1.912,-0.394,0.434,-0.695,-2.500,0.000,2.100,-0.800,0.610,0.105,0
23.250,8,9,-3.030,-0.272,2.027,-0.244,0.162,-0.750,-2.500,0.000,2.100,-0.800,0.600,0.050,0
23.300,8,9,-2.917,-0.320,2.055,-0.137,-0.006,-0.819,-2.500,0.000,2.100,-0.800,0.527,0.019,0
23.350,8,9,-2.761,-0.334,2.059,-0.064,-0.035,-0.858,-2.500,0.000,2.100,-0.800,0.426,0.058,0
23.400,8,9,-2.605,-0.319,2.043,-0.002,-0.031,-0.867,-2.500,0.000,2.100,-0.800,0.341,0.067,0
23.450,8,9,-2.473,-0.286,2.037,0.054,-0.103,-0.853,-2.500,0.000,2.100,-0.800,0.294,0.053,1
23.500,8,9,-2.376,-0.243,2.036,0.048,-0.049,-0.839,-2.500,0.000,2.100,-0.800,0.280,0.039,1
23.550,8,9,-2.313,-0.199,2.042,0.060,-0.032,-0.817,-2.500,0.000,2.100,-0.800,0.279,0.017,1
23.600,8,9,-2.276,-0.161,2.048,0.052,-0.005,-0.797,-2.500,0.000,2.100,-0.800,0.281,0.003,1
23.650,8,9,-2.257,-0.132,2.053,0.036,-0.036,-0.790,-2.500,0.000,2.100,-0.800,0.281,0.010,1
23.700,8,9,-2.252,-0.106,2.050,0.013,-0.013,-0.782,-2.500,0.000,2.100,-0.800,0.275,0.018,1
23.750,8,9,-2.253,-0.086,2.054,0.028,0.013,-0.773,-2.500,0.000,2.100,-0.800,0.265,0.027,1
23.800,8,9,-2.261,-0.076,2.054,0.010,-0.002,-0.771,-2.500,0.000,2.100,-0.800,0.255,0.029,1
23.850,8,9,-2.270,-0.074,2.055,0.013,0.024,-0.771,-2.500,0.000,2.100,-0.800,0.245,0.029,1
23.900,8,9,-2.279,-0.079,2.061,0.011,0.002,-0.770,-2.500,0.000,2.100,-0.800,0.238,0.030,1
23.950,8,9,-2.287,-0.088,2.063,0.013,0.010,-0.771,-2.500,0.000,2.100,-0.800,0.234,0.029,1
24.000,8,9,-2.294,-0.100,2.058,-0.017,-0.007,-0.776,-2.500,0.000,2.100,-0.800,0.233,0.024,1
24.050,8,9,-2.299,-0.108,2.057,0.009,0.027,-0.780,-2.500,0.000,2.100,-0.800,0.232,0.020,1
24.100,8,9,-2.303,-0.118,2.060,-0.003,0.002,-0.777,-2.500,0.000,2.100,-0.800,0.233,0.023,1
24.150,8,9,-2.305,-0.127,2.058,-0.009,-0.002,-0.777,-2.500,0.000,2.100,-0.800,0.237,0.023,1
24.200,8,9,-2.305,-0.132,2.061,0.019,0.015,-0.785,-2.500,0.000,2.100,-0.800,0.238,0.015,1
24.250,8,9,-2.304,-0.132,2.058,-0.007,-0.017,-0.788,-2.500,0.000,2.100,-0.800,0.240,0.012,1
24.300,8,9,-2.303,-0.126,2.059,0.013,0.011,-0.782,-2.500,0.000,2.100,-0.800,0.237,0.018,1
24.350,8,9,-2.301,-0.122,2.059,-0.009,-0.001,-0.784,-2.500,0.000,2.100,-0.800,0.237,0.016,1
24.400,8,9,-2.299,-0.115,2.052,0.018,0.002,-0.782,-2.500,0.000,2.100,-0.800,0.237,0.018,1
24.450,8,9,-2.298,-0.112,2.052,0.002,0.005,-0.781,-2.500,0.000,2.100,-0.800,0.236,0.019,1
24.500,8,9,-2.297,-0.112,2.050,-0.002,0.004,-0.780,-2.500,0.000,2.100,-0.800,0.236,0.020,1
24.550,8,9,-2.297,-0.112,2.052,0.011,0.004,-0.779,-2.500,0.000,2.100,-0.800,0.237,0.021,1
24.600,8,9,-2.296,-0.114,2.055,0.009,0.002,-0.776,-2.500,0.000,2.100,-0.800,0.238,0.024,1
24.650,8,9,-2.295,-0.120,2.055,-0.009,-0.019,-0.776,-2.500,0.000,2.100,-0.800,0.242,0.024,1
24.700,8,9,-2.294,-0.122,2.057,-0.000,0.009,-0.780,-2.500,0.000,2.100,-0.800,0.244,0.020,1
24.750,8,9,-2.295,-0.123,2.054,-0.003,0.003,-0.781,-2.500,0.000,2.100,-0.800,0.243,0.019,1
24.800,8,9,-2.296,-0.121,2.057,-0.002,-0.012,-0.778,-2.500,0.000,2.100,-0.800,0.241,0.022,1
24.850,8,9,-2.296,-0.118,2.061,-0.002,0.003,-0.778,-2.500,0.000,2.100,-0.800,0.239,0.022,1
24.900,8,9,-2.296,-0.115,2.060,-0.002,-0.008,-0.777,-2.500,0.000,2.100,-0.800,0.238,0.023,1
24.950,8,9,-2.296,-0.112,2.056,-0.004,0.001,-0.780,-2.500,0.000,2.100,-0.800,0.237,0.020,1
25.000,8,9,-2.295,-0.111,2.060,0.004,-0.002,-0.776,-2.500,0.000,2.100,-0.800,0.236,0.024,1
25.050,8,9,-2.295,-0.111,2.057,0.000,-0.005,-0.780,-2.500,0.000,2.100,-0.800,0.237,0.020,1
25.100,8,9,-2.295,-0.109,2.058,0.014,0.021,-0.781,-2.500,0.000,2.100,-0.800,0.236,0.019,1
25.150,8,9,-2.294,-0.110,2.058,-0.004,-0.002,-0.781,-2.500,0.000,2.100,-0.800,0.237,0.019,1
25.200,8,9,-2.294,-0.109,2.059,0.006,0.011,-0.779,-2.500,0.000,2.100,-0.800,0.237,0.021,1
25.250,8,9,-2.296,-0.110,2.060,-0.012,-0.008,-0.779,-2.500,0.000,2.100,-0.800,0.236,0.021,1
25.300,8,9,-2.298,-0.110,2.058,0.005,0.012,-0.777,-2.500,0.000,2.100,-0.800,0.234,0.023,1
25.350,8,9,-2.299,-0.114,2.061,0.001,0.018,-0.777,-2.500,0.000,2.100,-0.800,0.234,0.023,1
25.400,8,9,-2.300,-0.119,2.059,-0.016,-0.011,-0.778,-2.500,0.000,2.100,-0.800,0.236,0.022,1
25.450,9,10,-2.300,-0.120,2.062,-0.001,0.006,-0.778,0.000,-2.500,1.300,-1.200,3.397,0.422,0
25.500,9,10,-2.148,-0.237,1.943,0.145,0.697,-1.890,0.000,-2.500,1.300,-1.200,3.186,0.690,0
25.550,9,10,-1.802,-0.726,1.681,0.091,0.391,-1.338,0.000,-2.500,1.300,-1.200,2.557,0.138,0
25.600,9,10,-1.312,-1.479,1.447,-0.755,0.890,-1.581,0.000,-2.500,1.300,-1.200,1.669,0.381,0
25.650,9,10,-0.611,-2.425,1.359,-0.224,-0.257,-0.909,0.000,-2.500,1.300,-1.200,0.618,0.291,0
25.700,9,10,0.098,-3.226,1.391,-0.401,-0.554,-0.692,0.000,-2.500,1.300,-1.200,0.738,0.508,0
25.750,9,10,0.635,-3.696,1.409,-0.099,-0.742,-0.621,0.000,-2.500,1.300,-1.200,1.358,0.579,0
25.800,9,10,0.834,-3.742,1.546,0.319,-0.734,-0.935,0.000,-2.500,1.300,-1.200,1.516,0.265,0
25.850,9,10,0.722,-3.474,1.749,0.345,-0.524,-0.947,0.000,-2.500,1.300,-1.200,1.293,0.253,0
25.900,9,10,0.487,-3.110,1.761,0.094,-0.615,-0.985,0.000,-2.500,1.300,-1.200,0.906,0.215,0
25.950,9,10,0.110,-2.634,1.699,0.407,0.082,-0.806,0.000,-2.500,1.300,-1.200,0.435,0.394,0
26.000,9,10,-0.311,-2.270,1.606,-0.211,0.605,-0.859,0.000,-2.500,1.300,-1.200,0.494,0.341,0
26.050,9,10,-0.462,-2.113,1.631,-0.264,0.535,-1.074,0.000,-2.500,1.300,-1.200,0.687,0.126,0
26.100,9,10,-0.400,-2.086,1.634,0.004,0.363,-1.183,0.000,-2.500,1.300,-1.200,0.665,0.017,0
26.150,9,10,-0.274,-2.162,1.585,0.132,0.134,-1.220,0.000,-2.500,1.300,-1.200,0.520,0.020,0
26.200,9,10,-0.144,-2.292,1.512,0.155,-0.024,-1.214,0.000,-2.500,1.300,-1.200,0.330,0.014,0
26.250,9,10,-0.039,-2.432,1.436,0.137,-0.069,-1.187,0.000,-2.500,1.300,-1.200,0.156,0.013,1
26.300,9,10,0.033,-2.546,1.386,0.115,-0.113,-1.168,0.000,-2.500,1.300,-1.200,0.103,0.032,1
26.350,9,10,0.071,-2.609,1.359,-0.021,-0.123,-1.151,0.000,-2.500,1.300,-1.200,0.142,0.049,1
26.400,9,10,0.088,-2.615,1.343,-0.068,-0.153,-1.144,0.000,-2.500,1.300,-1.200,0.151,0.056,1
26.450,9,10,0.090,-2.575,1.334,-0.025,-0.076,-1.144,0.000,-2.500,1.300,-1.200,0.122,0.056,1
26.500,9,10,0.082,-2.511,1.325,0.066,-0.022,-1.139,0.000,-2.500,1.300,-1.200,0.087,0.061,1
26.550,9,10,0.066,-2.439,1.323,0.007,0.040,-1.139,0.000,-2.500,1.300,-1.200,0.092,0.061,1
26.600,9,10,0.050,-2.377,1.324,-0.031,0.084,-1.149,0.000,-2.500,1.300,-1.200,0.135,0.051,1
26.650,9,10,0.044,-2.339,1.330,-0.060,0.075,-1.151,0.000,-2.500,1.300,-1.200,0.169,0.049,1
26.700,9,10,0.046,-2.331,1.327,-0.067,0.022,-1.142,0.000,-2.500,1.300,-1.200,0.177,0.058,1
26.750,9,10,0.045,-2.349,1.326,0.022,0.067,-1.146,0.000,-2.500,1.300,-1.200,0.160,0.054,1
26.800,9,10,0.050,-2.384,1.328,0.008,0.022,-1.140,0.000,-2.500,1.300,-1.200,0.130,0.060,1
26.850,9,10,0.058,-2.426,1.323,-0.042,-0.021,-1.134,0.000,-2.500,1.300,-1.200,0.096,0.066,1
26.900,9,10,0.063,-2.468,1.316,-0.018,-0.048,-1.138,0.000,-2.500,1.300,-1.200,0.072,0.062,1
26.950,9,10,0.066,-2.494,1.313,0.055,-0.012,-1.134,0.000,-2.500,1.300,-1.200,0.067,0.066,1
27.000,9,10,0.063,-2.506,1.309,-0.032,-0.033,-1.139,0.000,-2.500,1.300,-1.200,0.064,0.061,1
27.050,9,10,0.056,-2.500,1.302,-0.075,-0.052,-1.138,0.000,-2.500,1.300,-1.200,0.056,0.062,1
27.100,9,10,0.053,-2.481,1.306,-0.041,-0.014,-1.141,0.000,-2.500,1.300,-1.200,0.057,0.059,1
27.150,9,10,0.057,-2.456,1.312,0.020,-0.014,-1.143,0.000,-2.500,1.300,-1.200,0.073,0.057,1
27.200,9,10,0.060,-2.432,1.318,0.033,0.023,-1.142,0.000,-2.500,1.300,-1.200,0.093,0.058,1
27.250,9,10,0.066,-2.413,1.320,0.044,0.043,-1.140,0.000,-2.500,1.300,-1.200,0.110,0.060,1
27.300,9,10,0.067,-2.405,1.319,-0.050,-0.010,-1.143,0.000,-2.500,1.300,-1.200,0.118,0.057,1
27.350,9,10,0.062,-2.401,1.319,-0.033,-0.018,-1.140,0.000,-2.500,1.300,-1.200,0.118,0.060,1
27.400,9,10,0.056,-2.406,1.317,0.023,-0.010,-1.149,0.000,-2.500,1.300,-1.200,0.110,0.051,1
27.450,9,10,0.056,-2.415,1.322,0.041,0.014,-1.153,0.000,-2.500,1.300,-1.200,0.104,0.047,1
27.500,9,10,0.060,-2.425,1.319,0.031,0.025,-1.141,0.000,-2.500,1.300,-1.200,0.098,0.059,1
27.550,9,10,0.062,-2.435,1.309,-0.027,0.000,-1.138,0.000,-2.500,1.300,-1.200,0.090,0.062,1
27.600,9,10,0.064,-2.443,1.311,-0.056,-0.028,-1.139,0.000,-2.500,1.300,-1.200,0.086,0.061,1
27.650,9,10,0.065,-2.445,1.305,0.057,-0.034,-1.147,0.000,-2.500,1.300,-1.200,0.085,0.053,1
27.700,9,10,0.062,-2.443,1.311,0.052,0.010,-1.144,0.000,-2.500,1.300,-1.200,0.085,0.056,1
27.750,9,10,0.064,-2.436,1.316,0.020,0.024,-1.142,0.000,-2.500,1.300,-1.200,0.091,0.058,1
27.800,9,10,0.067,-2.431,1.314,-0.024,0.006,-1.138,0.000,-2.500,1.300,-1.200,0.097,0.062,1
27.850,9,10,0.064,-2.429,1.308,-0.086,-0.031,-1.138,0.000,-2.500,1.300,-1.200,0.096,0.062,1
27.900,9,10,0.063,-2.423,1.314,0.072,0.024,-1.138,0.000,-2.500,1.300,-1.200,0.100,0.062,1
27.950,9,10,0.064,-2.421,1.312,0.016,0.020,-1.139,0.000,-2.500,1.300,-1.200,0.103,0.061,1
28.000,9,10,0.069,-2.419,1.320,0.044,0.023,-1.137,0.000,-2.500,1.300,-1.200,0.108,0.063,1
28.050,9,10,0.070,-2.420,1.322,-0.004,0.018,-1.140,0.000,-2.500,1.300,-1.200,0.108,0.060,1
28.100,9,10,0.070,-2.424,1.326,-0.054,-0.003,-1.136,0.000,-2.500,1.300,-1.200,0.107,0.064,1
28.150,9,10,0.068,-2.430,1.326,-0.090,-0.028,-1.137,0.000,-2.500,1.300,-1.200,0.100,0.063,1
28.200,9,10,0.061,-2.438,1.318,-0.033,-0.004,-1.145,0.000,-2.500,1.300,-1.200,0.089,0.055,1
28.250,10,11,0.081,-2.393,1.286,-1.897,-0.269,-0.021,2.200,2.200,2.000,1.570,5.108,1.591,0
28.300,10,11,0.145,-1.953,1.045,1.417,1.308,2.197,2.200,2.200,2.000,1.570,4.731,0.627,0
28.350,10,11,0.276,-1.179,0.648,1.685,0.009,2.696,2.200,2.200,2.000,1.570,4.117,1.126,0
28.400,10,11,0.003,0.004,1.010,-0.700,0.568,-0.170,2.200,2.200,2.000,1.570,3.260,1.740,0
28.450,10,11,0.182,0.197,1.140,0.234,0.523,0.839,2.200,2.200,2.000,1.570,2.970,0.731,0
28.500,10,11,0.685,0.554,1.525,0.450,0.263,1.427,2.200,2.200,2.000,1.570,2.287,0.143,0
28.550,10,11,1.381,0.972,1.877,0.166,0.035,1.456,2.200,2.200,2.000,1.570,1.481,0.114,0
28.600,10,11,2.058,1.373,1.887,-0.377,-0.258,1.458,2.200,2.200,2.000,1.570,0.847,0.112,0
28.650,10,11,2.518,1.683,1.927,-0.394,-0.183,1.351,2.200,2.200,2.000,1.570,0.611,0.219,0
28.700,10,11,2.740,1.945,2.008,-0.471,-0.191,1.389,2.200,2.200,2.000,1.570,0.597,0.181,0
28.750,10,11,2.764,2.167,2.057,-0.338,-0.326,1.455,2.200,2.200,2.000,1.570,0.568,0.115,0
28.800,10,11,2.642,2.291,2.064,-0.201,-0.314,1.431,2.200,2.200,2.000,1.570,0.456,0.139,0
28.850,10,11,2.429,2.312,2.040,-0.054,-0.185,1.467,2.200,2.200,2.000,1.570,0.258,0.103,0
28.900,10,11,2.190,2.267,2.009,0.163,-0.150,1.526,2.200,2.200,2.000,1.570,0.069,0.044,1
28.950,10,11,1.993,2.184,1.987,0.236,-0.046,1.578,2.200,2.200,2.000,1.570,0.209,0.008,1
29.000,10,11,1.882,2.091,2.005,0.153,0.082,1.590,2.200,2.200,2.000,1.570,0.336,0.020,0
29.050,10,11,1.835,2.031,2.030,0.135,0.105,1.583,2.200,2.200,2.000,1.570,0.403,0.013,0
29.100,10,11,1.842,2.013,2.047,0.093,0.095,1.575,2.200,2.200,2.000,1.570,0.406,0.005,0
29.150,10,11,1.887,2.031,2.052,0.033,0.071,1.565,2.200,2.200,2.000,1.570,0.360,0.005,0
29.200,10,11,1.947,2.074,2.040,-0.011,0.019,1.554,2.200,2.200,2.000,1.570,0.286,0.016,1
29.250,10,11,2.005,2.123,2.035,-0.038,-0.028,1.546,2.200,2.200,2.000,1.570,0.212,0.024,1
29.300,10,11,2.052,2.161,2.029,-0.053,-0.047,1.539,2.200,2.200,2.000,1.570,0.156,0.031,1
29.350,10,11,2.080,2.181,2.018,-0.036,-0.053,1.535,2.200,2.200,2.000,1.570,0.123,0.035,1
29.400,10,11,2.089,2.184,2.012,-0.024,-0.039,1.534,2.200,2.200,2.000,1.570,0.113,0.036,1
29.450,10,11,2.084,2.173,2.011,-0.025,-0.015,1.534,2.200,2.200,2.000,1.570,0.120,0.036,1
29.500,10,11,2.070,2.157,2.006,-0.010,0.003,1.535,2.200,2.200,2.000,1.570,0.137,0.035,1
29.550,10,11,2.053,2.140,2.006,-0.001,0.013,1.539,2.200,2.200,2.000,1.570,0.159,0.031,1
29.600,10,11,2.038,2.127,2.003,-0.006,0.037,1.543,2.200,2.200,2.000,1.570,0.178,0.027,1
29.650,10,11,2.028,2.122,2.001,0.002,0.025,1.543,2.200,2.200,2.000,1.570,0.189,0.027,1
29.700,10,11,2.024,2.124,2.005,0.018,0.004,1.544,2.200,2.200,2.000,1.570,0.191,0.026,1
29.750,10,11,2.026,2.131,2.006,0.020,-0.008,1.545,2.200,2.200,2.000,1.570,0.188,0.025,1
29.800,10,11,2.030,2.139,2.007,0.014,-0.013,1.546,2.200,2.200,2.000,1.570,0.181,0.024,1
29.850,10,11,2.036,2.146,1.998,0.020,-0.023,1.544,2.200,2.200,2.000,1.570,0.173,0.026,1
29.900,10,11,2.042,2.147,2.005,-0.004,-0.005,1.543,2.200,2.200,2.000,1.570,0.166,0.027,1
29.950,10,11,2.046,2.148,2.008,-0.013,0.003,1.544,2.200,2.200,2.000,1.570,0.163,0.026,1
