time_seconds,targets_hit,total_targets,drone_x,drone_y,drone_z,drone_roll,drone_pitch,drone_yaw,target_x,target_y,target_z,target_yaw,distance_to_target,yaw_error,is_hitting
0.000,0,1,0.000,0.000,1.000,-0.055,0.056,-0.012,1.000,1.000,1.500,0.000,1.500,0.012,0
0.050,0,1,0.135,0.096,1.079,0.012,0.424,-0.145,1.000,1.000,1.500,0.000,1.320,0.145,0
0.100,0,1,0.503,0.252,1.246,-0.129,0.141,-0.128,1.000,1.000,1.500,0.000,0.933,0.128,0
0.150,0,1,0.908,0.432,1.304,-0.077,-0.090,-0.125,1.000,1.000,1.500,0.000,0.608,0.125,0
0.200,0,1,1.276,0.628,1.344,0.035,-0.232,-0.100,1.000,1.000,1.500,0.000,0.489,0.100,0
0.250,0,1,1.546,0.812,1.392,0.119,-0.308,-0.058,1.000,1.000,1.500,0.000,0.587,0.058,0
0.300,0,1,1.682,0.949,1.463,0.154,-0.335,-0.021,1.000,1.000,1.500,0.000,0.684,0.021,0
0.350,0,1,1.686,1.023,1.524,0.108,-0.253,0.021,1.000,1.000,1.500,0.000,0.687,0.021,0
0.400,0,1,1.597,1.047,1.549,0.085,-0.165,0.031,1.000,1.000,1.500,0.000,0.601,0.031,0
0.450,0,1,1.449,1.042,1.537,0.026,-0.077,0.029,1.000,1.000,1.500,0.000,0.452,0.029,0
0.500,0,1,1.272,1.027,1.515,-0.004,0.013,0.022,1.000,1.000,1.500,0.000,0.274,0.022,1
0.550,0,1,1.102,1.012,1.499,-0.008,0.095,0.007,1.000,1.000,1.500,0.000,0.103,0.007,1
0.600,0,1,0.970,1.001,1.495,0.011,0.143,-0.009,1.000,1.000,1.500,0.000,0.030,0.009,1
0.650,0,1,0.893,0.988,1.493,0.028,0.148,-0.025,1.000,1.000,1.500,0.000,0.108,0.025,1
0.700,0,1,0.868,0.969,1.494,-0.023,0.099,-0.045,1.000,1.000,1.500,0.000,0.136,0.045,1
0.750,0,1,0.881,0.950,1.501,0.016,0.071,-0.056,1.000,1.000,1.500,0.000,0.129,0.056,1
0.800,0,1,0.917,0.924,1.501,0.033,0.024,-0.057,1.000,1.000,1.500,0.000,0.113,0.057,1
0.850,0,1,0.959,0.894,1.494,-0.028,-0.002,-0.066,1.000,1.000,1.500,0.000,0.113,0.066,1
0.900,0,1,1.001,0.873,1.490,0.003,-0.033,-0.065,1.000,1.000,1.500,0.000,0.127,0.065,1
0.950,0,1,1.038,0.855,1.486,0.006,-0.011,-0.067,1.000,1.000,1.500,0.000,0.151,0.067,1
1.000,0,1,1.068,0.835,1.484,-0.008,-0.074,-0.061,1.000,1.000,1.500,0.000,0.179,0.061,1
1.050,0,1,1.083,0.821,1.479,-0.065,-0.038,-0.062,1.000,1.000,1.500,0.000,0.198,0.062,1
1.100,0,1,1.085,0.828,1.484,-0.009,-0.014,-0.055,1.000,1.000,1.500,0.000,0.193,0.055,1
1.150,0,1,1.085,0.837,1.482,0.002,0.007,-0.063,1.000,1.000,1.500,0.000,0.184,0.063,1
1.200,0,1,1.086,0.849,1.479,0.020,0.023,-0.055,1.000,1.000,1.500,0.000,0.175,0.055,1
1.250,0,1,1.087,0.857,1.473,-0.018,-0.004,-0.061,1.000,1.000,1.500,0.000,0.170,0.061,1
1.300,0,1,1.085,0.862,1.474,0.016,0.015,-0.050,1.000,1.000,1.500,0.000,0.164,0.050,1
1.350,0,1,1.084,0.861,1.474,0.006,-0.008,-0.045,1.000,1.000,1.500,0.000,0.165,0.045,1
1.400,0,1,1.081,0.863,1.465,-0.040,-0.001,-0.053,1.000,1.000,1.500,0.000,0.163,0.053,1
1.450,0,1,1.076,0.873,1.469,0.032,0.020,-0.053,1.000,1.000,1.500,0.000,0.152,0.053,1
1.500,0,1,1.073,0.879,1.469,-0.030,-0.004,-0.056,1.000,1.000,1.500,0.000,0.145,0.056,1
1.550,0,1,1.072,0.889,1.474,0.030,0.023,-0.051,1.000,1.000,1.500,0.000,0.135,0.051,1
1.600,0,1,1.073,0.889,1.472,0.010,-0.003,-0.054,1.000,1.000,1.500,0.000,0.136,0.054,1
1.650,0,1,1.074,0.890,1.471,-0.036,-0.014,-0.054,1.000,1.000,1.500,0.000,0.136,0.054,1
1.700,0,1,1.075,0.895,1.475,0.052,-0.010,-0.055,1.000,1.000,1.500,0.000,0.132,0.055,1
1.750,0,1,1.075,0.893,1.468,0.028,0.019,-0.054,1.000,1.000,1.500,0.000,0.134,0.054,1
1.800,0,1,1.075,0.881,1.466,-0.039,-0.014,-0.055,1.000,1.000,1.500,0.000,0.145,0.055,1
1.850,0,1,1.075,0.873,1.469,0.002,0.001,-0.051,1.000,1.000,1.500,0.000,0.151,0.051,1
1.900,0,1,1.074,0.865,1.475,0.028,-0.010,-0.054,1.000,1.000,1.500,0.000,0.156,0.054,1
1.950,0,1,1.071,0.859,1.478,-0.037,-0.002,-0.059,1.000,1.000,1.500,0.000,0.159,0.059,1
2.000,0,1,1.069,0.856,1.468,-0.037,-0.003,-0.056,1.000,1.000,1.500,0.000,0.163,0.056,1
2.050,0,1,1.071,0.854,1.469,0.034,0.027,-0.055,1.000,1.000,1.500,0.000,0.165,0.055,1
2.100,0,1,1.074,0.856,1.467,-0.002,-0.009,-0.056,1.000,1.000,1.500,0.000,0.166,0.056,1
2.150,0,1,1.074,0.859,1.469,0.008,0.019,-0.058,1.000,1.000,1.500,0.000,0.163,0.058,1
2.200,0,1,1.079,0.857,1.464,-0.015,-0.041,-0.052,1.000,1.000,1.500,0.000,0.167,0.052,1
2.250,0,1,1.083,0.853,1.465,-0.031,0.001,-0.052,1.000,1.000,1.500,0.000,0.172,0.052,1
2.300,0,1,1.084,0.858,1.469,-0.012,0.001,-0.054,1.000,1.000,1.500,0.000,0.167,0.054,1
2.350,0,1,1.083,0.864,1.467,0.031,0.025,-0.047,1.000,1.000,1.500,0.000,0.163,0.047,1
2.400,0,1,1.084,0.860,1.460,-0.020,0.010,-0.052,1.000,1.000,1.500,0.000,0.169,0.052,1
2.450,0,1,1.084,0.862,1.466,-0.009,-0.017,-0.054,1.000,1.000,1.500,0.000,0.166,0.054,1
2.500,1,2,1.082,0.867,1.468,-0.000,-0.046,-0.048,-1.000,1.000,1.000,0.500,2.138,0.548,0
2.550,1,2,0.945,0.886,1.445,-0.208,-0.494,0.369,-1.000,1.000,1.000,0.500,1.999,0.131,0
2.600,1,2,0.490,0.930,1.490,-0.209,-0.413,0.497,-1.000,1.000,1.000,0.500,1.570,0.003,0
2.650,1,2,-0.093,0.988,1.420,-0.093,-0.274,0.520,-1.000,1.000,1.000,0.500,1.000,0.020,0
2.700,1,2,-0.744,1.023,1.308,0.068,0.034,0.576,-1.000,1.000,1.000,0.500,0.401,0.076,0
2.750,1,2,-1.348,1.036,1.228,0.221,0.333,0.622,-1.000,1.000,1.000,0.500,0.418,0.122,0
2.800,1,2,-1.740,1.080,1.247,0.210,0.579,0.602,-1.000,1.000,1.000,0.500,0.784,0.102,0
2.850,1,2,-1.814,1.178,1.348,0.401,0.480,0.514,-1.000,1.000,1.000,0.500,0.903,0.014,0
2.900,1,2,-1.661,1.233,1.393,0.346,0.175,0.416,-1.000,1.000,1.000,0.500,0.803,0.084,0
2.950,1,2,-1.428,1.216,1.319,0.243,-0.138,0.401,-1.000,1.000,1.000,0.500,0.576,0.099,0
3.000,1,2,-1.204,1.096,1.249,0.043,-0.189,0.441,-1.000,1.000,1.000,0.500,0.336,0.059,0
3.050,1,2,-1.043,0.929,1.184,-0.143,-0.180,0.444,-1.000,1.000,1.000,0.500,0.202,0.056,1
3.100,1,2,-0.971,0.784,1.146,-0.222,-0.034,0.412,-1.000,1.000,1.000,0.500,0.262,0.088,1
3.150,1,2,-0.949,0.712,1.120,-0.178,0.051,0.404,-1.000,1.000,1.000,0.500,0.316,0.096,0
3.200,1,2,-0.939,0.710,1.089,-0.107,0.063,0.414,-1.000,1.000,1.000,0.500,0.309,0.086,0
3.250,1,2,-0.925,0.759,1.071,-0.044,0.039,0.429,-1.000,1.000,1.000,0.500,0.262,0.071,1
3.300,1,2,-0.904,0.831,1.045,0.043,0.030,0.437,-1.000,1.000,1.000,0.500,0.200,0.063,1
3.350,1,2,-0.877,0.898,1.023,0.010,-0.036,0.436,-1.000,1.000,1.000,0.500,0.162,0.064,1
3.400,1,2,-0.852,0.949,1.026,0.061,-0.052,0.453,-1.000,1.000,1.000,0.500,0.159,0.047,1
3.450,1,2,-0.838,0.980,1.027,0.001,-0.057,0.463,-1.000,1.000,1.000,0.500,0.165,0.037,1
3.500,1,2,-0.842,0.998,1.024,0.025,-0.034,0.469,-1.000,1.000,1.000,0.500,0.160,0.031,1
3.550,1,2,-0.853,0.998,1.008,-0.030,-0.001,0.463,-1.000,1.000,1.000,0.500,0.147,0.037,1
3.600,1,2,-0.873,0.994,1.002,0.039,-0.031,0.466,-1.000,1.000,1.000,0.500,0.128,0.034,1
3.650,1,2,-0.893,0.982,0.999,-0.006,0.009,0.457,-1.000,1.000,1.000,0.500,0.109,0.043,1
3.700,1,2,-0.910,0.969,1.003,0.001,0.026,0.462,-1.000,1.000,1.000,0.500,0.095,0.038,1
3.750,1,2,-0.924,0.959,1.003,0.019,0.022,0.456,-1.000,1.000,1.000,0.500,0.087,0.044,1
3.800,1,2,-0.927,0.947,1.003,-0.038,0.048,0.455,-1.000,1.000,1.000,0.500,0.091,0.045,1
3.850,1,2,-0.921,0.950,1.005,0.004,0.008,0.481,-1.000,1.000,1.000,0.500,0.093,0.019,1
3.900,1,2,-0.914,0.960,1.011,0.020,0.002,0.473,-1.000,1.000,1.000,0.500,0.095,0.027,1
3.950,1,2,-0.907,0.966,1.007,0.027,-0.011,0.453,-1.000,1.000,1.000,0.500,0.099,0.047,1
4.000,1,2,-0.901,0.964,0.996,-0.010,-0.006,0.453,-1.000,1.000,1.000,0.500,0.106,0.047,1
4.050,1,2,-0.897,0.964,1.002,-0.001,-0.003,0.457,-1.000,1.000,1.000,0.500,0.109,0.043,1
4.100,1,2,-0.895,0.966,1.010,0.003,-0.002,0.455,-1.000,1.000,1.000,0.500,0.111,0.045,1
4.150,1,2,-0.895,0.967,1.007,0.033,0.005,0.455,-1.000,1.000,1.000,0.500,0.110,0.045,1
4.200,1,2,-0.894,0.965,0.998,0.005,-0.003,0.469,-1.000,1.000,1.000,0.500,0.111,0.031,1
4.250,1,2,-0.894,0.968,0.995,0.008,-0.005,0.466,-1.000,1.000,1.000,0.500,0.111,0.034,1
4.300,1,2,-0.894,0.970,1.000,0.008,-0.003,0.463,-1.000,1.000,1.000,0.500,0.110,0.037,1
4.350,1,2,-0.898,0.974,1.006,-0.010,0.001,0.472,-1.000,1.000,1.000,0.500,0.106,0.028,1
4.400,1,2,-0.903,0.977,1.007,0.021,-0.003,0.457,-1.000,1.000,1.000,0.500,0.100,0.043,1
4.450,1,2,-0.904,0.972,1.009,0.024,-0.001,0.455,-1.000,1.000,1.000,0.500,0.100,0.045,1
4.500,1,2,-0.903,0.961,1.004,-0.018,0.012,0.449,-1.000,1.000,1.000,0.500,0.104,0.051,1
4.550,1,2,-0.898,0.955,1.008,-0.015,-0.008,0.456,-1.000,1.000,1.000,0.500,0.112,0.044,1
4.600,1,2,-0.895,0.956,0.998,0.013,0.002,0.457,-1.000,1.000,1.000,0.500,0.114,0.043,1
4.650,1,2,-0.890,0.957,0.986,-0.036,0.023,0.460,-1.000,1.000,1.000,0.500,0.119,0.040,1
4.700,1,2,-0.884,0.964,0.987,0.038,-0.022,0.470,-1.000,1.000,1.000,0.500,0.122,0.030,1
4.750,1,2,-0.883,0.962,0.985,0.008,-0.005,0.448,-1.000,1.000,1.000,0.500,0.124,0.052,1
4.800,1,2,-0.882,0.959,0.985,-0.032,0.001,0.452,-1.000,1.000,1.000,0.500,0.126,0.048,1
4.850,1,2,-0.883,0.957,0.994,0.034,-0.014,0.459,-1.000,1.000,1.000,0.500,0.125,0.041,1
4.900,1,2,-0.878,0.956,0.995,0.015,-0.037,0.462,-1.000,1.000,1.000,0.500,0.130,0.038,1
4.950,1,2,-0.873,0.953,0.995,0.039,-0.024,0.450,-1.000,1.000,1.000,0.500,0.135,0.050,1
5.000,1,2,-0.869,0.946,0.982,-0.028,-0.004,0.448,-1.000,1.000,1.000,0.500,0.143,0.052,1
5.050,1,2,-0.872,0.942,0.984,0.010,-0.003,0.451,-1.000,1.000,1.000,0.500,0.141,0.049,1
5.100,1,2,-0.876,0.935,0.975,-0.030,0.009,0.445,-1.000,1.000,1.000,0.500,0.142,0.055,1
5.150,1,2,-0.881,0.936,0.983,0.014,0.029,0.457,-1.000,1.000,1.000,0.500,0.136,0.043,1
5.200,1,2,-0.883,0.939,0.987,-0.012,0.003,0.452,-1.000,1.000,1.000,0.500,0.132,0.048,1
5.250,2,3,-0.873,0.911,1.027,0.785,0.369,1.046,2.000,-1.500,2.000,1.000,3.875,0.046,0
5.300,2,3,-0.544,0.722,1.179,0.847,-0.215,1.229,2.000,-1.500,2.000,1.000,3.476,0.229,0
5.350,2,3,0.091,0.216,1.451,0.556,-1.200,1.413,2.000,-1.500,2.000,1.000,2.625,0.413,0
5.400,2,3,0.834,-0.772,1.674,0.019,-0.756,1.550,2.000,-1.500,2.000,1.000,1.413,0.550,0
5.450,2,3,1.579,-2.006,1.752,1.542,-0.397,-2.923,2.000,-1.500,2.000,1.000,0.704,2.360,0
5.500,2,3,2.239,-3.133,1.660,-0.423,-0.019,2.002,2.000,-1.500,2.000,1.000,1.685,1.002,0
5.550,2,3,2.756,-4.340,1.867,-0.604,0.374,1.114,2.000,-1.500,2.000,1.000,2.941,0.114,0
5.600,2,3,-0.000,-0.000,1.001,0.054,-0.152,-0.008,2.000,-1.500,2.000,1.000,2.693,1.008,0
5.650,2,3,0.077,-0.054,1.093,0.674,0.534,0.667,2.000,-1.500,2.000,1.000,2.572,0.333,0
5.700,2,3,0.556,-0.292,1.364,0.296,-0.147,1.069,2.000,-1.500,2.000,1.000,1.988,0.069,0
5.750,2,3,1.158,-0.663,1.708,0.146,-0.461,1.085,2.000,-1.500,2.000,1.000,1.223,0.085,0
5.800,2,3,1.732,-1.129,1.872,-0.088,-0.497,1.009,2.000,-1.500,2.000,1.000,0.476,0.009,0
5.850,2,3,2.181,-1.689,1.948,-0.310,-0.352,0.924,2.000,-1.500,2.000,1.000,0.267,0.076,1
5.900,2,3,2.437,-2.255,2.004,-0.523,-0.164,0.867,2.000,-1.500,2.000,1.000,0.872,0.133,0
5.950,2,3,2.476,-2.700,2.105,-0.506,0.242,0.760,2.000,-1.500,2.000,1.000,1.295,0.240,0
6.000,2,3,2.392,-2.835,2.267,-0.333,0.546,0.770,2.000,-1.500,2.000,1.000,1.417,0.230,0
6.050,2,3,2.284,-2.711,2.334,-0.153,0.356,0.854,2.000,-1.500,2.000,1.000,1.288,0.146,0
6.100,2,3,2.200,-2.452,2.253,-0.043,0.095,0.785,2.000,-1.500,2.000,1.000,1.005,0.215,0
6.150,2,3,2.136,-2.151,2.130,0.074,-0.012,0.776,2.000,-1.500,2.000,1.000,0.677,0.224,0
6.200,2,3,2.091,-1.862,2.035,0.110,-0.049,0.811,2.000,-1.500,2.000,1.000,0.374,0.189,0
6.250,2,3,2.068,-1.622,1.972,0.145,-0.092,0.861,2.000,-1.500,2.000,1.000,0.142,0.139,0
6.300,2,3,2.065,-1.451,1.940,0.111,-0.102,0.914,2.000,-1.500,2.000,1.000,0.101,0.086,1
6.350,2,3,2.075,-1.346,1.941,0.116,-0.090,0.949,2.000,-1.500,2.000,1.000,0.181,0.051,1
6.400,2,3,2.097,-1.293,1.952,0.069,-0.078,0.970,2.000,-1.500,2.000,1.000,0.233,0.030,1
6.450,2,3,2.119,-1.278,1.955,-0.005,-0.070,0.987,2.000,-1.500,2.000,1.000,0.255,0.013,1
6.500,2,3,2.130,-1.290,1.962,-0.005,-0.051,1.001,2.000,-1.500,2.000,1.000,0.250,0.001,1
6.550,2,3,2.132,-1.319,1.963,0.004,-0.024,1.008,2.000,-1.500,2.000,1.000,0.227,0.008,1
6.600,2,3,2.130,-1.356,1.961,-0.025,-0.005,1.007,2.000,-1.500,2.000,1.000,0.198,0.007,1
6.650,2,3,2.122,-1.393,1.963,-0.004,0.010,1.002,2.000,-1.500,2.000,1.000,0.166,0.002,1
6.700,2,3,2.114,-1.426,1.961,0.008,0.029,0.995,2.000,-1.500,2.000,1.000,0.141,0.005,1
6.750,2,3,2.110,-1.451,1.966,0.012,0.025,0.990,2.000,-1.500,2.000,1.000,0.125,0.010,1
6.800,2,3,2.111,-1.466,1.964,-0.009,0.023,0.983,2.000,-1.500,2.000,1.000,0.122,0.017,1
6.850,2,3,2.118,-1.471,1.961,0.004,0.027,0.979,2.000,-1.500,2.000,1.000,0.127,0.021,1
6.900,2,3,2.131,-1.469,1.959,-0.004,0.013,0.976,2.000,-1.500,2.000,1.000,0.141,0.024,1
6.950,2,3,2.146,-1.461,1.962,0.002,0.008,0.975,2.000,-1.500,2.000,1.000,0.156,0.025,1
7.000,2,3,2.161,-1.451,1.965,-0.000,-0.001,0.974,2.000,-1.500,2.000,1.000,0.171,0.026,1
7.050,2,3,2.175,-1.442,1.962,-0.038,-0.020,0.974,2.000,-1.500,2.000,1.000,0.188,0.026,1
7.100,2,3,2.181,-1.436,1.964,-0.036,-0.017,0.972,2.000,-1.500,2.000,1.000,0.195,0.028,1
7.150,2,3,2.181,-1.432,1.965,-0.026,-0.013,0.972,2.000,-1.500,2.000,1.000,0.196,0.028,1
7.200,2,3,2.176,-1.433,1.966,-0.016,-0.010,0.975,2.000,-1.500,2.000,1.000,0.192,0.025,1
7.250,2,3,2.168,-1.436,1.966,0.003,0.001,0.973,2.000,-1.500,2.000,1.000,0.183,0.027,1
7.300,2,3,2.160,-1.441,1.965,0.015,0.002,0.974,2.000,-1.500,2.000,1.000,0.174,0.026,1
7.350,2,3,2.153,-1.447,1.959,-0.012,0.003,0.975,2.000,-1.500,2.000,1.000,0.167,0.025,1
7.400,2,3,2.146,-1.452,1.962,0.005,0.010,0.974,2.000,-1.500,2.000,1.000,0.158,0.026,1
7.450,2,3,2.144,-1.455,1.967,0.007,0.004,0.973,2.000,-1.500,2.000,1.000,0.155,0.027,1
7.500,2,3,2.146,-1.456,1.960,-0.010,0.003,0.973,2.000,-1.500,2.000,1.000,0.158,0.027,1
7.550,2,3,2.149,-1.455,1.958,-0.003,0.010,0.974,2.000,-1.500,2.000,1.000,0.161,0.026,1
7.600,2,3,2.153,-1.451,1.960,0.005,-0.003,0.974,2.000,-1.500,2.000,1.000,0.165,0.026,1
7.650,2,3,2.154,-1.448,1.962,0.006,0.000,0.973,2.000,-1.500,2.000,1.000,0.167,0.027,1
7.700,2,3,2.154,-1.445,1.947,0.008,0.004,0.977,2.000,-1.500,2.000,1.000,0.172,0.023,1
7.750,2,3,2.158,-1.443,1.950,-0.009,0.007,0.975,2.000,-1.500,2.000,1.000,0.175,0.025,1
7.800,2,3,2.161,-1.441,1.959,0.002,-0.008,0.974,2.000,-1.500,2.000,1.000,0.176,0.026,1
7.850,2,3,2.162,-1.439,1.950,-0.014,-0.009,0.975,2.000,-1.500,2.000,1.000,0.180,0.025,1
7.900,2,3,2.160,-1.439,1.958,-0.015,-0.004,0.976,2.000,-1.500,2.000,1.000,0.176,0.024,1
7.950,2,3,2.158,-1.440,1.960,-0.000,0.007,0.972,2.000,-1.500,2.000,1.000,0.174,0.028,1
8.000,2,3,2.155,-1.441,1.960,0.012,-0.002,0.972,2.000,-1.500,2.000,1.000,0.171,0.028,1
8.050,2,3,2.153,-1.444,1.965,0.023,-0.007,0.971,2.000,-1.500,2.000,1.000,0.167,0.029,1
8.100,2,3,2.154,-1.447,1.968,0.018,0.008,0.973,2.000,-1.500,2.000,1.000,0.166,0.027,1
8.150,2,3,2.158,-1.449,1.971,0.011,0.007,0.974,2.000,-1.500,2.000,1.000,0.168,0.026,1
8.200,2,3,2.162,-1.450,1.964,-0.010,-0.002,0.977,2.000,-1.500,2.000,1.000,0.174,0.023,1
8.250,2,3,2.165,-1.450,1.962,-0.014,0.006,0.975,2.000,-1.500,2.000,1.000,0.177,0.025,1
8.300,3,4,2.166,-1.448,1.969,-0.074,-0.085,0.988,-2.000,-1.500,1.800,1.500,4.170,0.512,0
8.350,3,4,1.943,-1.412,1.946,-1.005,-0.152,1.196,-2.000,-1.500,1.800,1.500,3.947,0.304,0
8.400,3,4,1.218,-1.232,1.929,-0.558,-0.032,1.424,-2.000,-1.500,1.800,1.500,3.232,0.076,0
8.450,3,4,0.164,-0.967,2.063,-0.934,0.596,1.306,-2.000,-1.500,1.800,1.500,2.244,0.194,0
8.500,3,4,-0.963,-0.656,1.968,-0.257,0.233,1.894,-2.000,-1.500,1.800,1.500,1.348,0.394,0
8.550,3,4,-2.100,-0.352,1.785,-0.042,-0.128,1.891,-2.000,-1.500,1.800,1.500,1.152,0.391,0
8.600,3,4,-3.111,-0.148,1.809,0.368,-0.420,1.825,-2.000,-1.500,1.800,1.500,1.750,0.325,0
8.650,3,4,-3.781,-0.136,2.062,0.128,-0.399,1.857,-2.000,-1.500,1.800,1.500,2.258,0.357,0
8.700,3,4,-4.259,-0.270,2.326,0.245,-0.472,1.912,-2.000,-1.500,1.800,1.500,2.625,0.412,0
8.750,3,4,-4.575,-0.533,2.548,0.221,-0.576,2.084,-2.000,-1.500,1.800,1.500,2.851,0.584,0
8.800,3,4,-4.673,-0.958,2.758,0.273,-0.644,2.197,-2.000,-1.500,1.800,1.500,2.891,0.697,0
8.850,3,4,-4.409,-1.575,3.026,0.552,-1.076,2.008,-2.000,-1.500,1.800,1.500,2.704,0.508,0
8.900,3,4,-3.602,-2.496,3.188,2.070,-1.486,0.146,-2.000,-1.500,1.800,1.500,2.342,1.354,0
8.950,3,4,-2.479,-3.659,2.916,-0.304,-0.468,0.330,-2.000,-1.500,1.800,1.500,2.478,1.170,0
9.000,3,4,-1.376,-4.748,2.375,-0.214,-0.262,1.047,-2.000,-1.500,1.800,1.500,3.357,0.453,0
9.050,3,4,0.006,-0.052,1.028,0.988,-0.020,0.047,-2.000,-1.500,1.800,1.500,2.592,1.453,0
9.100,3,4,-0.107,-0.397,1.062,-0.436,-0.481,0.739,-2.000,-1.500,1.800,1.500,2.312,0.761,0
9.150,3,4,-0.577,-0.736,1.154,-0.637,0.103,1.457,-2.000,-1.500,1.800,1.500,1.739,0.043,0
9.200,3,4,-1.355,-0.968,1.325,-0.276,0.271,1.617,-2.000,-1.500,1.800,1.500,0.961,0.117,0
9.250,3,4,-2.227,-1.110,1.421,0.158,0.191,1.731,-2.000,-1.500,1.800,1.500,0.589,0.231,0
9.300,3,4,-3.050,-1.168,1.547,0.271,0.014,1.728,-2.000,-1.500,1.800,1.500,1.130,0.228,0
9.350,3,4,-3.660,-1.184,1.805,0.421,-0.035,1.747,-2.000,-1.500,1.800,1.500,1.690,0.247,0
9.400,3,4,-4.000,-1.174,2.127,0.760,-0.128,1.786,-2.000,-1.500,1.800,1.500,2.053,0.286,0
9.450,3,4,-3.976,-1.140,2.472,0.659,-0.306,1.799,-2.000,-1.500,1.800,1.500,2.118,0.299,0
9.500,3,4,-3.739,-1.137,2.670,0.489,-0.448,1.795,-2.000,-1.500,1.800,1.500,1.978,0.295,0
9.550,3,4,-3.317,-1.225,2.748,0.371,-0.539,1.736,-2.000,-1.500,1.800,1.500,1.646,0.236,0
9.600,3,4,-2.762,-1.440,2.703,0.182,-0.423,1.669,-2.000,-1.500,1.800,1.500,1.183,0.169,0
9.650,3,4,-2.160,-1.749,2.553,-0.143,0.008,1.531,-2.000,-1.500,1.800,1.500,0.809,0.031,0
9.700,3,4,-1.645,-2.039,2.427,-0.575,0.235,1.412,-2.000,-1.500,1.800,1.500,0.900,0.088,0
9.750,3,4,-1.426,-2.154,2.402,-0.513,0.461,1.287,-2.000,-1.500,1.800,1.500,1.058,0.213,0
9.800,3,4,-1.399,-2.070,2.322,-0.254,0.343,1.371,-2.000,-1.500,1.800,1.500,0.979,0.129,0
9.850,3,4,-1.438,-1.859,2.174,-0.111,0.106,1.402,-2.000,-1.500,1.800,1.500,0.765,0.098,0
9.900,3,4,-1.508,-1.604,2.013,0.001,-0.055,1.442,-2.000,-1.500,1.800,1.500,0.546,0.058,0
9.950,3,4,-1.593,-1.372,1.905,-0.026,-0.137,1.478,-2.000,-1.500,1.800,1.500,0.439,0.022,0
10.000,3,4,-1.689,-1.204,1.841,0.023,-0.210,1.500,-2.000,-1.500,1.800,1.500,0.431,0.000,0
10.050,3,4,-1.783,-1.127,1.827,0.050,-0.195,1.500,-2.000,-1.500,1.800,1.500,0.433,0.000,0
10.100,3,4,-1.862,-1.124,1.820,0.039,-0.139,1.496,-2.000,-1.500,1.800,1.500,0.401,0.004,0
10.150,3,4,-1.932,-1.176,1.801,0.024,-0.076,1.499,-2.000,-1.500,1.800,1.500,0.331,0.001,0
10.200,3,4,-1.995,-1.257,1.787,0.022,-0.012,1.507,-2.000,-1.500,1.800,1.500,0.243,0.007,1
10.250,3,4,-2.047,-1.346,1.774,0.038,0.029,1.512,-2.000,-1.500,1.800,1.500,0.163,0.012,1
10.300,3,4,-2.086,-1.422,1.760,0.048,0.077,1.516,-2.000,-1.500,1.800,1.500,0.122,0.016,1
10.350,3,4,-2.104,-1.469,1.759,0.046,0.097,1.518,-2.000,-1.500,1.800,1.500,0.116,0.018,1
10.400,3,4,-2.100,-1.480,1.759,0.046,0.078,1.517,-2.000,-1.500,1.800,1.500,0.110,0.017,1
10.450,3,4,-2.076,-1.462,1.754,0.024,0.053,1.518,-2.000,-1.500,1.800,1.500,0.096,0.018,1
10.500,3,4,-2.040,-1.426,1.754,0.008,0.017,1.521,-2.000,-1.500,1.800,1.500,0.096,0.021,1
10.550,3,4,-1.999,-1.386,1.750,-0.008,-0.009,1.516,-2.000,-1.500,1.800,1.500,0.125,0.016,1
10.600,3,4,-1.960,-1.350,1.748,-0.024,-0.027,1.514,-2.000,-1.500,1.800,1.500,0.164,0.014,1
10.650,3,4,-1.932,-1.323,1.747,-0.037,-0.033,1.513,-2.000,-1.500,1.800,1.500,0.197,0.013,1
10.700,3,4,-1.917,-1.309,1.740,-0.013,-0.042,1.508,-2.000,-1.500,1.800,1.500,0.217,0.008,1
10.750,3,4,-1.913,-1.309,1.740,-0.032,-0.015,1.504,-2.000,-1.500,1.800,1.500,0.218,0.004,1
10.800,3,4,-1.923,-1.318,1.745,-0.023,-0.006,1.506,-2.000,-1.500,1.800,1.500,0.205,0.006,1
10.850,3,4,-1.944,-1.329,1.740,0.014,-0.003,1.507,-2.000,-1.500,1.800,1.500,0.189,0.007,1
10.900,3,4,-1.963,-1.342,1.741,0.009,0.017,1.500,-2.000,-1.500,1.800,1.500,0.173,0.000,1
10.950,3,4,-1.978,-1.350,1.738,0.019,0.008,1.504,-2.000,-1.500,1.800,1.500,0.164,0.004,1
11.000,3,4,-1.988,-1.354,1.736,0.013,0.002,1.507,-2.000,-1.500,1.800,1.500,0.159,0.007,1
11.050,3,4,-1.992,-1.356,1.736,0.032,-0.000,1.507,-2.000,-1.500,1.800,1.500,0.158,0.007,1
11.100,3,4,-1.990,-1.358,1.738,-0.001,0.011,1.507,-2.000,-1.500,1.800,1.500,0.156,0.007,1
11.150,3,4,-1.985,-1.357,1.740,-0.000,0.007,1.507,-2.000,-1.500,1.800,1.500,0.156,0.007,1
11.200,3,4,-1.980,-1.355,1.738,-0.007,0.007,1.510,-2.000,-1.500,1.800,1.500,0.159,0.010,1
11.250,3,4,-1.976,-1.354,1.737,-0.001,0.004,1.511,-2.000,-1.500,1.800,1.500,0.161,0.011,1
11.300,3,4,-1.973,-1.352,1.736,0.003,0.001,1.508,-2.000,-1.500,1.800,1.500,0.164,0.008,1
11.350,3,4,-1.969,-1.350,1.736,-0.006,-0.000,1.509,-2.000,-1.500,1.800,1.500,0.166,0.009,1
11.400,3,4,-1.967,-1.349,1.741,0.003,-0.005,1.504,-2.000,-1.500,1.800,1.500,0.165,0.004,1
11.450,3,4,-1.965,-1.349,1.745,-0.016,-0.004,1.505,-2.000,-1.500,1.800,1.500,0.164,0.005,1
11.500,3,4,-1.967,-1.351,1.745,0.015,-0.003,1.506,-2.000,-1.500,1.800,1.500,0.162,0.006,1
11.550,3,4,-1.967,-1.354,1.743,-0.012,-0.006,1.506,-2.000,-1.500,1.800,1.500,0.160,0.006,1
11.600,3,4,-1.969,-1.357,1.743,-0.004,0.012,1.505,-2.000,-1.500,1.800,1.500,0.157,0.005,1
11.650,3,4,-1.973,-1.358,1.745,0.007,0.009,1.507,-2.000,-1.500,1.800,1.500,0.154,0.007,1
11.700,3,4,-1.974,-1.360,1.742,0.010,-0.001,1.504,-2.000,-1.500,1.800,1.500,0.154,0.004,1
11.750,3,4,-1.972,-1.361,1.738,-0.003,0.010,1.504,-2.000,-1.500,1.800,1.500,0.155,0.004,1
11.800,3,4,-1.970,-1.359,1.737,-0.004,0.007,1.505,-2.000,-1.500,1.800,1.500,0.157,0.005,1
11.850,3,4,-1.969,-1.356,1.739,0.001,0.002,1.506,-2.000,-1.500,1.800,1.500,0.159,0.006,1
11.900,3,4,-1.967,-1.352,1.739,0.001,0.023,1.506,-2.000,-1.500,1.800,1.500,0.163,0.006,1
11.950,3,4,-1.963,-1.346,1.743,-0.001,-0.009,1.497,-2.000,-1.500,1.800,1.500,0.168,0.003,1
12.000,3,4,-1.960,-1.343,1.740,-0.011,-0.002,1.502,-2.000,-1.500,1.800,1.500,0.173,0.002,1
12.050,3,4,-1.959,-1.343,1.739,0.003,-0.009,1.501,-2.000,-1.500,1.800,1.500,0.174,0.001,1
12.100,3,4,-1.958,-1.344,1.738,-0.003,-0.006,1.502,-2.000,-1.500,1.800,1.500,0.173,0.002,1
12.150,3,4,-1.959,-1.346,1.739,-0.009,-0.009,1.504,-2.000,-1.500,1.800,1.500,0.170,0.004,1
12.200,4,5,-1.965,-1.329,1.736,-2.122,1.195,-0.766,0.000,2.500,1.000,-1.000,4.366,0.234,0
12.250,4,5,-1.799,-1.066,1.493,-0.667,-0.491,-0.843,0.000,2.500,1.000,-1.000,4.024,0.157,0
12.300,4,5,-1.449,-0.477,1.200,0.068,-0.797,-0.651,0.000,2.500,1.000,-1.000,3.317,0.349,0
12.350,4,5,-1.069,0.321,0.943,0.078,0.385,-1.030,0.000,2.500,1.000,-1.000,2.428,0.030,0
12.400,4,5,-0.487,1.078,0.738,-0.169,-0.578,-0.765,0.000,2.500,1.000,-1.000,1.526,0.235,0
12.450,4,5,0.081,1.974,0.733,0.406,0.484,-0.828,0.000,2.500,1.000,-1.000,0.595,0.172,0
12.500,4,5,0.681,2.729,0.755,0.057,-0.174,-0.929,0.000,2.500,1.000,-1.000,0.759,0.071,0
12.550,4,5,1.160,3.361,1.039,0.768,0.095,-0.847,0.000,2.500,1.000,-1.000,1.446,0.153,0
12.600,4,5,1.323,3.643,1.347,1.115,0.123,-0.565,0.000,2.500,1.000,-1.000,1.783,0.435,0
12.650,4,5,1.170,3.518,1.602,0.534,-0.185,-0.816,0.000,2.500,1.000,-1.000,1.663,0.184,0
12.700,4,5,0.926,3.306,1.651,0.305,-0.175,-0.847,0.000,2.500,1.000,-1.000,1.389,0.153,0
12.750,4,5,0.604,3.077,1.535,0.103,-0.273,-0.907,0.000,2.500,1.000,-1.000,0.993,0.093,0
12.800,4,5,0.222,2.895,1.339,-0.156,-0.153,-0.943,0.000,2.500,1.000,-1.000,0.566,0.057,0
12.850,4,5,-0.128,2.797,1.189,-0.302,0.141,-1.040,0.000,2.500,1.000,-1.000,0.375,0.040,0
12.900,4,5,-0.324,2.728,1.142,-0.243,0.187,-1.067,0.000,2.500,1.000,-1.000,0.420,0.067,0
12.950,4,5,-0.387,2.648,1.124,-0.162,0.091,-1.072,0.000,2.500,1.000,-1.000,0.432,0.072,0
13.000,4,5,-0.376,2.569,1.099,-0.087,0.028,-1.087,0.000,2.500,1.000,-1.000,0.395,0.087,0
13.050,4,5,-0.328,2.496,1.075,-0.038,-0.016,-1.095,0.000,2.500,1.000,-1.000,0.336,0.095,0
13.100,4,5,-0.269,2.437,1.043,-0.010,-0.032,-1.091,0.000,2.500,1.000,-1.000,0.280,0.091,1
13.150,4,5,-0.212,2.390,1.024,0.003,-0.042,-1.082,0.000,2.500,1.000,-1.000,0.240,0.082,1
13.200,4,5,-0.164,2.359,1.018,0.006,-0.043,-1.069,0.000,2.500,1.000,-1.000,0.217,0.069,1
13.250,4,5,-0.126,2.340,1.012,0.003,-0.044,-1.060,0.000,2.500,1.000,-1.000,0.204,0.060,1
13.300,4,5,-0.097,2.332,1.003,0.010,-0.019,-1.051,0.000,2.500,1.000,-1.000,0.194,0.051,1
13.350,4,5,-0.074,2.330,1.000,0.007,-0.021,-1.043,0.000,2.500,1.000,-1.000,0.186,0.043,1
13.400,4,5,-0.059,2.333,0.995,0.008,-0.018,-1.039,0.000,2.500,1.000,-1.000,0.177,0.039,1
13.450,4,5,-0.049,2.340,0.997,0.000,-0.014,-1.034,0.000,2.500,1.000,-1.000,0.168,0.034,1
13.500,4,5,-0.042,2.348,0.991,0.009,-0.001,-1.031,0.000,2.500,1.000,-1.000,0.158,0.031,1
13.550,4,5,-0.038,2.355,0.989,0.009,0.005,-1.029,0.000,2.500,1.000,-1.000,0.151,0.029,1
13.600,4,5,-0.036,2.359,0.990,0.004,0.008,-1.027,0.000,2.500,1.000,-1.000,0.146,0.027,1
13.650,4,5,-0.035,2.362,0.996,0.009,0.004,-1.027,0.000,2.500,1.000,-1.000,0.143,0.027,1
13.700,4,5,-0.037,2.365,0.990,-0.001,-0.004,-1.030,0.000,2.500,1.000,-1.000,0.141,0.030,1
13.750,4,5,-0.040,2.368,0.990,0.002,-0.004,-1.030,0.000,2.500,1.000,-1.000,0.138,0.030,1
13.800,4,5,-0.043,2.371,0.987,0.005,0.008,-1.030,0.000,2.500,1.000,-1.000,0.137,0.030,1
13.850,4,5,-0.045,2.371,0.989,0.000,0.003,-1.029,0.000,2.500,1.000,-1.000,0.137,0.029,1
13.900,4,5,-0.047,2.370,0.997,-0.012,-0.007,-1.029,0.000,2.500,1.000,-1.000,0.138,0.029,1
13.950,4,5,-0.048,2.371,0.994,0.002,0.001,-1.029,0.000,2.500,1.000,-1.000,0.138,0.029,1
14.000,4,5,-0.049,2.369,0.991,-0.002,-0.002,-1.029,0.000,2.500,1.000,-1.000,0.140,0.029,1
14.050,4,5,-0.050,2.366,0.993,-0.002,0.002,-1.030,0.000,2.500,1.000,-1.000,0.143,0.030,1
14.100,4,5,-0.051,2.364,0.987,-0.004,-0.008,-1.032,0.000,2.500,1.000,-1.000,0.145,0.032,1
14.150,4,5,-0.052,2.365,0.991,-0.001,0.001,-1.031,0.000,2.500,1.000,-1.000,0.145,0.031,1
14.200,4,5,-0.052,2.366,0.992,-0.002,0.003,-1.031,0.000,2.500,1.000,-1.000,0.144,0.031,1
14.250,4,5,-0.052,2.368,0.989,0.001,0.007,-1.033,0.000,2.500,1.000,-1.000,0.142,0.033,1
14.300,4,5,-0.051,2.369,0.987,0.003,0.010,-1.030,0.000,2.500,1.000,-1.000,0.141,0.030,1
14.350,4,5,-0.049,2.368,0.993,0.001,-0.006,-1.029,0.000,2.500,1.000,-1.000,0.141,0.029,1
14.400,4,5,-0.048,2.367,0.989,0.002,-0.000,-1.032,0.000,2.500,1.000,-1.000,0.142,0.032,1
14.450,4,5,-0.048,2.366,0.988,0.001,-0.002,-1.031,0.000,2.500,1.000,-1.000,0.143,0.031,1
14.500,4,5,-0.049,2.365,0.992,0.004,0.002,-1.031,0.000,2.500,1.000,-1.000,0.144,0.031,1
14.550,4,5,-0.050,2.365,0.995,-0.008,0.005,-1.031,0.000,2.500,1.000,-1.000,0.144,0.031,1
14.600,4,5,-0.049,2.366,0.991,0.002,0.003,-1.032,0.000,2.500,1.000,-1.000,0.143,0.032,1
14.650,4,5,-0.048,2.367,0.987,0.001,0.004,-1.030,0.000,2.500,1.000,-1.000,0.142,0.030,1
14.700,4,5,-0.047,2.367,0.984,0.006,-0.001,-1.031,0.000,2.500,1.000,-1.000,0.142,0.031,1
14.750,4,5,-0.047,2.367,0.984,-0.000,0.002,-1.030,0.000,2.500,1.000,-1.000,0.142,0.030,1
14.800,4,5,-0.047,2.366,0.983,0.005,-0.001,-1.030,0.000,2.500,1.000,-1.000,0.143,0.030,1
14.850,4,5,-0.047,2.365,0.988,0.003,-0.001,-1.030,0.000,2.500,1.000,-1.000,0.143,0.030,1
14.900,4,5,-0.047,2.364,0.986,0.002,-0.007,-1.030,0.000,2.500,1.000,-1.000,0.144,0.030,1
14.950,4,5,-0.048,2.365,0.987,-0.000,0.005,-1.032,0.000,2.500,1.000,-1.000,0.144,0.032,1
15.000,4,5,-0.048,2.364,0.986,0.002,0.005,-1.030,0.000,2.500,1.000,-1.000,0.145,0.030,1
15.050,4,5,-0.048,2.363,0.987,-0.001,-0.005,-1.030,0.000,2.500,1.000,-1.000,0.146,0.030,1
15.100,5,6,-0.046,2.359,0.983,-0.213,0.999,-1.138,1.500,-2.500,2.200,-0.500,5.243,0.638,0
15.150,5,6,0.102,2.071,0.770,0.160,0.882,-1.578,1.500,-2.500,2.200,-0.500,4.989,1.078,0
15.200,5,6,0.400,1.318,0.418,0.872,-0.061,-0.122,1.500,-2.500,2.200,-0.500,4.354,0.378,0
15.250,5,6,-0.000,-0.000,1.001,0.087,-0.088,0.006,1.500,-2.500,2.200,-0.500,3.152,0.506,0
15.300,5,6,0.106,-0.083,1.052,0.125,0.137,0.778,1.500,-2.500,2.200,-0.500,3.017,1.278,0
15.350,5,6,0.508,-0.341,1.089,0.309,0.285,0.455,1.500,-2.500,2.200,-0.500,2.623,0.955,0
15.400,5,6,1.060,-0.853,1.206,0.791,-0.550,0.078,1.500,-2.500,2.200,-0.500,1.973,0.578,0
15.450,5,6,1.423,-1.666,1.455,0.325,-0.552,-0.118,1.500,-2.500,2.200,-0.500,1.121,0.382,0
15.500,5,6,1.633,-2.517,1.687,0.084,-0.455,-0.341,1.500,-2.500,2.200,-0.500,0.530,0.159,0
15.550,5,6,1.682,-3.293,1.808,-0.311,-0.632,-0.434,1.500,-2.500,2.200,-0.500,0.903,0.066,0
15.600,5,6,1.544,-3.766,2.003,-0.627,-0.278,-0.602,1.500,-2.500,2.200,-0.500,1.282,0.102,0
15.650,5,6,1.448,-3.920,2.220,-0.729,-0.166,-0.523,1.500,-2.500,2.200,-0.500,1.421,0.023,0
15.700,5,6,1.438,-3.819,2.365,-0.458,-0.191,-0.505,1.500,-2.500,2.200,-0.500,1.331,0.005,0
15.750,5,6,1.444,-3.568,2.408,-0.055,-0.170,-0.509,1.500,-2.500,2.200,-0.500,1.090,0.009,0
15.800,5,6,1.424,-3.230,2.367,0.089,-0.002,-0.568,1.500,-2.500,2.200,-0.500,0.753,0.068,0
15.850,5,6,1.380,-2.864,2.254,-0.027,-0.047,-0.549,1.500,-2.500,2.200,-0.500,0.387,0.049,0
15.900,5,6,1.314,-2.534,2.194,0.150,0.105,-0.495,1.500,-2.500,2.200,-0.500,0.189,0.005,1
15.950,5,6,1.264,-2.290,2.189,0.141,0.168,-0.510,1.500,-2.500,2.200,-0.500,0.315,0.010,0
16.000,5,6,1.247,-2.138,2.214,0.137,0.173,-0.533,1.500,-2.500,2.200,-0.500,0.442,0.033,0
16.050,5,6,1.260,-2.065,2.246,0.211,0.169,-0.534,1.500,-2.500,2.200,-0.500,0.499,0.034,0
16.100,5,6,1.290,-2.071,2.264,0.190,0.112,-0.533,1.500,-2.500,2.200,-0.500,0.482,0.033,0
16.150,5,6,1.323,-2.132,2.261,0.241,0.037,-0.502,1.500,-2.500,2.200,-0.500,0.413,0.002,0
16.200,5,6,1.344,-2.232,2.238,0.003,0.025,-0.473,1.500,-2.500,2.200,-0.500,0.312,0.027,0
16.250,5,6,1.355,-2.334,2.207,-0.151,-0.052,-0.461,1.500,-2.500,2.200,-0.500,0.221,0.039,1
16.300,5,6,1.358,-2.415,2.189,-0.220,-0.064,-0.468,1.500,-2.500,2.200,-0.500,0.166,0.032,1
16.350,5,6,1.355,-2.459,2.175,-0.184,-0.040,-0.477,1.500,-2.500,2.200,-0.500,0.152,0.023,1
16.400,5,6,1.357,-2.469,2.165,-0.136,-0.051,-0.486,1.500,-2.500,2.200,-0.500,0.151,0.014,1
16.450,5,6,1.360,-2.452,2.158,-0.069,-0.027,-0.497,1.500,-2.500,2.200,-0.500,0.154,0.003,1
16.500,5,6,1.365,-2.428,2.159,-0.096,-0.025,-0.505,1.500,-2.500,2.200,-0.500,0.159,0.005,1
16.550,5,6,1.369,-2.402,2.162,-0.066,-0.019,-0.508,1.500,-2.500,2.200,-0.500,0.168,0.008,1
16.600,5,6,1.371,-2.379,2.160,-0.066,-0.022,-0.505,1.500,-2.500,2.200,-0.500,0.181,0.005,1
16.650,5,6,1.372,-2.359,2.169,-0.103,-0.027,-0.501,1.500,-2.500,2.200,-0.500,0.193,0.001,1
16.700,5,6,1.369,-2.350,2.174,-0.087,-0.002,-0.495,1.500,-2.500,2.200,-0.500,0.201,0.005,1
16.750,5,6,1.367,-2.347,2.175,-0.077,0.009,-0.496,1.500,-2.500,2.200,-0.500,0.204,0.004,1
16.800,5,6,1.366,-2.350,2.177,-0.082,0.009,-0.495,1.500,-2.500,2.200,-0.500,0.202,0.005,1
16.850,5,6,1.364,-2.357,2.178,-0.052,0.033,-0.485,1.500,-2.500,2.200,-0.500,0.199,0.015,1
16.900,5,6,1.363,-2.367,2.179,-0.081,0.008,-0.489,1.500,-2.500,2.200,-0.500,0.192,0.011,1
16.950,5,6,1.364,-2.376,2.181,-0.095,-0.017,-0.496,1.500,-2.500,2.200,-0.500,0.185,0.004,1
17.000,5,6,1.364,-2.382,2.177,-0.070,0.015,-0.489,1.500,-2.500,2.200,-0.500,0.182,0.011,1
17.050,5,6,1.364,-2.383,2.170,-0.093,-0.028,-0.487,1.500,-2.500,2.200,-0.500,0.182,0.013,1
17.100,5,6,1.361,-2.378,2.170,-0.082,-0.001,-0.486,1.500,-2.500,2.200,-0.500,0.187,0.014,1
17.150,5,6,1.360,-2.372,2.179,-0.049,0.017,-0.497,1.500,-2.500,2.200,-0.500,0.191,0.003,1
17.200,5,6,1.360,-2.368,2.177,0.032,0.042,-0.493,1.500,-2.500,2.200,-0.500,0.194,0.007,1
17.250,5,6,1.360,-2.368,2.186,-0.000,0.038,-0.497,1.500,-2.500,2.200,-0.500,0.193,0.003,1
17.300,5,6,1.360,-2.369,2.173,-0.042,0.021,-0.491,1.500,-2.500,2.200,-0.500,0.194,0.009,1
17.350,5,6,1.364,-2.367,2.177,0.008,0.037,-0.494,1.500,-2.500,2.200,-0.500,0.192,0.006,1
17.400,5,6,1.366,-2.372,2.181,-0.015,0.032,-0.493,1.500,-2.500,2.200,-0.500,0.186,0.007,1
17.450,5,6,1.367,-2.376,2.183,0.054,0.021,-0.491,1.500,-2.500,2.200,-0.500,0.182,0.009,1
17.500,5,6,1.368,-2.378,2.186,0.113,0.021,-0.492,1.500,-2.500,2.200,-0.500,0.181,0.008,1
17.550,5,6,1.366,-2.381,2.178,0.088,0.024,-0.497,1.500,-2.500,2.200,-0.500,0.181,0.003,1
17.600,5,6,1.363,-2.381,2.171,0.099,0.046,-0.489,1.500,-2.500,2.200,-0.500,0.184,0.011,1
17.650,5,6,1.359,-2.379,2.161,0.075,0.064,-0.487,1.500,-2.500,2.200,-0.500,0.190,0.013,1
17.700,5,6,1.362,-2.378,2.162,0.141,0.077,-0.482,1.500,-2.500,2.200,-0.500,0.188,0.018,1
17.750,5,6,1.364,-2.385,2.165,0.112,0.059,-0.491,1.500,-2.500,2.200,-0.500,0.181,0.009,1
17.800,5,6,1.367,-2.390,2.161,0.099,0.005,-0.487,1.500,-2.500,2.200,-0.500,0.177,0.013,1
17.850,5,6,1.370,-2.387,2.161,0.111,0.026,-0.489,1.500,-2.500,2.200,-0.500,0.177,0.011,1
17.900,5,6,1.372,-2.384,2.163,0.122,0.009,-0.493,1.500,-2.500,2.200,-0.500,0.177,0.007,1
17.950,5,6,1.373,-2.381,2.168,0.132,0.012,-0.490,1.500,-2.500,2.200,-0.500,0.177,0.010,1
18.000,5,6,1.371,-2.382,2.161,0.109,0.009,-0.483,1.500,-2.500,2.200,-0.500,0.179,0.017,1
18.050,5,6,1.369,-2.385,2.169,0.103,0.002,-0.484,1.500,-2.500,2.200,-0.500,0.177,0.016,1
18.100,5,6,1.367,-2.385,2.176,0.050,0.023,-0.497,1.500,-2.500,2.200,-0.500,0.178,0.003,1
18.150,5,6,1.367,-2.380,2.172,0.115,0.042,-0.492,1.500,-2.500,2.200,-0.500,0.182,0.008,1
18.200,5,6,1.366,-2.372,2.183,0.055,0.011,-0.494,1.500,-2.500,2.200,-0.500,0.186,0.006,1
18.250,6,7,1.334,-2.307,2.116,-1.647,-0.664,0.333,-1.500,2.000,1.400,0.800,5.205,0.467,0
18.300,6,7,1.111,-1.796,1.845,-0.455,0.425,0.116,-1.500,2.000,1.400,0.800,4.629,0.684,0
18.350,6,7,0.939,-0.965,1.578,-0.521,0.953,0.578,-1.500,2.000,1.400,0.800,3.843,0.222,0
18.400,6,7,0.966,0.182,1.188,0.219,0.610,0.264,-1.500,2.000,1.400,0.800,3.071,0.536,0
18.450,6,7,1.110,1.366,0.699,0.394,-0.044,0.818,-1.500,2.000,1.400,0.800,2.775,0.018,0
18.500,6,7,1.366,2.531,0.461,-0.436,0.758,1.106,-1.500,2.000,1.400,0.800,3.062,0.306,0
18.550,6,7,1.643,3.944,0.326,-0.592,0.461,1.269,-1.500,2.000,1.400,0.800,3.848,0.469,0
18.600,6,7,-0.002,-0.002,1.000,0.065,-0.166,-0.015,-1.500,2.000,1.400,0.800,2.532,0.815,0
18.650,6,7,-0.114,0.124,1.051,-0.341,-0.099,0.209,-1.500,2.000,1.400,0.800,2.359,0.591,0
18.700,6,7,-0.360,0.512,1.212,-0.351,0.157,0.500,-1.500,2.000,1.400,0.800,1.884,0.300,0
18.750,6,7,-0.626,0.996,1.228,-0.229,0.313,0.675,-1.500,2.000,1.400,0.800,1.342,0.125,0
18.800,6,7,-0.837,1.594,1.224,0.073,0.509,0.822,-1.500,2.000,1.400,0.800,0.797,0.022,0
18.850,6,7,-0.953,2.266,1.159,0.125,0.268,0.929,-1.500,2.000,1.400,0.800,0.654,0.129,0
18.900,6,7,-0.926,2.986,1.148,0.313,0.083,0.990,-1.500,2.000,1.400,0.800,1.169,0.190,0
18.950,6,7,-0.758,3.601,1.281,0.239,-0.445,0.955,-1.500,2.000,1.400,0.800,1.769,0.155,0
19.000,6,7,-0.606,3.880,1.612,0.214,-0.713,0.929,-1.500,2.000,1.400,0.800,2.092,0.129,0
19.050,6,7,-0.544,3.828,1.943,-0.065,-0.686,0.994,-1.500,2.000,1.400,0.800,2.134,0.194,0
19.100,6,7,-0.615,3.607,2.145,-0.208,-0.668,1.001,-1.500,2.000,1.400,0.800,1.980,0.201,0
19.150,6,7,-0.848,3.258,2.210,-0.285,-0.572,0.925,-1.500,2.000,1.400,0.800,1.632,0.125,0
19.200,6,7,-1.221,2.853,2.087,-0.441,-0.510,0.914,-1.500,2.000,1.400,0.800,1.131,0.114,0
19.250,6,7,-1.804,2.437,1.887,-0.435,-0.111,0.775,-1.500,2.000,1.400,0.800,0.722,0.025,0
19.300,6,7,-2.481,2.076,1.692,-0.008,0.301,0.891,-1.500,2.000,1.400,0.800,1.027,0.091,0
19.350,6,7,-3.017,1.927,1.781,0.281,0.797,0.940,-1.500,2.000,1.400,0.800,1.566,0.140,0
19.400,6,7,-3.037,2.085,2.004,0.927,0.987,0.985,-1.500,2.000,1.400,0.800,1.653,0.185,0
19.450,6,7,-2.483,2.275,2.099,0.558,0.072,0.359,-1.500,2.000,1.400,0.800,1.237,0.441,0
19.500,6,7,-1.859,2.344,1.995,0.537,-0.601,0.249,-1.500,2.000,1.400,0.800,0.775,0.551,0
19.550,6,7,-1.444,2.119,1.878,-0.086,-0.600,0.545,-1.500,2.000,1.400,0.800,0.496,0.255,0
19.600,6,7,-1.297,1.760,1.769,-0.373,-0.286,0.590,-1.500,2.000,1.400,0.800,0.484,0.210,0
19.650,6,7,-1.337,1.487,1.686,-0.468,0.131,0.488,-1.500,2.000,1.400,0.800,0.609,0.312,0
19.700,6,7,-1.441,1.418,1.651,-0.233,0.307,0.558,-1.500,2.000,1.400,0.800,0.637,0.242,0
19.750,6,7,-1.499,1.491,1.600,-0.042,0.263,0.655,-1.500,2.000,1.400,0.800,0.547,0.145,0
19.800,6,7,-1.487,1.633,1.536,0.009,0.120,0.705,-1.500,2.000,1.400,0.800,0.391,0.095,0
19.850,6,7,-1.427,1.799,1.479,0.060,0.015,0.735,-1.500,2.000,1.400,0.800,0.228,0.065,1
19.900,6,7,-1.345,1.950,1.433,0.022,-0.106,0.760,-1.500,2.000,1.400,0.800,0.166,0.040,1
19.950,6,7,-1.286,2.063,1.422,0.031,-0.141,0.787,-1.500,2.000,1.400,0.800,0.224,0.013,1
20.000,6,7,-1.259,2.130,1.424,0.031,-0.139,0.797,-1.500,2.000,1.400,0.800,0.275,0.003,1
20.050,6,7,-1.263,2.150,1.427,0.026,-0.113,0.790,-1.500,2.000,1.400,0.800,0.282,0.010,1
20.100,6,7,-1.289,2.134,1.427,0.017,-0.073,0.779,-1.500,2.000,1.400,0.800,0.251,0.021,1
20.150,6,7,-1.333,2.094,1.422,-0.004,-0.035,0.768,-1.500,2.000,1.400,0.800,0.193,0.032,1
20.200,6,7,-1.386,2.046,1.416,-0.008,0.015,0.758,-1.500,2.000,1.400,0.800,0.124,0.042,1
20.250,6,7,-1.436,2.002,1.410,-0.000,0.042,0.753,-1.500,2.000,1.400,0.800,0.065,0.047,1
20.300,6,7,-1.473,1.968,1.407,0.055,0.082,0.755,-1.500,2.000,1.400,0.800,0.042,0.045,1
20.350,6,7,-1.485,1.941,1.397,-0.004,0.038,0.756,-1.500,2.000,1.400,0.800,0.061,0.044,1
20.400,6,7,-1.484,1.924,1.398,0.039,0.067,0.757,-1.500,2.000,1.400,0.800,0.078,0.043,1
20.450,6,7,-1.462,1.912,1.397,-0.026,0.024,0.751,-1.500,2.000,1.400,0.800,0.096,0.049,1
20.500,6,7,-1.438,1.910,1.401,-0.026,0.011,0.752,-1.500,2.000,1.400,0.800,0.109,0.048,1
20.550,6,7,-1.411,1.912,1.393,0.026,-0.011,0.753,-1.500,2.000,1.400,0.800,0.125,0.047,1
20.600,6,7,-1.383,1.913,1.381,-0.040,-0.004,0.748,-1.500,2.000,1.400,0.800,0.147,0.052,1
20.650,6,7,-1.368,1.928,1.394,-0.002,-0.014,0.771,-1.500,2.000,1.400,0.800,0.151,0.029,1
20.700,6,7,-1.360,1.947,1.398,-0.000,-0.004,0.764,-1.500,2.000,1.400,0.800,0.150,0.036,1
20.750,6,7,-1.349,1.956,1.387,0.036,-0.032,0.761,-1.500,2.000,1.400,0.800,0.158,0.039,1
20.800,6,7,-1.339,1.957,1.394,-0.009,-0.025,0.751,-1.500,2.000,1.400,0.800,0.166,0.049,1
20.850,6,7,-1.341,1.957,1.390,-0.009,-0.040,0.752,-1.500,2.000,1.400,0.800,0.165,0.048,1
20.900,6,7,-1.351,1.954,1.388,-0.007,0.014,0.746,-1.500,2.000,1.400,0.800,0.157,0.054,1
20.950,6,7,-1.361,1.954,1.385,-0.008,0.007,0.746,-1.500,2.000,1.400,0.800,0.147,0.054,1
21.000,6,7,-1.371,1.954,1.389,0.008,0.012,0.751,-1.500,2.000,1.400,0.800,0.138,0.049,1
21.050,6,7,-1.377,1.952,1.388,-0.054,-0.025,0.762,-1.500,2.000,1.400,0.800,0.132,0.038,1
21.100,6,7,-1.391,1.955,1.384,0.007,0.013,0.747,-1.500,2.000,1.400,0.800,0.118,0.053,1
21.150,6,7,-1.398,1.959,1.388,0.026,-0.002,0.749,-1.500,2.000,1.400,0.800,0.110,0.051,1
21.200,6,7,-1.399,1.959,1.386,0.014,-0.001,0.759,-1.500,2.000,1.400,0.800,0.110,0.041,1
21.250,6,7,-1.395,1.951,1.382,-0.004,0.004,0.743,-1.500,2.000,1.400,0.800,0.117,0.057,1
21.300,6,7,-1.393,1.945,1.391,0.008,-0.005,0.758,-1.500,2.000,1.400,0.800,0.121,0.042,1
21.350,6,7,-1.392,1.939,1.392,-0.009,0.014,0.757,-1.500,2.000,1.400,0.800,0.124,0.043,1
21.400,6,7,-1.389,1.935,1.390,-0.004,0.016,0.758,-1.500,2.000,1.400,0.800,0.130,0.042,1
21.450,6,7,-1.383,1.932,1.391,-0.006,0.018,0.757,-1.500,2.000,1.400,0.800,0.136,0.043,1
21.500,6,7,-1.376,1.930,1.396,-0.021,0.008,0.751,-1.500,2.000,1.400,0.800,0.143,0.049,1
21.550,6,7,-1.375,1.935,1.396,-0.014,0.003,0.754,-1.500,2.000,1.400,0.800,0.141,0.046,1
21.600,6,7,-1.378,1.945,1.394,0.036,-0.014,0.757,-1.500,2.000,1.400,0.800,0.134,0.043,1
21.650,6,7,-1.378,1.952,1.390,-0.007,0.001,0.750,-1.500,2.000,1.400,0.800,0.131,0.050,1
21.700,6,7,-1.377,1.957,1.390,0.026,-0.030,0.746,-1.500,2.000,1.400,0.800,0.131,0.054,1
21.750,6,7,-1.376,1.953,1.387,-0.048,-0.021,0.750,-1.500,2.000,1.400,0.800,0.134,0.050,1
21.800,6,7,-1.383,1.951,1.391,-0.001,0.010,0.752,-1.500,2.000,1.400,0.800,0.127,0.048,1
21.850,7,8,-1.386,1.952,1.402,0.843,0.369,0.875,2.500,0.000,1.900,0.200,4.377,0.675,0
21.900,7,8,-1.057,1.967,1.336,0.801,-0.027,1.046,2.500,0.000,1.900,0.200,4.104,0.846,0
21.950,7,8,-0.310,1.880,1.085,0.286,0.353,1.136,2.500,0.000,1.900,0.200,3.478,0.936,0
22.000,7,8,0.704,1.656,0.801,1.227,-0.565,0.120,2.500,0.000,1.900,0.200,2.679,0.080,0
22.050,7,8,1.743,1.151,0.492,-0.169,0.089,0.882,2.500,0.000,1.900,0.200,1.970,0.682,0
22.100,7,8,2.714,0.666,0.331,0.182,-0.483,0.903,2.500,0.000,1.900,0.200,1.718,0.703,0
22.150,7,8,3.396,-0.040,0.369,-0.660,-0.841,0.520,2.500,0.000,1.900,0.200,1.774,0.320,0
22.200,7,8,3.578,-0.509,0.513,-0.350,-0.456,-0.005,2.500,0.000,1.900,0.200,1.829,0.205,0
22.250,7,8,3.513,-0.722,0.860,-0.346,-0.057,0.185,2.500,0.000,1.900,0.200,1.622,0.015,0
22.300,7,8,3.400,-0.825,1.213,-0.248,0.012,0.233,2.500,0.000,1.900,0.200,1.401,0.033,0
22.350,7,8,3.266,-0.825,1.455,-0.253,-0.008,0.215,2.500,0.000,1.900,0.200,1.211,0.015,0
22.400,7,8,3.110,-0.735,1.616,-0.222,-0.043,0.161,2.500,0.000,1.900,0.200,0.996,0.039,0
22.450,7,8,2.927,-0.588,1.687,-0.145,-0.023,0.133,2.500,0.000,1.900,0.200,0.757,0.067,0
22.500,7,8,2.730,-0.409,1.718,0.008,0.032,0.134,2.500,0.000,1.900,0.200,0.504,0.066,0
22.550,7,8,2.553,-0.237,1.728,0.081,0.107,0.139,2.500,0.000,1.900,0.200,0.297,0.061,1
22.600,7,8,2.427,-0.096,1.749,0.140,0.160,0.145,2.500,0.000,1.900,0.200,0.193,0.055,1
22.650,7,8,2.372,-0.003,1.790,0.120,0.146,0.133,2.500,0.000,1.900,0.200,0.169,0.067,1
22.700,7,8,2.377,0.048,1.823,0.133,0.111,0.129,2.500,0.000,1.900,0.200,0.153,0.071,1
22.750,7,8,2.425,0.062,1.846,0.075,0.040,0.134,2.500,0.000,1.900,0.200,0.111,0.066,1
22.800,7,8,2.492,0.050,1.855,0.005,-0.020,0.145,2.500,0.000,1.900,0.200,0.068,0.055,1
22.850,7,8,2.554,0.029,1.869,0.019,-0.043,0.151,2.500,0.000,1.900,0.200,0.068,0.049,1
22.900,7,8,2.602,0.004,1.878,0.010,-0.038,0.157,2.500,0.000,1.900,0.200,0.105,0.043,1
22.950,7,8,2.633,-0.020,1.880,-0.033,-0.048,0.157,2.500,0.000,1.900,0.200,0.136,0.043,1
23.000,7,8,2.646,-0.037,1.875,-0.039,-0.038,0.159,2.500,0.000,1.900,0.200,0.152,0.041,1
23.050,7,8,2.641,-0.045,1.876,0.001,-0.015,0.158,2.500,0.000,1.900,0.200,0.150,0.042,1
23.100,7,8,2.627,-0.051,1.872,-0.008,0.007,0.154,2.500,0.000,1.900,0.200,0.140,0.046,1
23.150,7,8,2.610,-0.054,1.878,0.020,0.008,0.152,2.500,0.000,1.900,0.200,0.125,0.048,1
23.200,7,8,2.593,-0.055,1.876,-0.021,0.000,0.148,2.500,0.000,1.900,0.200,0.111,0.052,1
23.250,7,8,2.577,-0.053,1.879,-0.020,0.003,0.147,2.500,0.000,1.900,0.200,0.096,0.053,1
23.300,7,8,2.567,-0.053,1.877,-0.032,0.008,0.145,2.500,0.000,1.900,0.200,0.088,0.055,1
23.350,7,8,2.561,-0.048,1.880,0.007,0.014,0.145,2.500,0.000,1.900,0.200,0.080,0.055,1
23.400,7,8,2.558,-0.046,1.876,0.021,0.023,0.144,2.500,0.000,1.900,0.200,0.078,0.056,1
23.450,7,8,2.564,-0.048,1.872,0.011,-0.006,0.146,2.500,0.000,1.900,0.200,0.084,0.054,1
23.500,7,8,2.572,-0.053,1.871,0.005,0.010,0.145,2.500,0.000,1.900,0.200,0.094,0.055,1
23.550,7,8,2.582,-0.056,1.875,0.012,0.004,0.146,2.500,0.000,1.900,0.200,0.102,0.054,1
23.600,7,8,2.591,-0.059,1.879,0.000,0.001,0.145,2.500,0.000,1.900,0.200,0.110,0.055,1
23.650,7,8,2.599,-0.062,1.874,-0.011,-0.010,0.146,2.500,0.000,1.900,0.200,0.119,0.054,1
23.700,7,8,2.603,-0.065,1.873,-0.002,-0.004,0.148,2.500,0.000,1.900,0.200,0.125,0.052,1
23.750,7,8,2.605,-0.067,1.876,-0.005,-0.008,0.146,2.500,0.000,1.900,0.200,0.127,0.054,1
23.800,7,8,2.602,-0.065,1.878,0.005,-0.008,0.145,2.500,0.000,1.900,0.200,0.123,0.055,1
23.850,7,8,2.596,-0.062,1.873,-0.039,-0.007,0.144,2.500,0.000,1.900,0.200,0.118,0.056,1
23.900,7,8,2.588,-0.055,1.877,0.014,0.011,0.148,2.500,0.000,1.900,0.200,0.106,0.052,1
23.950,7,8,2.580,-0.049,1.877,0.022,0.012,0.146,2.500,0.000,1.900,0.200,0.097,0.054,1
24.000,7,8,2.577,-0.047,1.875,0.021,0.008,0.147,2.500,0.000,1.900,0.200,0.094,0.053,1
24.050,7,8,2.578,-0.048,1.873,0.012,0.011,0.146,2.500,0.000,1.900,0.200,0.095,0.054,1
24.100,7,8,2.579,-0.050,1.878,0.005,-0.033,0.149,2.500,0.000,1.900,0.200,0.096,0.051,1
24.150,7,8,2.580,-0.051,1.881,-0.019,-0.009,0.146,2.500,0.000,1.900,0.200,0.097,0.054,1
24.200,7,8,2.581,-0.054,1.878,0.006,0.009,0.147,2.500,0.000,1.900,0.200,0.100,0.053,1
24.250,7,8,2.584,-0.056,1.869,-0.031,-0.010,0.148,2.500,0.000,1.900,0.200,0.106,0.052,1
24.300,7,8,2.583,-0.051,1.876,0.033,0.006,0.145,2.500,0.000,1.900,0.200,0.100,0.055,1
24.350,7,8,2.583,-0.051,1.867,-0.002,-0.002,0.147,2.500,0.000,1.900,0.200,0.103,0.053,1
24.400,7,8,2.582,-0.053,1.867,-0.004,0.001,0.149,2.500,0.000,1.900,0.200,0.103,0.051,1
24.450,7,8,2.583,-0.057,1.871,-0.012,-0.004,0.147,2.500,0.000,1.900,0.200,0.105,0.053,1
24.500,7,8,2.584,-0.060,1.872,-0.017,-0.010,0.147,2.500,0.000,1.900,0.200,0.107,0.053,1
24.550,8,9,2.584,-0.060,1.871,-0.010,0.015,0.144,-2.500,0.000,2.100,-0.800,5.090,0.944,0
24.600,8,9,2.468,-0.004,1.917,-0.146,-0.539,0.047,-2.500,0.000,2.100,-0.800,4.972,0.847,0
24.650,8,9,1.919,0.102,2.088,-0.366,-0.970,-0.060,-2.500,0.000,2.100,-0.800,4.420,0.740,0
24.700,8,9,0.908,0.318,2.303,0.263,-0.846,-0.018,-2.500,0.000,2.100,-0.800,3.429,0.782,0
24.750,8,9,-0.496,0.523,2.509,0.074,-0.478,-0.207,-2.500,0.000,2.100,-0.800,2.111,0.593,0
24.800,8,9,-1.996,0.552,2.600,-0.173,0.514,0.428,-2.500,0.000,2.100,-0.800,0.899,1.228,0
24.850,8,9,-3.348,0.546,2.345,-1.127,0.319,-0.801,-2.500,0.000,2.100,-0.800,1.038,0.001,0
24.900,8,9,-4.156,0.755,1.918,-0.770,1.322,-1.231,-2.500,0.000,2.100,-0.800,1.829,0.431,0
24.950,8,9,-4.260,0.696,1.373,0.572,1.180,0.268,-2.500,0.000,2.100,-0.800,2.028,1.068,0
25.000,8,9,-3.727,0.459,0.730,-0.118,0.841,-0.286,-2.500,0.000,2.100,-0.800,1.896,0.514,0
25.050,8,9,-2.733,0.180,0.281,-0.002,-0.011,-0.533,-2.500,0.000,2.100,-0.800,1.843,0.267,0
25.100,8,9,0.003,0.012,1.003,-0.276,-0.361,0.175,-2.500,0.000,2.100,-0.800,2.733,0.975,0
25.150,8,9,-0.130,0.046,1.160,-0.138,-0.451,-0.085,-2.500,0.000,2.100,-0.800,2.551,0.715,0
25.200,8,9,-0.519,0.111,1.559,-0.165,-0.286,-0.377,-2.500,0.000,2.100,-0.800,2.056,0.423,0
25.250,8,9,-1.019,0.183,1.846,0.045,-0.214,-0.508,-2.500,0.000,2.100,-0.800,1.513,0.292,0
25.300,8,9,-1.601,0.255,1.995,0.146,-0.126,-0.559,-2.500,0.000,2.100,-0.800,0.940,0.241,0
25.350,8,9,-2.201,0.320,2.002,0.081,0.047,-0.651,-2.500,0.000,2.100,-0.800,0.448,0.149,0
25.400,8,9,-2.710,0.372,2.010,-0.185,0.394,-0.747,-2.500,0.000,2.100,-0.800,0.437,0.053,0
25.450,8,9,-2.965,0.395,2.074,-0.290,0.463,-0.827,-2.500,0.000,2.100,-0.800,0.611,0.027,0
25.500,8,9,-2.987,0.377,2.141,-0.140,0.360,-0.815,-2.500,0.000,2.100,-0.800,0.617,0.015,0
25.550,8,9,-2.893,0.311,2.156,0.044,0.114,-0.821,-2.500,0.000,2.100,-0.800,0.504,0.021,0
25.600,8,9,-2.781,0.206,2.123,0.056,-0.001,-0.840,-2.500,0.000,2.100,-0.800,0.350,0.040,0
25.650,8,9,-2.685,0.089,2.096,0.007,-0.060,-0.846,-2.500,0.000,2.100,-0.800,0.205,0.046,1
25.700,8,9,-2.605,-0.017,2.072,-0.036,-0.083,-0.848,-2.500,0.000,2.100,-0.800,0.110,0.048,1
25.750,8,9,-2.537,-0.095,2.064,-0.037,-0.090,-0.842,-2.500,0.000,2.100,-0.800,0.108,0.042,1
25.800,8,9,-2.473,-0.143,2.053,-0.055,-0.072,-0.838,-2.500,0.000,2.100,-0.800,0.153,0.038,1
25.850,8,9,-2.414,-0.158,2.055,-0.035,-0.055,-0.826,-2.500,0.000,2.100,-0.800,0.185,0.026,1
25.900,8,9,-2.359,-0.148,2.058,-0.022,-0.045,-0.816,-2.500,0.000,2.100,-0.800,0.208,0.016,1
25.950,8,9,-2.310,-0.120,2.060,-0.010,-0.039,-0.802,-2.500,0.000,2.100,-0.800,0.228,0.002,1
26.000,8,9,-2.270,-0.081,2.060,0.032,-0.007,-0.793,-2.500,0.000,2.100,-0.800,0.247,0.007,1
26.050,8,9,-2.241,-0.040,2.065,0.007,-0.017,-0.788,-2.500,0.000,2.100,-0.800,0.264,0.012,1
26.100,8,9,-2.222,0.007,2.066,-0.042,-0.042,-0.775,-2.500,0.000,2.100,-0.800,0.281,0.025,1
26.150,8,9,-2.208,0.061,2.062,0.070,0.046,-0.766,-2.500,0.000,2.100,-0.800,0.301,0.034,0
26.200,8,9,-2.201,0.089,2.070,0.025,-0.008,-0.767,-2.500,0.000,2.100,-0.800,0.313,0.033,0
26.250,8,9,-2.200,0.109,2.072,-0.009,-0.028,-0.760,-2.500,0.000,2.100,-0.800,0.320,0.040,0
26.300,8,9,-2.205,0.132,2.074,0.051,0.059,-0.758,-2.500,0.000,2.100,-0.800,0.324,0.042,0
26.350,8,9,-2.212,0.139,2.076,-0.011,-0.025,-0.756,-2.500,0.000,2.100,-0.800,0.320,0.044,0
26.400,8,9,-2.223,0.145,2.086,0.024,0.026,-0.759,-2.500,0.000,2.100,-0.800,0.312,0.041,0
26.450,8,9,-2.235,0.143,2.082,0.021,0.022,-0.764,-2.500,0.000,2.100,-0.800,0.302,0.036,0
26.500,8,9,-2.247,0.133,2.081,-0.012,-0.005,-0.767,-2.500,0.000,2.100,-0.800,0.286,0.033,1
26.550,8,9,-2.259,0.125,2.081,-0.002,0.016,-0.770,-2.500,0.000,2.100,-0.800,0.272,0.030,1
26.600,8,9,-2.268,0.116,2.078,-0.009,0.011,-0.770,-2.500,0.000,2.100,-0.800,0.260,0.030,1
26.650,8,9,-2.273,0.104,2.077,-0.009,0.015,-0.774,-2.500,0.000,2.100,-0.800,0.250,0.026,1
26.700,8,9,-2.275,0.090,2.076,-0.002,0.008,-0.775,-2.500,0.000,2.100,-0.800,0.243,0.025,1
26.750,8,9,-2.276,0.077,2.079,-0.007,-0.006,-0.777,-2.500,0.000,2.100,-0.800,0.238,0.023,1
26.800,8,9,-2.276,0.067,2.075,-0.008,0.002,-0.779,-2.500,0.000,2.100,-0.800,0.235,0.021,1
26.850,8,9,-2.275,0.061,2.073,-0.015,-0.008,-0.780,-2.500,0.000,2.100,-0.800,0.234,0.020,1
26.900,8,9,-2.274,0.059,2.073,-0.006,0.006,-0.780,-2.500,0.000,2.100,-0.800,0.235,0.020,1
26.950,8,9,-2.271,0.060,2.069,-0.021,-0.010,-0.777,-2.500,0.000,2.100,-0.800,0.239,0.023,1
27.000,8,9,-2.266,0.065,2.071,0.010,0.008,-0.776,-2.500,0.000,2.100,-0.800,0.245,0.024,1
27.050,8,9,-2.260,0.067,2.074,0.004,-0.010,-0.776,-2.500,0.000,2.100,-0.800,0.251,0.024,1
27.100,8,9,-2.256,0.067,2.077,0.018,-0.018,-0.776,-2.500,0.000,2.100,-0.800,0.254,0.024,1
27.150,8,9,-2.256,0.069,2.080,0.002,0.001,-0.778,-2.500,0.000,2.100,-0.800,0.254,0.022,1
27.200,8,9,-2.257,0.075,2.079,-0.004,0.005,-0.777,-2.500,0.000,2.100,-0.800,0.255,0.023,1
27.250,8,9,-2.257,0.083,2.084,0.014,0.014,-0.775,-2.500,0.000,2.100,-0.800,0.257,0.025,1
27.300,8,9,-2.258,0.089,2.082,0.005,0.012,-0.776,-2.500,0.000,2.100,-0.800,0.258,0.024,1
27.350,8,9,-2.258,0.093,2.085,-0.004,-0.004,-0.772,-2.500,0.000,2.100,-0.800,0.260,0.028,1
27.400,8,9,-2.256,0.092,2.081,0.022,0.014,-0.773,-2.500,0.000,2.100,-0.800,0.261,0.027,1
27.450,8,9,-2.257,0.086,2.081,-0.009,-0.015,-0.774,-2.500,0.000,2.100,-0.800,0.259,0.026,1
27.500,8,9,-2.258,0.084,2.078,-0.009,-0.006,-0.774,-2.500,0.000,2.100,-0.800,0.257,0.026,1
27.550,8,9,-2.259,0.085,2.082,0.010,0.011,-0.774,-2.500,0.000,2.100,-0.800,0.256,0.026,1
27.600,8,9,-2.261,0.085,2.081,-0.018,-0.011,-0.774,-2.500,0.000,2.100,-0.800,0.254,0.026,1
27.650,8,9,-2.262,0.090,2.081,-0.003,0.006,-0.775,-2.500,0.000,2.100,-0.800,0.255,0.025,1
27.700,8,9,-2.263,0.093,2.080,-0.009,-0.000,-0.773,-2.500,0.000,2.100,-0.800,0.256,0.027,1
27.750,8,9,-2.263,0.098,2.081,-0.009,-0.000,-0.773,-2.500,0.000,2.100,-0.800,0.257,0.027,1
27.800,8,9,-2.263,0.103,2.083,-0.002,0.001,-0.771,-2.500,0.000,2.100,-0.800,0.258,0.029,1
27.850,8,9,-2.263,0.106,2.089,0.000,0.006,-0.770,-2.500,0.000,2.100,-0.800,0.260,0.030,1
27.900,8,9,-2.263,0.105,2.085,0.027,0.023,-0.772,-2.500,0.000,2.100,-0.800,0.260,0.028,1
27.950,8,9,-2.264,0.098,2.080,0.000,0.003,-0.775,-2.500,0.000,2.100,-0.800,0.256,0.025,1
28.000,8,9,-2.266,0.093,2.076,-0.004,0.004,-0.774,-2.500,0.000,2.100,-0.800,0.253,0.026,1
28.050,8,9,-2.267,0.090,2.078,-0.016,-0.011,-0.774,-2.500,0.000,2.100,-0.800,0.251,0.026,1
28.100,8,9,-2.266,0.091,2.084,0.012,0.016,-0.774,-2.500,0.000,2.100,-0.800,0.252,0.026,1
28.150,8,9,-2.265,0.089,2.082,-0.002,-0.002,-0.774,-2.500,0.000,2.100,-0.800,0.252,0.026,1
28.200,8,9,-2.264,0.088,2.080,-0.008,-0.005,-0.772,-2.500,0.000,2.100,-0.800,0.253,0.028,1
28.250,8,9,-2.263,0.089,2.086,-0.002,-0.003,-0.771,-2.500,0.000,2.100,-0.800,0.253,0.029,1
28.300,8,9,-2.263,0.087,2.083,0.016,0.014,-0.774,-2.500,0.000,2.100,-0.800,0.253,0.026,1
28.350,8,9,-2.264,0.083,2.080,-0.004,0.002,-0.777,-2.500,0.000,2.100,-0.800,0.251,0.023,1
28.400,8,9,-2.265,0.084,2.070,-0.001,0.012,-0.774,-2.500,0.000,2.100,-0.800,0.252,0.026,1
28.450,8,9,-2.263,0.083,2.069,-0.021,-0.012,-0.773,-2.500,0.000,2.100,-0.800,0.253,0.027,1
28.500,9,10,-2.190,0.045,2.015,-1.708,1.011,-2.784,0.000,-2.500,1.300,-1.200,3.433,1.584,0
28.550,9,10,-1.931,-0.378,1.745,-1.166,0.708,-1.782,0.000,-2.500,1.300,-1.200,2.904,0.582,0
28.600,9,10,-1.341,-1.140,1.484,-0.711,0.631,-1.557,0.000,-2.500,1.300,-1.200,1.919,0.357,0
28.650,9,10,-0.423,-2.107,1.328,-0.732,-0.500,-0.747,0.000,-2.500,1.300,-1.200,0.578,0.453,0
28.700,9,10,0.549,-2.726,1.142,-0.494,-0.667,-0.607,0.000,-2.500,1.300,-1.200,0.615,0.593,0
28.750,9,10,1.297,-2.814,1.078,0.739,-0.514,-0.798,0.000,-2.500,1.300,-1.200,1.353,0.402,0
28.800,9,10,1.545,-2.890,1.160,0.338,-0.524,-1.009,0.000,-2.500,1.300,-1.200,1.600,0.191,0
28.850,9,10,1.415,-2.864,1.424,0.386,-0.368,-0.939,0.000,-2.500,1.300,-1.200,1.466,0.261,0
28.900,9,10,1.148,-2.783,1.559,0.244,-0.395,-0.951,0.000,-2.500,1.300,-1.200,1.210,0.249,0
28.950,9,10,0.761,-2.645,1.583,0.189,-0.268,-0.927,0.000,-2.500,1.300,-1.200,0.825,0.273,0
29.000,9,10,0.296,-2.474,1.509,0.075,-0.043,-0.949,0.000,-2.500,1.300,-1.200,0.363,0.251,0
29.050,9,10,-0.176,-2.315,1.425,-0.184,0.237,-1.048,0.000,-2.500,1.300,-1.200,0.284,0.152,0
29.100,9,10,-0.486,-2.214,1.400,-0.488,0.367,-1.187,0.000,-2.500,1.300,-1.200,0.573,0.013,0
29.150,9,10,-0.532,-2.179,1.439,-0.233,0.251,-1.216,0.000,-2.500,1.300,-1.200,0.637,0.016,0
29.200,9,10,-0.457,-2.195,1.432,-0.078,0.123,-1.257,0.000,-2.500,1.300,-1.200,0.565,0.057,0
29.250,9,10,-0.341,-2.246,1.401,0.021,0.025,-1.268,0.000,-2.500,1.300,-1.200,0.437,0.068,0
29.300,9,10,-0.230,-2.310,1.365,0.035,-0.026,-1.258,0.000,-2.500,1.300,-1.200,0.305,0.058,0
29.350,9,10,-0.136,-2.368,1.340,0.060,-0.041,-1.240,0.000,-2.500,1.300,-1.200,0.194,0.040,1
29.400,9,10,-0.065,-2.415,1.315,0.052,-0.047,-1.221,0.000,-2.500,1.300,-1.200,0.108,0.021,1
29.450,9,10,-0.013,-2.443,1.312,0.030,-0.053,-1.211,0.000,-2.500,1.300,-1.200,0.060,0.011,1
29.500,9,10,0.026,-2.448,1.308,0.015,-0.056,-1.202,0.000,-2.500,1.300,-1.200,0.058,0.002,1
29.550,9,10,0.055,-2.434,1.304,-0.008,-0.042,-1.195,0.000,-2.500,1.300,-1.200,0.086,0.005,1
29.600,9,10,0.076,-2.409,1.299,0.002,-0.031,-1.186,0.000,-2.500,1.300,-1.200,0.119,0.014,1
29.650,9,10,0.088,-2.383,1.296,-0.004,-0.010,-1.184,0.000,-2.500,1.300,-1.200,0.147,0.016,1
29.700,9,10,0.094,-2.358,1.300,0.009,0.009,-1.179,0.000,-2.500,1.300,-1.200,0.170,0.021,1
29.750,9,10,0.099,-2.338,1.300,0.013,0.021,-1.178,0.000,-2.500,1.300,-1.200,0.190,0.022,1
29.800,9,10,0.100,-2.325,1.300,0.010,0.019,-1.178,0.000,-2.500,1.300,-1.200,0.202,0.022,1
29.850,9,10,0.099,-2.319,1.300,0.003,0.019,-1.177,0.000,-2.500,1.300,-1.200,0.206,0.023,1
29.900,9,10,0.098,-2.319,1.300,0.017,0.027,-1.176,0.000,-2.500,1.300,-1.200,0.206,0.024,1
29.950,9,10,0.096,-2.325,1.305,-0.007,-0.011,-1.174,0.000,-2.500,1.300,-1.200,0.200,0.026,1
