time_seconds,targets_hit,total_targets,drone_x,drone_y,drone_z,drone_roll,drone_pitch,drone_yaw,target_x,target_y,target_z,target_yaw,distance_to_target,yaw_error,is_hitting
0.000,0,1,-0.000,-0.000,1.001,0.087,-0.088,0.006,1.000,1.000,1.500,0.000,1.500,0.006,0
0.050,0,1,0.022,0.037,1.085,-0.176,0.146,-0.121,1.000,1.000,1.500,0.000,1.434,0.121,0
0.100,0,1,0.125,0.192,1.302,-0.161,0.034,-0.161,1.000,1.000,1.500,0.000,1.207,0.161,0
0.150,0,1,0.249,0.391,1.436,-0.053,-0.006,-0.152,1.000,1.000,1.500,0.000,0.968,0.152,0
0.200,0,1,0.371,0.607,1.508,0.032,-0.108,-0.147,1.000,1.000,1.500,0.000,0.742,0.147,0
0.250,0,1,0.471,0.810,1.554,0.093,-0.009,-0.139,1.000,1.000,1.500,0.000,0.565,0.139,0
0.300,0,1,0.559,0.976,1.614,0.121,-0.006,-0.137,1.000,1.000,1.500,0.000,0.456,0.137,0
0.350,0,1,0.640,1.098,1.664,0.146,-0.011,-0.141,1.000,1.000,1.500,0.000,0.407,0.141,0
0.400,0,1,0.713,1.177,1.657,0.110,-0.005,-0.100,1.000,1.000,1.500,0.000,0.372,0.100,0
0.450,0,1,0.779,1.213,1.621,0.093,-0.008,-0.070,1.000,1.000,1.500,0.000,0.330,0.070,0
0.500,0,1,0.842,1.210,1.619,0.073,-0.033,-0.033,1.000,1.000,1.500,0.000,0.289,0.033,1
0.550,0,1,0.894,1.180,1.627,0.054,-0.047,-0.036,1.000,1.000,1.500,0.000,0.244,0.036,1
0.600,0,1,0.931,1.130,1.616,0.013,-0.005,-0.028,1.000,1.000,1.500,0.000,0.187,0.028,1
0.650,0,1,0.958,1.075,1.585,0.011,-0.037,0.008,1.000,1.000,1.500,0.000,0.121,0.008,1
0.700,0,1,0.975,1.017,1.588,0.002,-0.028,0.018,1.000,1.000,1.500,0.000,0.093,0.018,1
0.750,0,1,0.981,0.962,1.563,-0.048,-0.001,0.004,1.000,1.000,1.500,0.000,0.076,0.004,1
0.800,0,1,0.986,0.919,1.521,-0.055,0.009,0.010,1.000,1.000,1.500,0.000,0.084,0.010,1
0.850,0,1,0.995,0.895,1.487,-0.035,-0.010,0.000,1.000,1.000,1.500,0.000,0.106,0.000,1
0.900,0,1,1.002,0.887,1.496,-0.019,-0.026,-0.018,1.000,1.000,1.500,0.000,0.113,0.018,1
0.950,0,1,1.001,0.887,1.541,-0.003,-0.029,-0.028,1.000,1.000,1.500,0.000,0.120,0.028,1
1.000,0,1,0.995,0.894,1.528,-0.040,0.004,-0.008,1.000,1.000,1.500,0.000,0.110,0.008,1
1.050,0,1,0.993,0.912,1.493,-0.024,0.007,-0.002,1.000,1.000,1.500,0.000,0.089,0.002,1
1.100,0,1,0.996,0.939,1.483,-0.007,-0.008,0.008,1.000,1.000,1.500,0.000,0.063,0.008,1
1.150,0,1,0.998,0.970,1.510,0.014,-0.016,0.027,1.000,1.000,1.500,0.000,0.031,0.027,1
1.200,0,1,0.996,0.998,1.566,0.053,-0.015,0.018,1.000,1.000,1.500,0.000,0.066,0.018,1
1.250,0,1,0.990,1.012,1.585,0.031,-0.013,-0.024,1.000,1.000,1.500,0.000,0.086,0.024,1
1.300,0,1,0.983,1.017,1.589,0.013,0.005,-0.017,1.000,1.000,1.500,0.000,0.092,0.017,1
1.350,0,1,0.976,1.018,1.602,0.023,-0.005,0.014,1.000,1.000,1.500,0.000,0.107,0.014,1
1.400,0,1,0.969,1.012,1.592,-0.001,0.009,-0.014,1.000,1.000,1.500,0.000,0.098,0.014,1
1.450,0,1,0.965,1.004,1.575,0.006,-0.006,0.003,1.000,1.000,1.500,0.000,0.083,0.003,1
1.500,0,1,0.963,0.997,1.593,0.013,-0.008,0.019,1.000,1.000,1.500,0.000,0.100,0.019,1
1.550,0,1,0.959,0.986,1.591,-0.017,0.007,-0.012,1.000,1.000,1.500,0.000,0.101,0.012,1
1.600,0,1,0.960,0.976,1.548,-0.009,0.004,-0.012,1.000,1.000,1.500,0.000,0.067,0.012,1
1.650,0,1,0.963,0.972,1.540,0.000,-0.012,-0.005,1.000,1.000,1.500,0.000,0.061,0.005,1
1.700,0,1,0.965,0.969,1.569,0.008,-0.014,0.010,1.000,1.000,1.500,0.000,0.084,0.010,1
1.750,0,1,0.963,0.963,1.579,-0.006,0.001,-0.022,1.000,1.000,1.500,0.000,0.095,0.022,1
1.800,0,1,0.962,0.957,1.593,0.006,-0.012,-0.001,1.000,1.000,1.500,0.000,0.109,0.001,1
1.850,0,1,0.957,0.951,1.617,-0.000,0.000,-0.008,1.000,1.000,1.500,0.000,0.134,0.008,1
1.900,0,1,0.951,0.945,1.579,-0.024,0.014,-0.011,1.000,1.000,1.500,0.000,0.108,0.011,1
1.950,0,1,0.953,0.946,1.531,-0.019,0.007,-0.003,1.000,1.000,1.500,0.000,0.079,0.003,1
2.000,0,1,0.959,0.955,1.525,-0.006,-0.011,0.010,1.000,1.000,1.500,0.000,0.066,0.010,1
2.050,0,1,0.964,0.967,1.554,0.011,-0.015,0.027,1.000,1.000,1.500,0.000,0.073,0.027,1
2.100,0,1,0.964,0.975,1.586,0.003,-0.005,-0.019,1.000,1.000,1.500,0.000,0.096,0.019,1
2.150,0,1,0.964,0.980,1.573,0.011,-0.009,-0.009,1.000,1.000,1.500,0.000,0.084,0.009,1
2.200,0,1,0.965,0.983,1.592,0.015,-0.013,0.010,1.000,1.000,1.500,0.000,0.100,0.010,1
2.250,0,1,0.963,0.982,1.608,0.022,-0.010,-0.018,1.000,1.000,1.500,0.000,0.115,0.018,1
2.300,0,1,0.959,0.975,1.620,-0.014,0.013,-0.041,1.000,1.000,1.500,0.000,0.130,0.041,1
2.350,0,1,0.956,0.967,1.578,-0.011,0.002,-0.012,1.000,1.000,1.500,0.000,0.095,0.012,1
2.400,0,1,0.956,0.965,1.568,-0.004,-0.004,0.025,1.000,1.000,1.500,0.000,0.088,0.025,1
2.450,0,1,0.957,0.967,1.588,0.005,-0.009,0.035,1.000,1.000,1.500,0.000,0.103,0.035,1
2.500,1,2,0.956,0.967,1.609,-0.125,-0.120,0.008,-1.000,1.000,1.000,0.500,2.049,0.492,0
2.550,1,2,0.869,0.985,1.551,-0.194,-0.336,0.521,-1.000,1.000,1.000,0.500,1.949,0.021,0
2.600,1,2,0.602,0.989,1.507,-0.156,-0.143,0.624,-1.000,1.000,1.000,0.500,1.681,0.124,0
2.650,1,2,0.255,1.007,1.448,-0.083,-0.039,0.673,-1.000,1.000,1.000,0.500,1.333,0.173,0
2.700,1,2,-0.114,1.046,1.352,0.032,0.048,0.692,-1.000,1.000,1.000,0.500,0.954,0.192,0
2.750,1,2,-0.466,1.106,1.274,0.046,0.105,0.662,-1.000,1.000,1.000,0.500,0.610,0.162,0
2.800,1,2,-0.766,1.178,1.224,0.029,0.137,0.604,-1.000,1.000,1.000,0.500,0.370,0.104,0
2.850,1,2,-1.004,1.252,1.193,0.107,0.132,0.548,-1.000,1.000,1.000,0.500,0.317,0.048,0
2.900,1,2,-1.168,1.314,1.205,0.154,0.137,0.504,-1.000,1.000,1.000,0.500,0.411,0.004,0
2.950,1,2,-1.249,1.347,1.250,0.161,0.069,0.462,-1.000,1.000,1.000,0.500,0.495,0.038,0
3.000,1,2,-1.275,1.343,1.259,0.121,0.056,0.462,-1.000,1.000,1.000,0.500,0.511,0.038,0
3.050,1,2,-1.261,1.309,1.236,0.057,0.021,0.461,-1.000,1.000,1.000,0.500,0.468,0.039,0
3.100,1,2,-1.226,1.254,1.171,0.055,0.042,0.523,-1.000,1.000,1.000,0.500,0.380,0.023,0
3.150,1,2,-1.168,1.190,1.133,-0.026,0.002,0.500,-1.000,1.000,1.000,0.500,0.286,0.000,1
3.200,1,2,-1.111,1.119,1.089,-0.005,0.014,0.535,-1.000,1.000,1.000,0.500,0.185,0.035,1
3.250,1,2,-1.053,1.055,1.058,-0.033,-0.033,0.532,-1.000,1.000,1.000,0.500,0.096,0.032,1
3.300,1,2,-1.008,1.000,1.047,-0.027,-0.014,0.542,-1.000,1.000,1.000,0.500,0.048,0.042,1
3.350,1,2,-0.974,0.956,1.049,-0.035,-0.021,0.544,-1.000,1.000,1.000,0.500,0.071,0.044,1
3.400,1,2,-0.953,0.926,1.068,-0.045,-0.007,0.566,-1.000,1.000,1.000,0.500,0.111,0.066,1
3.450,1,2,-0.940,0.908,1.081,-0.014,-0.030,0.516,-1.000,1.000,1.000,0.500,0.137,0.016,1
3.500,1,2,-0.932,0.894,1.116,0.012,-0.015,0.491,-1.000,1.000,1.000,0.500,0.171,0.009,1
3.550,1,2,-0.932,0.884,1.135,-0.026,-0.030,0.496,-1.000,1.000,1.000,0.500,0.190,0.004,1
3.600,1,2,-0.940,0.880,1.145,-0.013,0.027,0.495,-1.000,1.000,1.000,0.500,0.198,0.005,1
3.650,1,2,-0.945,0.881,1.148,0.000,-0.001,0.493,-1.000,1.000,1.000,0.500,0.198,0.007,1
3.700,1,2,-0.947,0.883,1.153,-0.040,-0.017,0.475,-1.000,1.000,1.000,0.500,0.200,0.025,1
3.750,1,2,-0.950,0.891,1.143,-0.007,0.007,0.509,-1.000,1.000,1.000,0.500,0.186,0.009,1
3.800,1,2,-0.950,0.903,1.147,0.009,0.026,0.506,-1.000,1.000,1.000,0.500,0.183,0.006,1
3.850,1,2,-0.944,0.913,1.153,0.013,-0.018,0.501,-1.000,1.000,1.000,0.500,0.185,0.001,1
3.900,1,2,-0.939,0.917,1.174,0.003,-0.015,0.490,-1.000,1.000,1.000,0.500,0.202,0.010,1
3.950,1,2,-0.938,0.918,1.170,0.013,-0.027,0.477,-1.000,1.000,1.000,0.500,0.199,0.023,1
4.000,1,2,-0.942,0.915,1.180,-0.005,-0.029,0.486,-1.000,1.000,1.000,0.500,0.207,0.014,1
4.050,1,2,-0.955,0.908,1.168,-0.005,0.030,0.461,-1.000,1.000,1.000,0.500,0.197,0.039,1
4.100,1,2,-0.963,0.904,1.164,-0.004,0.008,0.492,-1.000,1.000,1.000,0.500,0.193,0.008,1
4.150,1,2,-0.965,0.903,1.162,0.010,0.011,0.484,-1.000,1.000,1.000,0.500,0.192,0.016,1
4.200,1,2,-0.963,0.901,1.172,-0.017,-0.048,0.487,-1.000,1.000,1.000,0.500,0.202,0.013,1
4.250,1,2,-0.962,0.903,1.149,-0.032,0.016,0.549,-1.000,1.000,1.000,0.500,0.182,0.049,1
4.300,1,2,-0.961,0.920,1.151,-0.020,0.003,0.583,-1.000,1.000,1.000,0.500,0.176,0.083,1
4.350,1,2,-0.956,0.940,1.142,0.036,0.008,0.520,-1.000,1.000,1.000,0.500,0.160,0.020,1
4.400,1,2,-0.944,0.949,1.157,0.033,-0.033,0.482,-1.000,1.000,1.000,0.500,0.174,0.018,1
4.450,1,2,-0.936,0.945,1.164,0.019,-0.012,0.475,-1.000,1.000,1.000,0.500,0.185,0.025,1
4.500,1,2,-0.931,0.937,1.168,-0.003,-0.017,0.479,-1.000,1.000,1.000,0.500,0.192,0.021,1
4.550,1,2,-0.929,0.925,1.171,0.011,-0.032,0.489,-1.000,1.000,1.000,0.500,0.200,0.011,1
4.600,1,2,-0.930,0.914,1.141,-0.026,0.009,0.520,-1.000,1.000,1.000,0.500,0.179,0.020,1
4.650,1,2,-0.932,0.917,1.134,-0.036,0.014,0.572,-1.000,1.000,1.000,0.500,0.172,0.072,1
4.700,1,2,-0.936,0.934,1.145,0.020,0.022,0.556,-1.000,1.000,1.000,0.500,0.171,0.056,1
4.750,1,2,-0.934,0.948,1.143,0.034,-0.028,0.501,-1.000,1.000,1.000,0.500,0.165,0.001,1
4.800,1,2,-0.929,0.950,1.166,-0.031,-0.026,0.467,-1.000,1.000,1.000,0.500,0.187,0.033,1
4.850,1,2,-0.934,0.947,1.122,-0.008,0.018,0.482,-1.000,1.000,1.000,0.500,0.149,0.018,1
4.900,1,2,-0.938,0.952,1.084,-0.026,0.019,0.558,-1.000,1.000,1.000,0.500,0.115,0.058,1
4.950,1,2,-0.938,0.970,1.072,-0.018,0.006,0.595,-1.000,1.000,1.000,0.500,0.100,0.095,1
5.000,1,2,-0.937,0.998,1.089,-0.005,-0.006,0.611,-1.000,1.000,1.000,0.500,0.109,0.111,0
5.050,1,2,-0.938,1.026,1.111,0.029,-0.011,0.556,-1.000,1.000,1.000,0.500,0.130,0.056,1
5.100,1,2,-0.933,1.041,1.110,0.050,-0.028,0.495,-1.000,1.000,1.000,0.500,0.135,0.005,1
5.150,1,2,-0.926,1.032,1.140,-0.028,-0.007,0.467,-1.000,1.000,1.000,0.500,0.162,0.033,1
5.200,1,2,-0.925,1.013,1.142,0.015,-0.014,0.482,-1.000,1.000,1.000,0.500,0.161,0.018,1
5.250,1,2,-0.926,0.988,1.147,0.001,0.000,0.482,-1.000,1.000,1.000,0.500,0.165,0.018,1
5.300,1,2,-0.929,0.961,1.146,0.012,-0.074,0.491,-1.000,1.000,1.000,0.500,0.167,0.009,1
5.350,1,2,-0.935,0.939,1.106,-0.017,0.017,0.504,-1.000,1.000,1.000,0.500,0.138,0.004,1
5.400,1,2,-0.938,0.929,1.097,-0.029,0.005,0.543,-1.000,1.000,1.000,0.500,0.135,0.043,1
5.450,1,2,-0.942,0.929,1.097,-0.012,0.015,0.532,-1.000,1.000,1.000,0.500,0.133,0.032,1
5.500,1,2,-0.941,0.935,1.102,0.008,-0.017,0.518,-1.000,1.000,1.000,0.500,0.135,0.018,1
5.550,1,2,-0.939,0.938,1.137,-0.016,-0.009,0.492,-1.000,1.000,1.000,0.500,0.162,0.008,1
5.600,1,2,-0.941,0.940,1.140,-0.006,-0.002,0.506,-1.000,1.000,1.000,0.500,0.163,0.006,1
5.650,1,2,-0.948,0.937,1.166,0.021,-0.030,0.483,-1.000,1.000,1.000,0.500,0.185,0.017,1
5.700,1,2,-0.953,0.935,1.151,0.009,0.002,0.489,-1.000,1.000,1.000,0.500,0.171,0.011,1
5.750,1,2,-0.956,0.932,1.157,-0.012,-0.030,0.507,-1.000,1.000,1.000,0.500,0.177,0.007,1
5.800,1,2,-0.960,0.930,1.163,-0.004,-0.035,0.522,-1.000,1.000,1.000,0.500,0.182,0.022,1
5.850,1,2,-0.966,0.930,1.163,0.001,0.009,0.522,-1.000,1.000,1.000,0.500,0.180,0.022,1
5.900,1,2,-0.968,0.932,1.170,0.021,0.009,0.495,-1.000,1.000,1.000,0.500,0.186,0.005,1
5.950,1,2,-0.964,0.929,1.185,0.026,-0.009,0.480,-1.000,1.000,1.000,0.500,0.202,0.020,1
6.000,1,2,-0.962,0.924,1.161,-0.001,0.014,0.494,-1.000,1.000,1.000,0.500,0.182,0.006,1
6.050,1,2,-0.959,0.925,1.149,-0.007,0.007,0.512,-1.000,1.000,1.000,0.500,0.172,0.012,1
6.100,1,2,-0.953,0.927,1.137,0.012,-0.017,0.500,-1.000,1.000,1.000,0.500,0.163,0.000,1
6.150,1,2,-0.947,0.924,1.157,-0.022,-0.063,0.505,-1.000,1.000,1.000,0.500,0.183,0.005,1
6.200,1,2,-0.950,0.917,1.167,-0.009,-0.044,0.479,-1.000,1.000,1.000,0.500,0.193,0.021,1
6.250,1,2,-0.955,0.911,1.170,0.012,-0.023,0.485,-1.000,1.000,1.000,0.500,0.197,0.015,1
6.300,1,2,-0.959,0.908,1.144,-0.023,0.017,0.524,-1.000,1.000,1.000,0.500,0.176,0.024,1
6.350,1,2,-0.960,0.918,1.140,-0.027,0.012,0.573,-1.000,1.000,1.000,0.500,0.167,0.073,1
6.400,1,2,-0.960,0.939,1.143,0.031,-0.001,0.541,-1.000,1.000,1.000,0.500,0.161,0.041,1
6.450,1,2,-0.951,0.953,1.147,0.037,-0.032,0.492,-1.000,1.000,1.000,0.500,0.162,0.008,1
6.500,1,2,-0.943,0.950,1.159,-0.040,-0.029,0.464,-1.000,1.000,1.000,0.500,0.176,0.036,1
6.550,1,2,-0.943,0.944,1.132,-0.021,0.001,0.529,-1.000,1.000,1.000,0.500,0.154,0.029,1
6.600,1,2,-0.943,0.948,1.133,-0.015,-0.001,0.568,-1.000,1.000,1.000,0.500,0.154,0.068,1
6.650,1,2,-0.942,0.957,1.138,0.023,0.009,0.528,-1.000,1.000,1.000,0.500,0.156,0.028,1
6.700,1,2,-0.935,0.959,1.150,0.026,-0.026,0.487,-1.000,1.000,1.000,0.500,0.169,0.013,1
6.750,1,2,-0.936,0.947,1.158,-0.006,-0.005,0.474,-1.000,1.000,1.000,0.500,0.179,0.026,1
6.800,1,2,-0.941,0.935,1.153,-0.003,-0.017,0.513,-1.000,1.000,1.000,0.500,0.176,0.013,1
6.850,1,2,-0.949,0.924,1.152,-0.026,0.001,0.482,-1.000,1.000,1.000,0.500,0.177,0.018,1
6.900,1,2,-0.956,0.917,1.144,0.003,0.003,0.485,-1.000,1.000,1.000,0.500,0.172,0.015,1
6.950,1,2,-0.958,0.910,1.155,-0.003,0.004,0.479,-1.000,1.000,1.000,0.500,0.184,0.021,1
7.000,1,2,-0.960,0.904,1.161,-0.021,-0.028,0.487,-1.000,1.000,1.000,0.500,0.192,0.013,1
7.050,2,3,-0.966,0.901,1.147,0.434,-0.069,0.472,2.000,-1.500,2.000,1.000,3.911,0.528,0
7.100,2,3,-0.875,0.655,1.260,0.251,0.083,0.357,2.000,-1.500,2.000,1.000,3.668,0.643,0
7.150,2,3,-0.641,0.136,1.638,0.361,0.137,0.361,2.000,-1.500,2.000,1.000,3.128,0.639,0
7.200,2,3,-0.342,-0.470,1.953,-1.114,0.379,0.351,2.000,-1.500,2.000,1.000,2.559,0.649,0
7.250,2,3,-0.090,-0.955,1.920,-0.196,0.017,2.275,2.000,-1.500,2.000,1.000,2.162,1.275,0
7.300,2,3,0.239,-1.386,1.689,1.256,-0.624,1.888,2.000,-1.500,2.000,1.000,1.792,0.888,0
7.350,2,3,0.940,-1.838,1.380,-0.740,-0.630,0.412,2.000,-1.500,2.000,1.000,1.274,0.588,0
7.400,2,3,1.431,-2.113,1.007,-0.414,-0.760,-0.195,2.000,-1.500,2.000,1.000,1.299,1.195,0
7.450,2,3,1.640,-2.020,0.664,-0.437,-0.575,0.015,2.000,-1.500,2.000,1.000,1.478,0.985,0
7.500,2,3,1.616,-1.858,0.514,0.099,0.067,0.677,2.000,-1.500,2.000,1.000,1.576,0.323,0
7.550,2,3,1.582,-1.809,0.657,0.049,0.051,0.799,2.000,-1.500,2.000,1.000,1.440,0.201,0
7.600,2,3,1.603,-1.780,1.044,0.015,0.069,0.799,2.000,-1.500,2.000,1.000,1.072,0.201,0
7.650,2,3,1.641,-1.740,1.325,0.014,0.056,0.837,2.000,-1.500,2.000,1.000,0.801,0.163,0
7.700,2,3,1.694,-1.691,1.524,0.002,0.035,0.872,2.000,-1.500,2.000,1.000,0.597,0.128,0
7.750,2,3,1.759,-1.636,1.668,0.017,0.011,0.907,2.000,-1.500,2.000,1.000,0.432,0.093,0
7.800,2,3,1.830,-1.581,1.762,0.009,-0.010,0.932,2.000,-1.500,2.000,1.000,0.303,0.068,0
7.850,2,3,1.902,-1.529,1.817,-0.003,-0.028,0.960,2.000,-1.500,2.000,1.000,0.209,0.040,1
7.900,2,3,1.969,-1.485,1.862,-0.012,-0.040,0.980,2.000,-1.500,2.000,1.000,0.142,0.020,1
7.950,2,3,2.026,-1.452,1.887,-0.014,-0.042,0.995,2.000,-1.500,2.000,1.000,0.126,0.005,1
8.000,2,3,2.071,-1.430,1.904,-0.016,-0.046,1.005,2.000,-1.500,2.000,1.000,0.138,0.005,1
8.050,2,3,2.102,-1.420,1.920,-0.020,-0.039,1.012,2.000,-1.500,2.000,1.000,0.152,0.012,1
8.100,2,3,2.119,-1.419,1.926,-0.013,-0.033,1.017,2.000,-1.500,2.000,1.000,0.162,0.017,1
8.150,2,3,2.125,-1.425,1.939,-0.006,-0.025,1.019,2.000,-1.500,2.000,1.000,0.158,0.019,1
8.200,2,3,2.122,-1.437,1.943,-0.010,-0.012,1.024,2.000,-1.500,2.000,1.000,0.148,0.024,1
8.250,2,3,2.112,-1.451,1.946,-0.006,-0.001,1.025,2.000,-1.500,2.000,1.000,0.134,0.025,1
8.300,2,3,2.099,-1.463,1.955,-0.023,-0.002,1.021,2.000,-1.500,2.000,1.000,0.115,0.021,1
8.350,2,3,2.085,-1.473,1.960,0.001,-0.000,1.014,2.000,-1.500,2.000,1.000,0.098,0.014,1
8.400,2,3,2.072,-1.482,1.955,-0.001,0.005,1.016,2.000,-1.500,2.000,1.000,0.086,0.016,1
8.450,2,3,2.059,-1.489,1.962,-0.013,0.022,1.016,2.000,-1.500,2.000,1.000,0.071,0.016,1
8.500,2,3,2.048,-1.488,1.970,0.002,0.007,1.016,2.000,-1.500,2.000,1.000,0.058,0.016,1
8.550,2,3,2.040,-1.489,1.957,0.019,0.001,0.997,2.000,-1.500,2.000,1.000,0.059,0.003,1
8.600,2,3,2.037,-1.491,1.964,0.000,0.002,1.000,2.000,-1.500,2.000,1.000,0.052,0.000,1
8.650,2,3,2.035,-1.493,1.969,0.027,-0.009,1.005,2.000,-1.500,2.000,1.000,0.047,0.005,1
8.700,2,3,2.036,-1.495,1.963,0.004,0.002,1.002,2.000,-1.500,2.000,1.000,0.051,0.002,1
8.750,2,3,2.037,-1.497,1.951,-0.006,0.001,1.005,2.000,-1.500,2.000,1.000,0.062,0.005,1
8.800,2,3,2.039,-1.496,1.939,-0.003,0.001,1.008,2.000,-1.500,2.000,1.000,0.072,0.008,1
8.850,2,3,2.041,-1.493,1.952,-0.001,-0.001,1.009,2.000,-1.500,2.000,1.000,0.064,0.009,1
8.900,2,3,2.043,-1.489,1.934,0.001,-0.004,1.004,2.000,-1.500,2.000,1.000,0.080,0.004,1
8.950,2,3,2.045,-1.486,1.952,0.012,-0.008,1.000,2.000,-1.500,2.000,1.000,0.068,0.000,1
9.000,2,3,2.047,-1.483,1.930,-0.006,-0.005,1.008,2.000,-1.500,2.000,1.000,0.086,0.008,1
9.050,2,3,2.047,-1.479,1.940,0.005,-0.007,1.008,2.000,-1.500,2.000,1.000,0.080,0.008,1
9.100,2,3,2.047,-1.474,1.948,0.001,-0.007,1.012,2.000,-1.500,2.000,1.000,0.075,0.012,1
9.150,2,3,2.046,-1.470,1.962,0.020,-0.012,1.013,2.000,-1.500,2.000,1.000,0.067,0.013,1
9.200,2,3,2.047,-1.470,1.958,0.012,-0.009,0.999,2.000,-1.500,2.000,1.000,0.070,0.001,1
9.250,2,3,2.049,-1.474,1.959,0.001,-0.005,1.005,2.000,-1.500,2.000,1.000,0.069,0.005,1
9.300,2,3,2.051,-1.480,1.967,0.004,-0.006,1.001,2.000,-1.500,2.000,1.000,0.064,0.001,1
9.350,2,3,2.053,-1.487,1.969,-0.004,0.000,1.011,2.000,-1.500,2.000,1.000,0.063,0.011,1
9.400,2,3,2.053,-1.491,1.953,-0.011,0.003,1.019,2.000,-1.500,2.000,1.000,0.072,0.019,1
9.450,2,3,2.052,-1.489,1.952,0.003,-0.003,1.012,2.000,-1.500,2.000,1.000,0.072,0.012,1
9.500,2,3,2.051,-1.486,1.944,-0.007,-0.003,1.011,2.000,-1.500,2.000,1.000,0.077,0.011,1
9.550,2,3,2.049,-1.481,1.934,0.001,-0.005,1.009,2.000,-1.500,2.000,1.000,0.084,0.009,1
9.600,2,3,2.048,-1.477,1.949,-0.010,-0.001,1.007,2.000,-1.500,2.000,1.000,0.074,0.007,1
9.650,2,3,2.046,-1.473,1.930,0.001,-0.004,1.009,2.000,-1.500,2.000,1.000,0.088,0.009,1
9.700,2,3,2.044,-1.469,1.946,0.011,-0.008,1.007,2.000,-1.500,2.000,1.000,0.076,0.007,1
9.750,2,3,2.042,-1.466,1.930,0.001,-0.006,1.009,2.000,-1.500,2.000,1.000,0.089,0.009,1
9.800,2,3,2.041,-1.464,1.946,0.011,-0.008,1.008,2.000,-1.500,2.000,1.000,0.077,0.008,1
9.850,3,4,1.950,-1.462,1.901,-0.800,-0.446,1.620,-2.000,-1.500,1.800,1.500,3.952,0.120,0
9.900,3,4,1.488,-1.472,1.850,-1.127,0.087,1.629,-2.000,-1.500,1.800,1.500,3.488,0.129,0
9.950,3,4,0.602,-1.367,1.882,-0.023,0.565,1.243,-2.000,-1.500,1.800,1.500,2.606,0.257,0
10.000,3,4,-0.365,-1.090,1.938,0.234,0.477,1.620,-2.000,-1.500,1.800,1.500,1.691,0.120,0
10.050,3,4,-1.352,-0.640,1.931,0.524,1.012,2.024,-2.000,-1.500,1.800,1.500,1.085,0.524,0
10.100,3,4,-2.278,0.135,1.816,0.294,0.686,1.738,-2.000,-1.500,1.800,1.500,1.659,0.238,0
10.150,3,4,-3.036,0.945,1.605,1.031,-0.486,1.435,-2.000,-1.500,1.800,1.500,2.662,0.065,0
10.200,3,4,-3.243,1.500,1.412,0.479,-0.660,1.019,-2.000,-1.500,1.800,1.500,3.270,0.481,0
10.250,3,4,-3.220,1.516,1.201,-0.034,-0.520,1.076,-2.000,-1.500,1.800,1.500,3.308,0.424,0
10.300,3,4,-3.205,1.022,1.073,-0.022,-0.704,1.450,-2.000,-1.500,1.800,1.500,2.889,0.050,0
10.350,3,4,-3.187,0.056,1.059,0.099,-0.830,1.475,-2.000,-1.500,1.800,1.500,2.092,0.025,0
10.400,3,4,-3.192,-1.266,1.081,-0.740,-0.346,1.350,-2.000,-1.500,1.800,1.500,1.411,0.150,0
10.450,3,4,-3.273,-2.544,0.813,-0.300,0.085,1.201,-2.000,-1.500,1.800,1.500,1.920,0.299,0
10.500,3,4,-3.436,-3.727,0.654,-0.299,0.397,1.309,-2.000,-1.500,1.800,1.500,2.887,0.191,0
10.550,3,4,-3.633,-4.601,0.760,0.087,0.484,1.317,-2.000,-1.500,1.800,1.500,3.656,0.183,0
10.600,3,4,-0.000,0.000,1.001,-0.040,-0.112,0.047,-2.000,-1.500,1.800,1.500,2.625,1.453,0
10.650,3,4,-0.153,-0.064,1.097,0.014,-0.252,0.899,-2.000,-1.500,1.800,1.500,2.443,0.601,0
10.700,3,4,-0.501,-0.248,1.338,-0.230,-0.054,1.334,-2.000,-1.500,1.800,1.500,2.007,0.166,0
10.750,3,4,-0.940,-0.417,1.523,-0.180,0.100,1.528,-2.000,-1.500,1.800,1.500,1.541,0.028,0
10.800,3,4,-1.432,-0.543,1.604,-0.036,0.206,1.622,-2.000,-1.500,1.800,1.500,1.130,0.122,0
10.850,3,4,-1.941,-0.602,1.656,0.096,0.130,1.651,-2.000,-1.500,1.800,1.500,0.912,0.151,0
10.900,3,4,-2.408,-0.603,1.743,0.181,0.048,1.601,-2.000,-1.500,1.800,1.500,0.987,0.101,0
10.950,3,4,-2.797,-0.582,1.856,0.252,-0.028,1.546,-2.000,-1.500,1.800,1.500,1.217,0.046,0
11.000,3,4,-3.085,-0.574,1.984,0.304,-0.052,1.505,-2.000,-1.500,1.800,1.500,1.438,0.005,0
11.050,3,4,-3.256,-0.597,2.104,0.337,-0.089,1.478,-2.000,-1.500,1.800,1.500,1.576,0.022,0
11.100,3,4,-3.317,-0.660,2.167,0.289,-0.132,1.466,-2.000,-1.500,1.800,1.500,1.605,0.034,0
11.150,3,4,-3.282,-0.771,2.175,0.232,-0.098,1.493,-2.000,-1.500,1.800,1.500,1.522,0.007,0
11.200,3,4,-3.171,-0.918,2.128,0.198,-0.082,1.518,-2.000,-1.500,1.800,1.500,1.348,0.018,0
11.250,3,4,-2.994,-1.101,2.066,0.133,-0.059,1.523,-2.000,-1.500,1.800,1.500,1.104,0.023,0
11.300,3,4,-2.770,-1.313,1.985,0.071,-0.057,1.519,-2.000,-1.500,1.800,1.500,0.814,0.019,0
11.350,3,4,-2.519,-1.541,1.907,-0.004,-0.001,1.509,-2.000,-1.500,1.800,1.500,0.532,0.009,0
11.400,3,4,-2.271,-1.762,1.844,-0.082,0.059,1.501,-2.000,-1.500,1.800,1.500,0.379,0.001,0
11.450,3,4,-2.059,-1.948,1.809,-0.143,0.154,1.492,-2.000,-1.500,1.800,1.500,0.452,0.008,0
11.500,3,4,-1.906,-2.064,1.802,-0.175,0.206,1.492,-2.000,-1.500,1.800,1.500,0.572,0.008,0
11.550,3,4,-1.821,-2.091,1.813,-0.137,0.191,1.501,-2.000,-1.500,1.800,1.500,0.618,0.001,0
11.600,3,4,-1.786,-2.040,1.825,-0.092,0.116,1.482,-2.000,-1.500,1.800,1.500,0.581,0.018,0
11.650,3,4,-1.782,-1.942,1.819,-0.053,0.051,1.476,-2.000,-1.500,1.800,1.500,0.493,0.024,0
11.700,3,4,-1.799,-1.821,1.811,-0.043,0.019,1.478,-2.000,-1.500,1.800,1.500,0.378,0.022,0
11.750,3,4,-1.832,-1.693,1.816,-0.025,-0.036,1.490,-2.000,-1.500,1.800,1.500,0.256,0.010,1
11.800,3,4,-1.872,-1.575,1.803,0.007,-0.055,1.496,-2.000,-1.500,1.800,1.500,0.149,0.004,1
11.850,3,4,-1.911,-1.480,1.788,0.004,-0.089,1.500,-2.000,-1.500,1.800,1.500,0.092,0.000,1
11.900,3,4,-1.949,-1.416,1.784,0.012,-0.078,1.504,-2.000,-1.500,1.800,1.500,0.099,0.004,1
11.950,3,4,-1.984,-1.382,1.798,0.004,-0.058,1.515,-2.000,-1.500,1.800,1.500,0.119,0.015,1
12.000,3,4,-2.016,-1.369,1.790,-0.006,-0.044,1.522,-2.000,-1.500,1.800,1.500,0.132,0.022,1
12.050,3,4,-2.049,-1.372,1.791,0.004,-0.023,1.540,-2.000,-1.500,1.800,1.500,0.137,0.040,1
12.100,3,4,-2.078,-1.388,1.805,-0.000,-0.043,1.507,-2.000,-1.500,1.800,1.500,0.136,0.007,1
12.150,3,4,-2.098,-1.420,1.796,0.007,0.003,1.508,-2.000,-1.500,1.800,1.500,0.126,0.008,1
12.200,3,4,-2.112,-1.454,1.790,0.020,0.002,1.502,-2.000,-1.500,1.800,1.500,0.122,0.002,1
12.250,3,4,-2.121,-1.488,1.767,0.002,0.024,1.506,-2.000,-1.500,1.800,1.500,0.126,0.006,1
12.300,3,4,-2.127,-1.511,1.776,-0.000,0.028,1.518,-2.000,-1.500,1.800,1.500,0.130,0.018,1
12.350,3,4,-2.125,-1.532,1.780,-0.000,0.022,1.494,-2.000,-1.500,1.800,1.500,0.131,0.006,1
12.400,3,4,-2.121,-1.544,1.786,-0.004,0.030,1.516,-2.000,-1.500,1.800,1.500,0.129,0.016,1
12.450,3,4,-2.114,-1.547,1.776,0.010,0.011,1.495,-2.000,-1.500,1.800,1.500,0.126,0.005,1
12.500,3,4,-2.103,-1.546,1.758,-0.002,0.008,1.491,-2.000,-1.500,1.800,1.500,0.120,0.009,1
12.550,3,4,-2.091,-1.540,1.777,0.023,0.007,1.502,-2.000,-1.500,1.800,1.500,0.102,0.002,1
12.600,3,4,-2.079,-1.532,1.752,-0.008,0.000,1.497,-2.000,-1.500,1.800,1.500,0.098,0.003,1
12.650,3,4,-2.069,-1.522,1.760,-0.008,-0.004,1.504,-2.000,-1.500,1.800,1.500,0.083,0.004,1
12.700,3,4,-2.057,-1.518,1.779,-0.005,-0.012,1.481,-2.000,-1.500,1.800,1.500,0.063,0.019,1
12.750,3,4,-2.045,-1.519,1.770,-0.019,-0.003,1.493,-2.000,-1.500,1.800,1.500,0.057,0.007,1
12.800,3,4,-2.034,-1.525,1.765,-0.022,0.008,1.495,-2.000,-1.500,1.800,1.500,0.055,0.005,1
12.850,3,4,-2.029,-1.528,1.755,-0.017,0.003,1.497,-2.000,-1.500,1.800,1.500,0.061,0.003,1
12.900,3,4,-2.030,-1.529,1.740,-0.017,0.005,1.505,-2.000,-1.500,1.800,1.500,0.073,0.005,1
12.950,3,4,-2.038,-1.524,1.761,-0.011,0.006,1.516,-2.000,-1.500,1.800,1.500,0.059,0.016,1
13.000,3,4,-2.047,-1.517,1.750,-0.003,-0.001,1.502,-2.000,-1.500,1.800,1.500,0.071,0.002,1
13.050,3,4,-2.057,-1.510,1.759,-0.000,-0.005,1.506,-2.000,-1.500,1.800,1.500,0.071,0.006,1
13.100,3,4,-2.066,-1.503,1.763,0.003,-0.009,1.500,-2.000,-1.500,1.800,1.500,0.076,0.000,1
13.150,3,4,-2.073,-1.498,1.761,0.002,-0.006,1.506,-2.000,-1.500,1.800,1.500,0.083,0.006,1
13.200,3,4,-2.077,-1.495,1.781,0.010,-0.020,1.492,-2.000,-1.500,1.800,1.500,0.080,0.008,1
13.250,3,4,-2.074,-1.502,1.772,0.000,-0.002,1.492,-2.000,-1.500,1.800,1.500,0.079,0.008,1
13.300,3,4,-2.072,-1.508,1.776,0.012,-0.018,1.498,-2.000,-1.500,1.800,1.500,0.076,0.002,1
13.350,3,4,-2.070,-1.513,1.749,-0.011,0.005,1.505,-2.000,-1.500,1.800,1.500,0.087,0.005,1
13.400,3,4,-2.072,-1.513,1.759,-0.009,0.004,1.517,-2.000,-1.500,1.800,1.500,0.084,0.017,1
13.450,3,4,-2.073,-1.513,1.770,0.009,-0.004,1.493,-2.000,-1.500,1.800,1.500,0.080,0.007,1
13.500,3,4,-2.071,-1.515,1.755,-0.005,0.000,1.494,-2.000,-1.500,1.800,1.500,0.085,0.006,1
13.550,3,4,-2.070,-1.514,1.776,0.031,-0.024,1.504,-2.000,-1.500,1.800,1.500,0.075,0.004,1
13.600,3,4,-2.066,-1.516,1.758,-0.005,0.001,1.488,-2.000,-1.500,1.800,1.500,0.080,0.012,1
13.650,3,4,-2.063,-1.517,1.760,-0.009,0.003,1.503,-2.000,-1.500,1.800,1.500,0.077,0.003,1
13.700,3,4,-2.063,-1.515,1.757,-0.004,-0.003,1.499,-2.000,-1.500,1.800,1.500,0.078,0.001,1
13.750,4,5,-2.063,-1.512,1.750,-0.046,0.252,1.456,0.000,2.500,1.000,-1.000,4.574,2.456,0
13.800,4,5,-1.943,-1.336,1.659,0.054,-0.324,-0.497,0.000,2.500,1.000,-1.000,4.350,0.503,0
13.850,4,5,-1.653,-0.889,1.406,-0.174,-1.241,-0.257,0.000,2.500,1.000,-1.000,3.793,0.743,0
13.900,4,5,-1.506,-0.143,1.137,-0.270,-0.175,-0.643,0.000,2.500,1.000,-1.000,3.045,0.357,0
13.950,4,5,-1.356,0.746,1.113,-0.202,0.226,-0.707,0.000,2.500,1.000,-1.000,2.220,0.293,0
14.000,4,5,-1.096,1.628,1.252,-0.290,0.194,-0.815,0.000,2.500,1.000,-1.000,1.423,0.185,0
14.050,4,5,-0.727,2.485,1.331,-0.252,0.098,-0.886,0.000,2.500,1.000,-1.000,0.799,0.114,0
14.100,4,5,-0.300,3.304,1.396,0.270,0.215,-0.992,0.000,2.500,1.000,-1.000,0.945,0.008,0
14.150,4,5,0.103,4.031,1.425,0.330,0.119,-1.119,0.000,2.500,1.000,-1.000,1.592,0.119,0
14.200,4,5,0.373,4.615,1.572,0.483,0.167,-1.268,0.000,2.500,1.000,-1.000,2.223,0.268,0
14.250,4,5,0.374,4.956,1.845,0.578,0.719,-1.102,0.000,2.500,1.000,-1.000,2.624,0.102,0
14.300,4,5,0.210,4.837,2.189,-0.162,0.761,-1.408,0.000,2.500,1.000,-1.000,2.630,0.408,0
14.350,4,5,0.075,4.576,2.292,-0.082,0.604,-1.284,0.000,2.500,1.000,-1.000,2.446,0.284,0
14.400,4,5,-0.004,4.195,2.192,-0.058,0.470,-1.222,0.000,2.500,1.000,-1.000,2.072,0.222,0
14.450,4,5,-0.025,3.714,1.947,-0.086,0.225,-1.125,0.000,2.500,1.000,-1.000,1.540,0.125,0
14.500,4,5,-0.003,3.186,1.620,-0.089,-0.009,-1.027,0.000,2.500,1.000,-1.000,0.925,0.027,0
14.550,4,5,0.042,2.684,1.320,-0.074,-0.174,-0.978,0.000,2.500,1.000,-1.000,0.372,0.022,0
14.600,4,5,0.076,2.280,1.128,-0.058,-0.230,-0.972,0.000,2.500,1.000,-1.000,0.266,0.028,1
14.650,4,5,0.081,1.994,1.039,-0.097,-0.226,-0.952,0.000,2.500,1.000,-1.000,0.514,0.048,0
14.700,4,5,0.059,1.821,1.019,-0.127,-0.229,-0.928,0.000,2.500,1.000,-1.000,0.681,0.072,0
14.750,4,5,0.023,1.745,1.009,-0.133,-0.161,-0.915,0.000,2.500,1.000,-1.000,0.755,0.085,0
14.800,4,5,-0.011,1.755,1.022,-0.130,-0.127,-0.911,0.000,2.500,1.000,-1.000,0.745,0.089,0
14.850,4,5,-0.034,1.839,1.061,-0.033,-0.107,-0.920,0.000,2.500,1.000,-1.000,0.665,0.080,0
14.900,4,5,-0.057,1.968,1.061,-0.050,-0.075,-0.929,0.000,2.500,1.000,-1.000,0.538,0.071,0
14.950,4,5,-0.082,2.131,1.081,-0.004,-0.069,-0.935,0.000,2.500,1.000,-1.000,0.387,0.065,0
15.000,4,5,-0.119,2.308,1.066,0.000,0.009,-0.966,0.000,2.500,1.000,-1.000,0.235,0.034,1
15.050,4,5,-0.151,2.478,1.050,0.030,0.053,-0.992,0.000,2.500,1.000,-1.000,0.161,0.008,1
15.100,4,5,-0.180,2.620,1.056,0.041,0.098,-1.029,0.000,2.500,1.000,-1.000,0.223,0.029,1
15.150,4,5,-0.201,2.716,1.095,0.027,0.106,-1.055,0.000,2.500,1.000,-1.000,0.310,0.055,0
15.200,4,5,-0.207,2.770,1.102,-0.001,0.119,-1.025,0.000,2.500,1.000,-1.000,0.355,0.025,0
15.250,4,5,-0.191,2.781,1.104,0.017,0.107,-1.020,0.000,2.500,1.000,-1.000,0.355,0.020,0
15.300,4,5,-0.160,2.754,1.109,0.019,0.059,-1.034,0.000,2.500,1.000,-1.000,0.319,0.034,0
15.350,4,5,-0.131,2.703,1.081,0.054,0.002,-1.016,0.000,2.500,1.000,-1.000,0.255,0.016,1
15.400,4,5,-0.115,2.638,1.057,0.004,0.021,-1.011,0.000,2.500,1.000,-1.000,0.189,0.011,1
15.450,4,5,-0.101,2.567,1.026,0.033,-0.047,-1.010,0.000,2.500,1.000,-1.000,0.124,0.010,1
15.500,4,5,-0.102,2.503,1.029,-0.000,0.004,-0.990,0.000,2.500,1.000,-1.000,0.106,0.010,1
15.550,4,5,-0.102,2.443,1.009,-0.036,-0.018,-0.982,0.000,2.500,1.000,-1.000,0.117,0.018,1
15.600,4,5,-0.094,2.394,1.016,-0.006,-0.013,-0.971,0.000,2.500,1.000,-1.000,0.142,0.029,1
15.650,4,5,-0.082,2.357,0.997,-0.026,-0.037,-0.968,0.000,2.500,1.000,-1.000,0.165,0.032,1
15.700,4,5,-0.069,2.335,1.014,-0.020,-0.049,-0.965,0.000,2.500,1.000,-1.000,0.179,0.035,1
15.750,4,5,-0.060,2.328,1.032,-0.014,-0.029,-0.974,0.000,2.500,1.000,-1.000,0.185,0.026,1
15.800,4,5,-0.058,2.332,1.005,0.015,-0.031,-0.981,0.000,2.500,1.000,-1.000,0.178,0.019,1
15.850,4,5,-0.067,2.344,1.012,-0.010,-0.021,-0.992,0.000,2.500,1.000,-1.000,0.171,0.008,1
15.900,4,5,-0.079,2.361,1.029,-0.015,-0.018,-0.984,0.000,2.500,1.000,-1.000,0.162,0.016,1
15.950,4,5,-0.086,2.384,1.023,-0.029,0.009,-0.981,0.000,2.500,1.000,-1.000,0.146,0.019,1
16.000,4,5,-0.085,2.409,1.016,0.027,-0.019,-0.993,0.000,2.500,1.000,-1.000,0.126,0.007,1
16.050,4,5,-0.088,2.430,1.042,-0.019,0.003,-0.989,0.000,2.500,1.000,-1.000,0.120,0.011,1
16.100,4,5,-0.090,2.449,1.037,0.004,-0.015,-0.980,0.000,2.500,1.000,-1.000,0.110,0.020,1
16.150,4,5,-0.092,2.464,1.042,-0.000,0.014,-0.972,0.000,2.500,1.000,-1.000,0.107,0.028,1
16.200,4,5,-0.088,2.472,1.036,0.017,-0.001,-0.986,0.000,2.500,1.000,-1.000,0.099,0.014,1
16.250,4,5,-0.088,2.473,1.054,-0.016,0.003,-0.983,0.000,2.500,1.000,-1.000,0.107,0.017,1
16.300,4,5,-0.088,2.473,1.036,0.025,-0.018,-0.979,0.000,2.500,1.000,-1.000,0.099,0.021,1
16.350,4,5,-0.093,2.469,1.050,-0.013,-0.001,-0.978,0.000,2.500,1.000,-1.000,0.110,0.022,1
16.400,4,5,-0.098,2.464,1.032,0.021,-0.010,-0.992,0.000,2.500,1.000,-1.000,0.109,0.008,1
16.450,4,5,-0.106,2.456,1.037,-0.016,0.009,-0.985,0.000,2.500,1.000,-1.000,0.120,0.015,1
16.500,4,5,-0.108,2.447,1.040,-0.021,-0.014,-0.974,0.000,2.500,1.000,-1.000,0.127,0.026,1
16.550,4,5,-0.111,2.437,1.030,-0.027,0.012,-0.996,0.000,2.500,1.000,-1.000,0.131,0.004,1
16.600,4,5,-0.108,2.428,1.024,-0.032,0.005,-0.986,0.000,2.500,1.000,-1.000,0.132,0.014,1
16.650,4,5,-0.103,2.420,0.996,0.006,-0.019,-0.976,0.000,2.500,1.000,-1.000,0.130,0.024,1
16.700,4,5,-0.100,2.416,1.004,-0.027,-0.011,-0.972,0.000,2.500,1.000,-1.000,0.131,0.028,1
16.750,4,5,-0.091,2.415,1.015,-0.001,-0.013,-0.966,0.000,2.500,1.000,-1.000,0.125,0.034,1
16.800,4,5,-0.082,2.416,1.017,-0.001,0.003,-0.983,0.000,2.500,1.000,-1.000,0.119,0.017,1
16.850,4,5,-0.074,2.416,1.039,-0.004,-0.004,-0.994,0.000,2.500,1.000,-1.000,0.118,0.006,1
16.900,4,5,-0.070,2.419,1.031,-0.029,0.010,-0.972,0.000,2.500,1.000,-1.000,0.111,0.028,1
16.950,4,5,-0.065,2.424,1.019,-0.011,0.000,-0.977,0.000,2.500,1.000,-1.000,0.102,0.023,1
17.000,4,5,-0.062,2.428,1.031,0.020,-0.018,-0.992,0.000,2.500,1.000,-1.000,0.100,0.008,1
17.050,4,5,-0.066,2.432,1.031,0.004,0.013,-0.984,0.000,2.500,1.000,-1.000,0.100,0.016,1
17.100,4,5,-0.068,2.433,1.026,0.021,-0.030,-0.975,0.000,2.500,1.000,-1.000,0.099,0.025,1
17.150,4,5,-0.079,2.437,1.037,-0.029,0.009,-0.964,0.000,2.500,1.000,-1.000,0.108,0.036,1
17.200,4,5,-0.085,2.440,1.047,0.011,0.019,-0.966,0.000,2.500,1.000,-1.000,0.115,0.034,1
17.250,4,5,-0.089,2.442,1.050,0.000,-0.000,-0.983,0.000,2.500,1.000,-1.000,0.118,0.017,1
17.300,4,5,-0.094,2.441,1.053,0.000,-0.006,-0.983,0.000,2.500,1.000,-1.000,0.123,0.017,1
17.350,5,6,-0.099,2.413,1.093,0.518,0.842,-0.796,1.500,-2.500,2.200,-0.500,5.284,0.296,0
17.400,5,6,0.026,2.101,1.235,0.218,0.358,-1.207,1.500,-2.500,2.200,-0.500,4.926,0.707,0
17.450,5,6,0.317,1.576,1.563,-0.399,0.470,-1.450,1.500,-2.500,2.200,-0.500,4.291,0.950,0
17.500,5,6,0.804,0.913,1.897,-0.733,-0.227,-0.793,1.500,-2.500,2.200,-0.500,3.496,0.293,0
17.550,5,6,1.334,0.297,1.949,0.336,-0.058,-0.648,1.500,-2.500,2.200,-0.500,2.813,0.148,0
17.600,5,6,1.810,-0.338,1.922,0.075,-0.203,-0.677,1.500,-2.500,2.200,-0.500,2.201,0.177,0
17.650,5,6,2.187,-0.943,1.884,0.169,-0.328,-0.662,1.500,-2.500,2.200,-0.500,1.731,0.162,0
17.700,5,6,2.393,-1.495,1.902,0.278,-0.285,-0.549,1.500,-2.500,2.200,-0.500,1.377,0.049,0
17.750,5,6,2.424,-2.018,1.950,0.124,-0.251,-0.449,1.500,-2.500,2.200,-0.500,1.071,0.051,0
17.800,5,6,2.334,-2.506,1.988,0.116,-0.066,-0.349,1.500,-2.500,2.200,-0.500,0.860,0.151,0
17.850,5,6,2.187,-2.963,1.983,-0.105,-0.085,-0.274,1.500,-2.500,2.200,-0.500,0.857,0.226,0
17.900,5,6,1.999,-3.312,2.015,-0.142,0.009,-0.306,1.500,-2.500,2.200,-0.500,0.971,0.194,0
17.950,5,6,1.805,-3.527,2.087,-0.368,-0.039,-0.290,1.500,-2.500,2.200,-0.500,1.077,0.210,0
18.000,5,6,1.640,-3.603,2.151,-0.378,-0.056,-0.322,1.500,-2.500,2.200,-0.500,1.113,0.178,0
18.050,5,6,1.505,-3.542,2.222,-0.241,-0.084,-0.366,1.500,-2.500,2.200,-0.500,1.043,0.134,0
18.100,5,6,1.383,-3.382,2.266,-0.168,-0.094,-0.414,1.500,-2.500,2.200,-0.500,0.892,0.086,0
18.150,5,6,1.256,-3.152,2.293,-0.083,-0.056,-0.446,1.500,-2.500,2.200,-0.500,0.703,0.054,0
18.200,5,6,1.128,-2.888,2.297,-0.034,0.009,-0.467,1.500,-2.500,2.200,-0.500,0.546,0.033,0
18.250,5,6,1.011,-2.616,2.310,0.005,0.073,-0.494,1.500,-2.500,2.200,-0.500,0.514,0.006,0
18.300,5,6,0.919,-2.364,2.332,0.032,0.121,-0.531,1.500,-2.500,2.200,-0.500,0.611,0.031,0
18.350,5,6,0.864,-2.149,2.353,0.034,0.163,-0.564,1.500,-2.500,2.200,-0.500,0.743,0.064,0
18.400,5,6,0.856,-1.981,2.376,0.040,0.192,-0.594,1.500,-2.500,2.200,-0.500,0.845,0.094,0
18.450,5,6,0.902,-1.868,2.390,0.061,0.201,-0.621,1.500,-2.500,2.200,-0.500,0.891,0.121,0
18.500,5,6,0.995,-1.816,2.378,0.079,0.183,-0.626,1.500,-2.500,2.200,-0.500,0.869,0.126,0
18.550,5,6,1.125,-1.826,2.344,0.078,0.111,-0.614,1.500,-2.500,2.200,-0.500,0.785,0.114,0
18.600,5,6,1.270,-1.884,2.275,0.070,0.028,-0.580,1.500,-2.500,2.200,-0.500,0.662,0.080,0
18.650,5,6,1.408,-1.981,2.228,0.079,-0.012,-0.534,1.500,-2.500,2.200,-0.500,0.528,0.034,0
18.700,5,6,1.527,-2.102,2.166,-0.032,-0.124,-0.501,1.500,-2.500,2.200,-0.500,0.400,0.001,0
18.750,5,6,1.610,-2.225,2.130,0.071,-0.060,-0.470,1.500,-2.500,2.200,-0.500,0.304,0.030,0
18.800,5,6,1.663,-2.346,2.117,-0.021,-0.077,-0.441,1.500,-2.500,2.200,-0.500,0.239,0.059,1
18.850,5,6,1.691,-2.457,2.089,0.015,-0.087,-0.418,1.500,-2.500,2.200,-0.500,0.225,0.082,1
18.900,5,6,1.689,-2.551,2.089,-0.078,-0.076,-0.419,1.500,-2.500,2.200,-0.500,0.225,0.081,1
18.950,5,6,1.671,-2.624,2.077,-0.022,-0.057,-0.420,1.500,-2.500,2.200,-0.500,0.244,0.080,1
19.000,5,6,1.637,-2.667,2.080,-0.056,-0.057,-0.425,1.500,-2.500,2.200,-0.500,0.247,0.075,1
19.050,5,6,1.593,-2.677,2.103,-0.053,-0.050,-0.438,1.500,-2.500,2.200,-0.500,0.222,0.062,1
19.100,5,6,1.542,-2.660,2.107,-0.057,-0.034,-0.450,1.500,-2.500,2.200,-0.500,0.190,0.050,1
19.150,5,6,1.489,-2.619,2.116,-0.037,-0.021,-0.465,1.500,-2.500,2.200,-0.500,0.146,0.035,1
19.200,5,6,1.436,-2.561,2.141,-0.019,-0.002,-0.481,1.500,-2.500,2.200,-0.500,0.106,0.019,1
19.250,5,6,1.387,-2.493,2.160,-0.019,0.011,-0.496,1.500,-2.500,2.200,-0.500,0.120,0.004,1
19.300,5,6,1.345,-2.424,2.177,0.001,0.038,-0.507,1.500,-2.500,2.200,-0.500,0.174,0.007,1
19.350,5,6,1.314,-2.361,2.184,-0.005,0.038,-0.521,1.500,-2.500,2.200,-0.500,0.233,0.021,1
19.400,5,6,1.299,-2.308,2.198,0.002,0.049,-0.527,1.500,-2.500,2.200,-0.500,0.278,0.027,1
19.450,5,6,1.299,-2.269,2.193,0.016,0.046,-0.530,1.500,-2.500,2.200,-0.500,0.307,0.030,0
19.500,5,6,1.314,-2.247,2.195,0.036,0.049,-0.532,1.500,-2.500,2.200,-0.500,0.314,0.032,0
19.550,5,6,1.341,-2.242,2.185,0.020,0.040,-0.529,1.500,-2.500,2.200,-0.500,0.304,0.029,0
19.600,5,6,1.378,-2.252,2.184,0.019,0.017,-0.521,1.500,-2.500,2.200,-0.500,0.277,0.021,1
19.650,5,6,1.419,-2.273,2.175,0.032,0.011,-0.508,1.500,-2.500,2.200,-0.500,0.242,0.008,1
19.700,5,6,1.461,-2.300,2.153,0.012,-0.007,-0.497,1.500,-2.500,2.200,-0.500,0.209,0.003,1
19.750,5,6,1.497,-2.332,2.153,-0.007,-0.014,-0.496,1.500,-2.500,2.200,-0.500,0.174,0.004,1
19.800,5,6,1.524,-2.361,2.149,0.001,-0.031,-0.491,1.500,-2.500,2.200,-0.500,0.150,0.009,1
19.850,5,6,1.540,-2.387,2.149,-0.013,-0.021,-0.487,1.500,-2.500,2.200,-0.500,0.131,0.013,1
19.900,5,6,1.546,-2.409,2.152,0.003,-0.046,-0.481,1.500,-2.500,2.200,-0.500,0.113,0.019,1
19.950,5,6,1.543,-2.426,2.146,0.001,-0.026,-0.478,1.500,-2.500,2.200,-0.500,0.101,0.022,1
20.000,5,6,1.533,-2.440,2.151,-0.013,-0.023,-0.473,1.500,-2.500,2.200,-0.500,0.084,0.027,1
20.050,5,6,1.519,-2.446,2.154,-0.006,-0.017,-0.478,1.500,-2.500,2.200,-0.500,0.073,0.022,1
20.100,5,6,1.501,-2.446,2.159,-0.011,-0.007,-0.480,1.500,-2.500,2.200,-0.500,0.068,0.020,1
20.150,5,6,1.481,-2.440,2.157,-0.005,-0.001,-0.483,1.500,-2.500,2.200,-0.500,0.076,0.017,1
20.200,5,6,1.463,-2.432,2.150,-0.013,0.002,-0.484,1.500,-2.500,2.200,-0.500,0.092,0.016,1
20.250,5,6,1.447,-2.421,2.151,-0.005,-0.001,-0.489,1.500,-2.500,2.200,-0.500,0.107,0.011,1
20.300,5,6,1.433,-2.410,2.158,-0.019,0.015,-0.492,1.500,-2.500,2.200,-0.500,0.119,0.008,1
20.350,5,6,1.425,-2.398,2.167,0.001,0.008,-0.498,1.500,-2.500,2.200,-0.500,0.131,0.002,1
20.400,5,6,1.420,-2.384,2.174,0.009,0.013,-0.500,1.500,-2.500,2.200,-0.500,0.143,0.000,1
20.450,5,6,1.421,-2.372,2.180,0.008,0.018,-0.499,1.500,-2.500,2.200,-0.500,0.151,0.001,1
20.500,5,6,1.427,-2.363,2.175,-0.009,0.018,-0.498,1.500,-2.500,2.200,-0.500,0.157,0.002,1
20.550,5,6,1.435,-2.359,2.171,0.000,-0.008,-0.500,1.500,-2.500,2.200,-0.500,0.158,0.000,1
20.600,5,6,1.444,-2.358,2.160,0.028,0.012,-0.497,1.500,-2.500,2.200,-0.500,0.158,0.003,1
20.650,5,6,1.453,-2.363,2.150,0.024,0.003,-0.492,1.500,-2.500,2.200,-0.500,0.153,0.008,1
20.700,5,6,1.460,-2.375,2.138,0.005,0.007,-0.486,1.500,-2.500,2.200,-0.500,0.146,0.014,1
20.750,5,6,1.468,-2.388,2.139,-0.006,0.001,-0.482,1.500,-2.500,2.200,-0.500,0.131,0.018,1
20.800,5,6,1.476,-2.401,2.143,-0.006,-0.012,-0.487,1.500,-2.500,2.200,-0.500,0.116,0.013,1
20.850,5,6,1.480,-2.411,2.141,-0.011,-0.004,-0.482,1.500,-2.500,2.200,-0.500,0.109,0.018,1
20.900,5,6,1.481,-2.419,2.155,-0.012,-0.016,-0.487,1.500,-2.500,2.200,-0.500,0.095,0.013,1
20.950,5,6,1.480,-2.421,2.158,-0.006,-0.024,-0.486,1.500,-2.500,2.200,-0.500,0.092,0.014,1
21.000,5,6,1.476,-2.422,2.153,-0.026,0.001,-0.483,1.500,-2.500,2.200,-0.500,0.094,0.017,1
21.050,5,6,1.472,-2.422,2.155,-0.007,-0.019,-0.485,1.500,-2.500,2.200,-0.500,0.094,0.015,1
21.100,5,6,1.466,-2.417,2.150,0.000,0.004,-0.487,1.500,-2.500,2.200,-0.500,0.103,0.013,1
21.150,5,6,1.460,-2.412,2.160,-0.004,-0.021,-0.491,1.500,-2.500,2.200,-0.500,0.105,0.009,1
21.200,5,6,1.454,-2.405,2.164,-0.005,0.004,-0.492,1.500,-2.500,2.200,-0.500,0.112,0.008,1
21.250,5,6,1.449,-2.399,2.162,-0.004,-0.002,-0.496,1.500,-2.500,2.200,-0.500,0.119,0.004,1
21.300,5,6,1.446,-2.394,2.163,0.006,0.014,-0.494,1.500,-2.500,2.200,-0.500,0.125,0.006,1
21.350,5,6,1.445,-2.391,2.162,-0.001,0.009,-0.490,1.500,-2.500,2.200,-0.500,0.128,0.010,1
21.400,5,6,1.446,-2.388,2.169,-0.029,0.012,-0.491,1.500,-2.500,2.200,-0.500,0.128,0.009,1
21.450,5,6,1.449,-2.388,2.162,0.007,-0.002,-0.491,1.500,-2.500,2.200,-0.500,0.129,0.009,1
21.500,5,6,1.452,-2.389,2.157,0.002,0.005,-0.491,1.500,-2.500,2.200,-0.500,0.129,0.009,1
21.550,5,6,1.455,-2.391,2.143,0.011,0.006,-0.488,1.500,-2.500,2.200,-0.500,0.131,0.012,1
21.600,6,7,1.429,-2.334,2.093,-1.644,-0.501,1.014,-1.500,2.000,1.400,0.800,5.277,0.214,0
21.650,6,7,1.155,-2.028,1.905,-1.108,0.437,1.007,-1.500,2.000,1.400,0.800,4.850,0.207,0
21.700,6,7,0.794,-1.416,1.761,-0.413,0.699,0.949,-1.500,2.000,1.400,0.800,4.130,0.149,0
21.750,6,7,0.514,-0.487,1.757,0.019,0.595,0.779,-1.500,2.000,1.400,0.800,3.220,0.021,0
21.800,6,7,0.374,0.739,1.884,-0.132,0.596,1.024,-1.500,2.000,1.400,0.800,2.310,0.224,0
21.850,6,7,0.333,2.171,1.933,-0.085,0.566,1.119,-1.500,2.000,1.400,0.800,1.917,0.319,0
21.900,6,7,0.336,3.564,1.719,0.265,-0.051,1.070,-1.500,2.000,1.400,0.800,2.433,0.270,0
21.950,6,7,0.465,4.726,1.765,0.858,-1.056,0.536,-1.500,2.000,1.400,0.800,3.380,0.264,0
22.000,6,7,-0.005,0.020,1.002,-1.002,-0.390,0.405,-1.500,2.000,1.400,0.800,2.512,0.395,0
22.050,6,7,-0.197,0.221,1.090,-0.400,-0.042,0.581,-1.500,2.000,1.400,0.800,2.227,0.219,0
22.100,6,7,-0.505,0.550,1.318,-0.252,0.130,0.690,-1.500,2.000,1.400,0.800,1.760,0.110,0
22.150,6,7,-0.836,0.975,1.475,-0.151,0.255,0.777,-1.500,2.000,1.400,0.800,1.223,0.023,0
22.200,6,7,-1.138,1.482,1.549,-0.001,0.310,0.830,-1.500,2.000,1.400,0.800,0.649,0.030,0
22.250,6,7,-1.366,2.054,1.580,0.171,0.237,0.849,-1.500,2.000,1.400,0.800,0.231,0.049,1
22.300,6,7,-1.476,2.628,1.616,0.375,0.084,0.809,-1.500,2.000,1.400,0.800,0.665,0.009,0
22.350,6,7,-1.468,3.104,1.666,0.375,-0.244,0.727,-1.500,2.000,1.400,0.800,1.136,0.073,0
22.400,6,7,-1.419,3.383,1.746,0.409,-0.459,0.694,-1.500,2.000,1.400,0.800,1.428,0.106,0
22.450,6,7,-1.387,3.433,1.834,0.222,-0.342,0.803,-1.500,2.000,1.400,0.800,1.501,0.003,0
22.500,6,7,-1.381,3.348,1.865,0.131,-0.267,0.839,-1.500,2.000,1.400,0.800,1.431,0.039,0
22.550,6,7,-1.403,3.184,1.811,-0.014,-0.207,0.883,-1.500,2.000,1.400,0.800,1.257,0.083,0
22.600,6,7,-1.454,2.963,1.697,-0.029,-0.095,0.900,-1.500,2.000,1.400,0.800,1.009,0.100,0
22.650,6,7,-1.531,2.722,1.572,-0.055,-0.006,0.893,-1.500,2.000,1.400,0.800,0.743,0.093,0
22.700,6,7,-1.628,2.497,1.488,-0.065,0.077,0.865,-1.500,2.000,1.400,0.800,0.520,0.065,0
22.750,6,7,-1.724,2.315,1.441,-0.051,0.128,0.827,-1.500,2.000,1.400,0.800,0.389,0.027,0
22.800,6,7,-1.800,2.189,1.427,-0.032,0.142,0.790,-1.500,2.000,1.400,0.800,0.356,0.010,0
22.850,6,7,-1.847,2.114,1.419,0.006,0.112,0.765,-1.500,2.000,1.400,0.800,0.365,0.035,0
22.900,6,7,-1.860,2.069,1.401,0.034,0.081,0.759,-1.500,2.000,1.400,0.800,0.367,0.041,0
22.950,6,7,-1.838,2.041,1.417,0.041,0.041,0.758,-1.500,2.000,1.400,0.800,0.341,0.042,0
23.000,6,7,-1.792,2.013,1.451,0.032,0.008,0.758,-1.500,2.000,1.400,0.800,0.297,0.042,1
23.050,6,7,-1.741,1.981,1.443,-0.033,0.031,0.774,-1.500,2.000,1.400,0.800,0.246,0.026,1
23.100,6,7,-1.695,1.959,1.422,0.009,0.007,0.763,-1.500,2.000,1.400,0.800,0.200,0.037,1
23.150,6,7,-1.649,1.943,1.438,-0.016,0.002,0.785,-1.500,2.000,1.400,0.800,0.164,0.015,1
23.200,6,7,-1.604,1.928,1.441,-0.028,-0.021,0.750,-1.500,2.000,1.400,0.800,0.133,0.050,1
23.250,6,7,-1.568,1.916,1.456,0.009,-0.016,0.757,-1.500,2.000,1.400,0.800,0.122,0.043,1
23.300,6,7,-1.535,1.904,1.473,0.051,-0.064,0.770,-1.500,2.000,1.400,0.800,0.126,0.030,1
23.350,6,7,-1.509,1.894,1.463,-0.013,-0.004,0.765,-1.500,2.000,1.400,0.800,0.123,0.035,1
23.400,6,7,-1.488,1.890,1.485,0.034,-0.053,0.779,-1.500,2.000,1.400,0.800,0.139,0.021,1
23.450,6,7,-1.473,1.890,1.495,-0.028,-0.002,0.792,-1.500,2.000,1.400,0.800,0.148,0.008,1
23.500,6,7,-1.467,1.894,1.507,-0.029,0.009,0.806,-1.500,2.000,1.400,0.800,0.154,0.006,1
23.550,6,7,-1.466,1.905,1.514,0.004,0.014,0.799,-1.500,2.000,1.400,0.800,0.152,0.001,1
23.600,6,7,-1.463,1.922,1.528,-0.011,-0.002,0.808,-1.500,2.000,1.400,0.800,0.155,0.008,1
23.650,6,7,-1.462,1.941,1.514,-0.015,-0.014,0.800,-1.500,2.000,1.400,0.800,0.134,0.000,1
23.700,6,7,-1.464,1.966,1.499,0.008,0.000,0.815,-1.500,2.000,1.400,0.800,0.110,0.015,1
23.750,6,7,-1.461,1.992,1.516,0.062,-0.017,0.833,-1.500,2.000,1.400,0.800,0.123,0.033,1
23.800,6,7,-1.458,2.010,1.519,0.014,-0.017,0.812,-1.500,2.000,1.400,0.800,0.126,0.012,1
23.850,6,7,-1.454,2.021,1.524,0.018,-0.030,0.801,-1.500,2.000,1.400,0.800,0.134,0.001,1
23.900,6,7,-1.457,2.031,1.460,-0.017,-0.002,0.829,-1.500,2.000,1.400,0.800,0.080,0.029,1
23.950,6,7,-1.465,2.048,1.425,-0.019,0.001,0.852,-1.500,2.000,1.400,0.800,0.064,0.052,1
24.000,6,7,-1.474,2.070,1.417,0.026,-0.001,0.835,-1.500,2.000,1.400,0.800,0.077,0.035,1
24.050,6,7,-1.474,2.087,1.445,0.023,-0.022,0.826,-1.500,2.000,1.400,0.800,0.101,0.026,1
24.100,6,7,-1.472,2.092,1.482,0.007,-0.028,0.811,-1.500,2.000,1.400,0.800,0.126,0.011,1
24.150,6,7,-1.472,2.085,1.497,-0.019,0.012,0.800,-1.500,2.000,1.400,0.800,0.132,0.000,1
24.200,6,7,-1.475,2.070,1.475,0.002,-0.005,0.801,-1.500,2.000,1.400,0.800,0.106,0.001,1
24.250,6,7,-1.480,2.056,1.488,-0.014,-0.004,0.810,-1.500,2.000,1.400,0.800,0.106,0.010,1
24.300,6,7,-1.490,2.039,1.479,-0.028,0.012,0.807,-1.500,2.000,1.400,0.800,0.088,0.007,1
24.350,6,7,-1.504,2.034,1.480,-0.028,0.014,0.839,-1.500,2.000,1.400,0.800,0.086,0.039,1
24.400,6,7,-1.517,2.035,1.474,-0.050,0.012,0.802,-1.500,2.000,1.400,0.800,0.084,0.002,1
24.450,6,7,-1.525,2.041,1.491,0.022,0.002,0.800,-1.500,2.000,1.400,0.800,0.103,0.000,1
24.500,6,7,-1.525,2.044,1.500,-0.035,-0.006,0.787,-1.500,2.000,1.400,0.800,0.112,0.013,1
24.550,6,7,-1.527,2.050,1.489,0.025,-0.001,0.796,-1.500,2.000,1.400,0.800,0.105,0.004,1
24.600,6,7,-1.521,2.050,1.506,0.034,-0.074,0.801,-1.500,2.000,1.400,0.800,0.119,0.001,1
24.650,6,7,-1.518,2.040,1.485,-0.007,-0.004,0.780,-1.500,2.000,1.400,0.800,0.095,0.020,1
24.700,6,7,-1.516,2.031,1.489,0.048,-0.002,0.813,-1.500,2.000,1.400,0.800,0.096,0.013,1
24.750,6,7,-1.514,2.022,1.460,-0.051,-0.014,0.785,-1.500,2.000,1.400,0.800,0.065,0.015,1
24.800,6,7,-1.519,2.020,1.462,0.018,0.007,0.783,-1.500,2.000,1.400,0.800,0.068,0.017,1
24.850,6,7,-1.517,2.017,1.492,0.022,-0.080,0.785,-1.500,2.000,1.400,0.800,0.095,0.015,1
24.900,6,7,-1.519,2.007,1.481,-0.002,0.006,0.768,-1.500,2.000,1.400,0.800,0.083,0.032,1
24.950,6,7,-1.518,2.001,1.486,0.013,-0.031,0.793,-1.500,2.000,1.400,0.800,0.088,0.007,1
25.000,7,8,-1.521,1.998,1.456,0.000,0.018,0.804,2.500,0.000,1.900,0.200,4.512,0.604,0
25.050,7,8,-1.378,1.977,1.440,0.703,0.807,0.365,2.500,0.000,1.900,0.200,4.378,0.165,0
25.100,7,8,-0.807,1.783,1.445,-1.119,-0.059,-0.721,2.500,0.000,1.900,0.200,3.784,0.921,0
25.150,7,8,-0.042,1.728,1.383,0.233,-0.053,-0.390,2.500,0.000,1.900,0.200,3.117,0.590,0
25.200,7,8,0.709,1.679,1.448,-0.287,-0.037,-0.411,2.500,0.000,1.900,0.200,2.496,0.611,0
25.250,7,8,1.468,1.631,1.457,-0.063,-0.136,-0.352,2.500,0.000,1.900,0.200,1.981,0.552,0
25.300,7,8,2.151,1.579,1.433,0.075,-0.182,-0.271,2.500,0.000,1.900,0.200,1.684,0.471,0
25.350,7,8,2.700,1.527,1.475,0.159,-0.349,-0.195,2.500,0.000,1.900,0.200,1.598,0.395,0
25.400,7,8,3.059,1.442,1.578,0.172,-0.434,-0.091,2.500,0.000,1.900,0.200,1.580,0.291,0
25.450,7,8,3.207,1.292,1.738,0.107,-0.378,0.041,2.500,0.000,1.900,0.200,1.482,0.159,0
25.500,7,8,3.228,1.067,1.848,0.098,-0.325,0.178,2.500,0.000,1.900,0.200,1.293,0.022,0
25.550,7,8,3.167,0.774,1.907,0.098,-0.140,0.256,2.500,0.000,1.900,0.200,1.021,0.056,0
25.600,7,8,3.061,0.439,1.872,-0.020,-0.134,0.327,2.500,0.000,1.900,0.200,0.713,0.127,0
25.650,7,8,2.921,0.088,1.852,-0.056,-0.016,0.352,2.500,0.000,1.900,0.200,0.433,0.152,0
25.700,7,8,2.773,-0.240,1.809,-0.211,0.032,0.376,2.500,0.000,1.900,0.200,0.375,0.176,0
25.750,7,8,2.627,-0.484,1.815,-0.288,0.105,0.362,2.500,0.000,1.900,0.200,0.507,0.162,0
25.800,7,8,2.500,-0.622,1.824,-0.238,0.148,0.301,2.500,0.000,1.900,0.200,0.627,0.101,0
25.850,7,8,2.403,-0.643,1.853,-0.169,0.120,0.265,2.500,0.000,1.900,0.200,0.652,0.065,0
25.900,7,8,2.335,-0.583,1.880,-0.107,0.075,0.219,2.500,0.000,1.900,0.200,0.606,0.019,0
25.950,7,8,2.287,-0.476,1.887,-0.057,0.045,0.182,2.500,0.000,1.900,0.200,0.522,0.018,0
26.000,7,8,2.254,-0.346,1.904,0.008,0.034,0.157,2.500,0.000,1.900,0.200,0.425,0.043,0
26.050,7,8,2.234,-0.216,1.910,0.029,0.025,0.144,2.500,0.000,1.900,0.200,0.342,0.056,0
26.100,7,8,2.228,-0.094,1.915,0.045,0.026,0.140,2.500,0.000,1.900,0.200,0.289,0.060,1
26.150,7,8,2.233,0.007,1.915,0.055,0.029,0.134,2.500,0.000,1.900,0.200,0.267,0.066,1
26.200,7,8,2.251,0.085,1.915,0.063,0.016,0.139,2.500,0.000,1.900,0.200,0.263,0.061,1
26.250,7,8,2.279,0.140,1.904,0.056,0.008,0.148,2.500,0.000,1.900,0.200,0.262,0.052,1
26.300,7,8,2.313,0.172,1.898,0.041,-0.005,0.161,2.500,0.000,1.900,0.200,0.254,0.039,1
26.350,7,8,2.351,0.186,1.882,0.027,-0.021,0.175,2.500,0.000,1.900,0.200,0.239,0.025,1
26.400,7,8,2.390,0.183,1.881,0.047,0.005,0.188,2.500,0.000,1.900,0.200,0.214,0.012,1
26.450,7,8,2.428,0.168,1.868,0.006,-0.017,0.196,2.500,0.000,1.900,0.200,0.186,0.004,1
26.500,7,8,2.463,0.147,1.861,-0.027,-0.035,0.216,2.500,0.000,1.900,0.200,0.156,0.016,1
26.550,7,8,2.494,0.122,1.843,0.015,-0.028,0.221,2.500,0.000,1.900,0.200,0.135,0.021,1
26.600,7,8,2.517,0.092,1.839,0.016,0.009,0.233,2.500,0.000,1.900,0.200,0.112,0.033,1
26.650,7,8,2.533,0.061,1.847,0.027,0.014,0.230,2.500,0.000,1.900,0.200,0.088,0.030,1
26.700,7,8,2.545,0.036,1.843,-0.033,-0.017,0.228,2.500,0.000,1.900,0.200,0.081,0.028,1
26.750,7,8,2.551,0.017,1.851,-0.032,-0.036,0.238,2.500,0.000,1.900,0.200,0.072,0.038,1
26.800,7,8,2.552,0.003,1.858,-0.020,-0.021,0.231,2.500,0.000,1.900,0.200,0.067,0.031,1
26.850,7,8,2.547,-0.004,1.858,-0.009,-0.010,0.228,2.500,0.000,1.900,0.200,0.063,0.028,1
26.900,7,8,2.539,-0.007,1.858,-0.016,-0.025,0.226,2.500,0.000,1.900,0.200,0.057,0.026,1
26.950,7,8,2.526,-0.009,1.846,-0.004,0.010,0.217,2.500,0.000,1.900,0.200,0.060,0.017,1
27.000,7,8,2.513,-0.006,1.852,-0.024,-0.014,0.217,2.500,0.000,1.900,0.200,0.050,0.017,1
27.050,7,8,2.503,-0.002,1.851,-0.012,0.002,0.215,2.500,0.000,1.900,0.200,0.049,0.015,1
27.100,7,8,2.494,0.004,1.846,-0.018,-0.010,0.211,2.500,0.000,1.900,0.200,0.055,0.011,1
27.150,7,8,2.488,0.011,1.850,0.002,0.013,0.210,2.500,0.000,1.900,0.200,0.053,0.010,1
27.200,7,8,2.484,0.017,1.859,0.007,0.007,0.212,2.500,0.000,1.900,0.200,0.047,0.012,1
27.250,7,8,2.481,0.022,1.859,-0.003,-0.010,0.210,2.500,0.000,1.900,0.200,0.050,0.010,1
27.300,7,8,2.479,0.025,1.861,-0.007,-0.005,0.209,2.500,0.000,1.900,0.200,0.051,0.009,1
27.350,7,8,2.477,0.027,1.857,0.005,-0.003,0.210,2.500,0.000,1.900,0.200,0.055,0.010,1
27.400,7,8,2.476,0.029,1.836,0.002,-0.011,0.200,2.500,0.000,1.900,0.200,0.074,0.000,1
27.450,7,8,2.473,0.032,1.833,-0.008,-0.008,0.200,2.500,0.000,1.900,0.200,0.079,0.000,1
27.500,7,8,2.473,0.033,1.846,-0.009,-0.014,0.212,2.500,0.000,1.900,0.200,0.069,0.012,1
27.550,7,8,2.474,0.034,1.852,0.003,0.009,0.215,2.500,0.000,1.900,0.200,0.064,0.015,1
27.600,7,8,2.478,0.035,1.865,0.011,0.004,0.215,2.500,0.000,1.900,0.200,0.054,0.015,1
27.650,7,8,2.483,0.034,1.850,-0.027,-0.018,0.212,2.500,0.000,1.900,0.200,0.063,0.012,1
27.700,7,8,2.490,0.034,1.861,0.000,0.003,0.218,2.500,0.000,1.900,0.200,0.052,0.018,1
27.750,7,8,2.496,0.031,1.866,0.007,0.015,0.219,2.500,0.000,1.900,0.200,0.046,0.019,1
27.800,7,8,2.501,0.029,1.863,-0.036,-0.010,0.219,2.500,0.000,1.900,0.200,0.047,0.019,1
27.850,7,8,2.506,0.028,1.864,0.020,0.005,0.216,2.500,0.000,1.900,0.200,0.046,0.016,1
27.900,7,8,2.508,0.026,1.859,-0.012,-0.014,0.217,2.500,0.000,1.900,0.200,0.049,0.017,1
27.950,7,8,2.510,0.025,1.857,-0.011,-0.026,0.220,2.500,0.000,1.900,0.200,0.051,0.020,1
28.000,7,8,2.510,0.023,1.864,-0.001,0.004,0.223,2.500,0.000,1.900,0.200,0.044,0.023,1
28.050,7,8,2.510,0.023,1.867,0.006,0.014,0.221,2.500,0.000,1.900,0.200,0.041,0.021,1
28.100,8,9,2.510,0.024,1.880,-0.068,-0.107,0.221,-2.500,0.000,2.100,-0.800,5.015,1.021,0
28.150,8,9,2.306,0.042,1.960,0.354,-0.864,-0.371,-2.500,0.000,2.100,-0.800,4.809,0.429,0
28.200,8,9,1.662,0.144,2.081,0.310,-0.189,-0.789,-2.500,0.000,2.100,-0.800,4.164,0.011,0
28.250,8,9,0.664,0.254,2.269,-0.051,-0.060,-1.096,-2.500,0.000,2.100,-0.800,3.179,0.296,0
28.300,8,9,-0.479,0.161,2.364,-0.055,0.646,-1.003,-2.500,0.000,2.100,-0.800,2.045,0.203,0
28.350,8,9,-1.534,-0.226,2.277,-0.188,0.523,-0.676,-2.500,0.000,2.100,-0.800,1.008,0.124,0
28.400,8,9,-2.360,-0.670,1.982,-0.052,0.386,-0.464,-2.500,0.000,2.100,-0.800,0.695,0.336,0
28.450,8,9,-2.830,-0.955,1.730,-0.548,0.191,-0.360,-2.500,0.000,2.100,-0.800,1.076,0.440,0
28.500,8,9,-3.021,-0.912,1.737,-0.372,0.038,-0.594,-2.500,0.000,2.100,-0.800,1.111,0.206,0
28.550,8,9,-3.066,-0.700,1.940,-0.222,-0.040,-0.768,-2.500,0.000,2.100,-0.800,0.915,0.032,0
28.600,8,9,-3.076,-0.440,2.037,-0.107,-0.024,-0.824,-2.500,0.000,2.100,-0.800,0.727,0.024,0
28.650,8,9,-3.057,-0.145,2.108,-0.039,0.015,-0.843,-2.500,0.000,2.100,-0.800,0.576,0.043,0
28.700,8,9,-3.022,0.152,2.161,-0.011,0.045,-0.853,-2.500,0.000,2.100,-0.800,0.547,0.053,0
28.750,8,9,-2.973,0.426,2.192,0.015,0.129,-0.863,-2.500,0.000,2.100,-0.800,0.643,0.063,0
28.800,8,9,-2.899,0.642,2.231,0.067,0.189,-0.881,-2.500,0.000,2.100,-0.800,0.767,0.081,0
28.850,8,9,-2.799,0.781,2.275,0.065,0.197,-0.890,-2.500,0.000,2.100,-0.800,0.854,0.090,0
28.900,8,9,-2.674,0.847,2.289,0.088,0.191,-0.920,-2.500,0.000,2.100,-0.800,0.885,0.120,0
28.950,8,9,-2.536,0.838,2.276,0.120,0.119,-0.929,-2.500,0.000,2.100,-0.800,0.857,0.129,0
29.000,8,9,-2.410,0.770,2.228,0.147,0.051,-0.928,-2.500,0.000,2.100,-0.800,0.786,0.128,0
29.050,8,9,-2.317,0.651,2.179,0.135,0.034,-0.901,-2.500,0.000,2.100,-0.800,0.681,0.101,0
29.100,8,9,-2.259,0.498,2.126,0.101,-0.010,-0.874,-2.500,0.000,2.100,-0.800,0.554,0.074,0
29.150,8,9,-2.235,0.328,2.080,0.051,-0.028,-0.838,-2.500,0.000,2.100,-0.800,0.422,0.038,0
29.200,8,9,-2.234,0.158,2.043,0.000,-0.053,-0.805,-2.500,0.000,2.100,-0.800,0.315,0.005,0
29.250,8,9,-2.245,0.005,2.012,-0.038,-0.073,-0.781,-2.500,0.000,2.100,-0.800,0.270,0.019,1
29.300,8,9,-2.263,-0.115,1.993,-0.081,-0.069,-0.768,-2.500,0.000,2.100,-0.800,0.285,0.032,1
29.350,8,9,-2.278,-0.193,1.994,-0.084,-0.083,-0.769,-2.500,0.000,2.100,-0.800,0.312,0.031,0
29.400,8,9,-2.294,-0.223,2.010,-0.085,-0.084,-0.784,-2.500,0.000,2.100,-0.800,0.317,0.016,0
29.450,8,9,-2.306,-0.210,2.030,-0.069,-0.060,-0.799,-2.500,0.000,2.100,-0.800,0.294,0.001,1
29.500,8,9,-2.315,-0.160,2.050,-0.046,-0.053,-0.805,-2.500,0.000,2.100,-0.800,0.250,0.005,1
29.550,8,9,-2.324,-0.085,2.061,-0.016,-0.018,-0.818,-2.500,0.000,2.100,-0.800,0.199,0.018,1
29.600,8,9,-2.331,0.003,2.081,0.001,0.004,-0.829,-2.500,0.000,2.100,-0.800,0.170,0.029,1
29.650,8,9,-2.335,0.092,2.100,-0.001,0.010,-0.838,-2.500,0.000,2.100,-0.800,0.189,0.038,1
29.700,8,9,-2.334,0.173,2.095,0.010,0.045,-0.833,-2.500,0.000,2.100,-0.800,0.240,0.033,1
29.750,8,9,-2.326,0.236,2.101,0.029,0.043,-0.846,-2.500,0.000,2.100,-0.800,0.293,0.046,1
29.800,8,9,-2.314,0.278,2.104,0.037,0.052,-0.851,-2.500,0.000,2.100,-0.800,0.334,0.051,0
29.850,8,9,-2.300,0.295,2.108,0.033,0.044,-0.849,-2.500,0.000,2.100,-0.800,0.357,0.049,0
29.900,8,9,-2.285,0.290,2.097,0.026,0.044,-0.850,-2.500,0.000,2.100,-0.800,0.361,0.050,0
29.950,8,9,-2.274,0.265,2.089,0.028,0.012,-0.844,-2.500,0.000,2.100,-0.800,0.348,0.044,0
