time_seconds,targets_hit,total_targets,drone_x,drone_y,drone_z,drone_roll,drone_pitch,drone_yaw,target_x,target_y,target_z,target_yaw,distance_to_target,yaw_error,is_hitting
0.000,0,1,0.000,0.000,1.001,-0.063,0.062,0.004,1.000,1.000,1.500,0.000,1.500,0.004,0
0.050,0,1,0.066,0.070,1.126,-0.234,0.127,-0.081,1.000,1.000,1.500,0.000,1.370,0.081,0
0.100,0,1,0.209,0.239,1.314,-0.130,-0.010,-0.127,1.000,1.000,1.500,0.000,1.113,0.127,0
0.150,0,1,0.360,0.451,1.426,-0.050,-0.050,-0.141,1.000,1.000,1.500,0.000,0.846,0.141,0
0.200,0,1,0.497,0.677,1.485,0.063,-0.069,-0.149,1.000,1.000,1.500,0.000,0.598,0.149,0
0.250,0,1,0.604,0.886,1.519,0.098,-0.040,-0.113,1.000,1.000,1.500,0.000,0.412,0.113,0
0.300,0,1,0.691,1.060,1.547,0.109,-0.013,-0.066,1.000,1.000,1.500,0.000,0.319,0.066,0
0.350,0,1,0.769,1.188,1.604,0.129,-0.028,-0.035,1.000,1.000,1.500,0.000,0.315,0.035,0
0.400,0,1,0.837,1.262,1.653,0.163,-0.033,-0.078,1.000,1.000,1.500,0.000,0.345,0.078,0
0.450,0,1,0.889,1.284,1.664,0.083,-0.044,-0.058,1.000,1.000,1.500,0.000,0.346,0.058,0
0.500,0,1,0.932,1.275,1.599,0.090,-0.020,-0.051,1.000,1.000,1.500,0.000,0.300,0.051,0
0.550,0,1,0.966,1.229,1.568,0.061,-0.042,-0.038,1.000,1.000,1.500,0.000,0.242,0.038,1
0.600,0,1,0.985,1.161,1.561,0.021,-0.073,-0.027,1.000,1.000,1.500,0.000,0.173,0.027,1
0.650,0,1,0.992,1.086,1.540,0.008,-0.017,0.008,1.000,1.000,1.500,0.000,0.095,0.008,1
0.700,0,1,0.995,1.014,1.550,-0.013,-0.013,0.023,1.000,1.000,1.500,0.000,0.052,0.023,1
0.750,0,1,0.993,0.950,1.521,-0.040,0.011,0.009,1.000,1.000,1.500,0.000,0.055,0.009,1
0.800,0,1,0.994,0.902,1.476,-0.055,-0.002,0.012,1.000,1.000,1.500,0.000,0.101,0.012,1
0.850,0,1,0.999,0.879,1.450,-0.057,-0.009,0.001,1.000,1.000,1.500,0.000,0.131,0.001,1
0.900,0,1,1.003,0.880,1.459,-0.033,-0.019,0.002,1.000,1.000,1.500,0.000,0.126,0.002,1
0.950,0,1,1.001,0.897,1.504,-0.008,-0.021,0.014,1.000,1.000,1.500,0.000,0.103,0.014,1
1.000,0,1,0.993,0.916,1.545,0.004,0.009,-0.026,1.000,1.000,1.500,0.000,0.095,0.026,1
1.050,0,1,0.984,0.934,1.572,0.016,-0.010,-0.020,1.000,1.000,1.500,0.000,0.099,0.020,1
1.100,0,1,0.976,0.949,1.580,-0.012,0.006,-0.010,1.000,1.000,1.500,0.000,0.098,0.010,1
1.150,0,1,0.972,0.969,1.572,0.005,-0.002,0.027,1.000,1.000,1.500,0.000,0.084,0.027,1
1.200,0,1,0.970,0.988,1.594,0.018,-0.008,0.036,1.000,1.000,1.500,0.000,0.100,0.036,1
1.250,0,1,0.967,1.000,1.611,0.027,0.017,-0.017,1.000,1.000,1.500,0.000,0.116,0.017,1
1.300,0,1,0.966,1.001,1.616,0.029,-0.011,-0.015,1.000,1.000,1.500,0.000,0.121,0.015,1
1.350,0,1,0.963,0.995,1.613,-0.019,0.050,-0.029,1.000,1.000,1.500,0.000,0.119,0.029,1
1.400,0,1,0.966,0.990,1.613,0.005,-0.016,0.018,1.000,1.000,1.500,0.000,0.119,0.018,1
1.450,0,1,0.968,0.980,1.634,-0.011,-0.041,-0.005,1.000,1.000,1.500,0.000,0.139,0.005,1
1.500,0,1,0.968,0.969,1.583,-0.025,0.010,0.013,1.000,1.000,1.500,0.000,0.094,0.013,1
1.550,0,1,0.975,0.968,1.533,-0.024,0.001,0.034,1.000,1.000,1.500,0.000,0.052,0.034,1
1.600,0,1,0.985,0.978,1.515,-0.013,-0.008,0.043,1.000,1.000,1.500,0.000,0.031,0.043,1
1.650,0,1,0.993,0.995,1.529,0.007,-0.019,0.043,1.000,1.000,1.500,0.000,0.030,0.043,1
1.700,0,1,0.996,1.009,1.574,0.050,-0.017,0.024,1.000,1.000,1.500,0.000,0.075,0.024,1
1.750,0,1,0.992,1.013,1.577,-0.010,0.008,-0.007,1.000,1.000,1.500,0.000,0.078,0.007,1
1.800,0,1,0.989,1.013,1.571,0.010,-0.013,0.014,1.000,1.000,1.500,0.000,0.073,0.014,1
1.850,0,1,0.984,1.010,1.598,0.016,-0.010,0.025,1.000,1.000,1.500,0.000,0.100,0.025,1
1.900,0,1,0.978,1.002,1.586,-0.003,0.003,-0.004,1.000,1.000,1.500,0.000,0.089,0.004,1
1.950,0,1,0.974,0.994,1.584,0.008,-0.011,0.005,1.000,1.000,1.500,0.000,0.088,0.005,1
2.000,0,1,0.968,0.985,1.601,0.036,0.019,-0.017,1.000,1.000,1.500,0.000,0.107,0.017,1
2.050,0,1,0.963,0.973,1.560,-0.010,0.008,-0.009,1.000,1.000,1.500,0.000,0.075,0.009,1
2.100,0,1,0.964,0.968,1.538,-0.009,-0.005,-0.003,1.000,1.000,1.500,0.000,0.061,0.003,1
2.150,0,1,0.965,0.968,1.552,0.003,-0.014,0.013,1.000,1.000,1.500,0.000,0.070,0.013,1
2.200,0,1,0.964,0.967,1.592,-0.039,0.021,-0.012,1.000,1.000,1.500,0.000,0.104,0.012,1
2.250,0,1,0.963,0.969,1.582,0.009,-0.008,-0.006,1.000,1.000,1.500,0.000,0.095,0.006,1
2.300,0,1,0.962,0.971,1.606,0.013,-0.013,0.006,1.000,1.000,1.500,0.000,0.116,0.006,1
2.350,0,1,0.960,0.968,1.598,0.003,0.002,-0.019,1.000,1.000,1.500,0.000,0.110,0.019,1
2.400,0,1,0.960,0.965,1.601,0.007,-0.014,0.002,1.000,1.000,1.500,0.000,0.115,0.002,1
2.450,0,1,0.957,0.959,1.610,-0.030,0.033,-0.028,1.000,1.000,1.500,0.000,0.125,0.028,1
2.500,0,1,0.959,0.953,1.593,0.002,-0.012,-0.009,1.000,1.000,1.500,0.000,0.112,0.009,1
2.550,1,2,0.935,0.975,1.552,-0.115,-0.579,0.535,-1.000,1.000,1.000,0.500,2.012,0.035,0
2.600,1,2,0.692,0.976,1.559,-0.250,-0.171,0.591,-1.000,1.000,1.000,0.500,1.782,0.091,0
2.650,1,2,0.363,0.987,1.480,-0.116,-0.059,0.684,-1.000,1.000,1.000,0.500,1.445,0.184,0
2.700,1,2,-0.001,1.023,1.367,-0.079,0.049,0.698,-1.000,1.000,1.000,0.500,1.064,0.198,0
2.750,1,2,-0.363,1.088,1.301,0.016,0.086,0.676,-1.000,1.000,1.000,0.500,0.710,0.176,0
2.800,1,2,-0.685,1.165,1.243,0.064,0.113,0.626,-1.000,1.000,1.000,0.500,0.431,0.126,0
2.850,1,2,-0.945,1.245,1.222,0.077,0.137,0.563,-1.000,1.000,1.000,0.500,0.335,0.063,0
2.900,1,2,-1.138,1.311,1.208,0.151,0.115,0.515,-1.000,1.000,1.000,0.500,0.399,0.015,0
2.950,1,2,-1.251,1.356,1.232,0.166,0.123,0.477,-1.000,1.000,1.000,0.500,0.493,0.023,0
3.000,1,2,-1.289,1.364,1.265,0.131,0.052,0.440,-1.000,1.000,1.000,0.500,0.535,0.060,0
3.050,1,2,-1.290,1.344,1.230,0.137,-0.014,0.449,-1.000,1.000,1.000,0.500,0.505,0.051,0
3.100,1,2,-1.260,1.295,1.182,0.070,0.004,0.476,-1.000,1.000,1.000,0.500,0.433,0.024,0
3.150,1,2,-1.213,1.224,1.132,0.022,0.007,0.481,-1.000,1.000,1.000,0.500,0.337,0.019,0
3.200,1,2,-1.163,1.148,1.083,0.006,0.013,0.506,-1.000,1.000,1.000,0.500,0.236,0.006,1
3.250,1,2,-1.116,1.075,1.054,-0.031,-0.027,0.488,-1.000,1.000,1.000,0.500,0.148,0.012,1
3.300,1,2,-1.083,1.009,1.031,-0.058,-0.001,0.490,-1.000,1.000,1.000,0.500,0.089,0.010,1
3.350,1,2,-1.056,0.965,0.995,-0.034,0.011,0.543,-1.000,1.000,1.000,0.500,0.067,0.043,1
3.400,1,2,-1.030,0.940,0.989,-0.039,0.026,0.566,-1.000,1.000,1.000,0.500,0.068,0.066,1
3.450,1,2,-1.004,0.935,1.011,-0.026,-0.002,0.571,-1.000,1.000,1.000,0.500,0.066,0.071,1
3.500,1,2,-0.983,0.940,1.064,-0.007,-0.017,0.561,-1.000,1.000,1.000,0.500,0.089,0.061,1
3.550,1,2,-0.968,0.941,1.109,-0.003,-0.029,0.497,-1.000,1.000,1.000,0.500,0.128,0.003,1
3.600,1,2,-0.958,0.939,1.136,-0.027,-0.014,0.469,-1.000,1.000,1.000,0.500,0.155,0.031,1
3.650,1,2,-0.953,0.935,1.119,0.017,-0.007,0.460,-1.000,1.000,1.000,0.500,0.143,0.040,1
3.700,1,2,-0.950,0.928,1.133,0.028,-0.057,0.486,-1.000,1.000,1.000,0.500,0.159,0.014,1
3.750,1,2,-0.950,0.920,1.131,-0.015,-0.000,0.509,-1.000,1.000,1.000,0.500,0.161,0.009,1
3.800,1,2,-0.950,0.916,1.129,-0.002,-0.011,0.502,-1.000,1.000,1.000,0.500,0.161,0.002,1
3.850,1,2,-0.947,0.915,1.145,0.037,0.001,0.509,-1.000,1.000,1.000,0.500,0.176,0.009,1
3.900,1,2,-0.944,0.911,1.152,0.006,-0.011,0.490,-1.000,1.000,1.000,0.500,0.185,0.010,1
3.950,1,2,-0.946,0.904,1.151,-0.104,0.007,0.481,-1.000,1.000,1.000,0.500,0.187,0.019,1
4.000,1,2,-0.953,0.904,1.109,-0.024,0.029,0.531,-1.000,1.000,1.000,0.500,0.153,0.031,1
4.050,1,2,-0.953,0.920,1.100,-0.025,0.022,0.583,-1.000,1.000,1.000,0.500,0.137,0.083,1
4.100,1,2,-0.953,0.950,1.120,-0.010,0.003,0.602,-1.000,1.000,1.000,0.500,0.138,0.102,0
4.150,1,2,-0.952,0.977,1.157,0.053,-0.014,0.534,-1.000,1.000,1.000,0.500,0.165,0.034,1
4.200,1,2,-0.951,0.988,1.182,0.006,-0.008,0.529,-1.000,1.000,1.000,0.500,0.189,0.029,1
4.250,1,2,-0.947,0.990,1.161,0.026,-0.004,0.507,-1.000,1.000,1.000,0.500,0.170,0.007,1
4.300,1,2,-0.940,0.983,1.168,0.048,-0.016,0.506,-1.000,1.000,1.000,0.500,0.179,0.006,1
4.350,1,2,-0.935,0.967,1.169,0.003,-0.017,0.492,-1.000,1.000,1.000,0.500,0.184,0.008,1
4.400,1,2,-0.932,0.948,1.164,-0.011,-0.007,0.500,-1.000,1.000,1.000,0.500,0.185,0.000,1
4.450,1,2,-0.931,0.930,1.151,-0.004,-0.007,0.489,-1.000,1.000,1.000,0.500,0.180,0.011,1
4.500,1,2,-0.931,0.913,1.159,0.023,-0.050,0.487,-1.000,1.000,1.000,0.500,0.194,0.013,1
4.550,1,2,-0.932,0.898,1.160,-0.012,-0.002,0.490,-1.000,1.000,1.000,0.500,0.201,0.010,1
4.600,1,2,-0.937,0.888,1.142,-0.027,0.022,0.511,-1.000,1.000,1.000,0.500,0.191,0.011,1
4.650,1,2,-0.942,0.894,1.133,-0.038,0.026,0.570,-1.000,1.000,1.000,0.500,0.180,0.070,1
4.700,1,2,-0.947,0.916,1.145,0.028,-0.018,0.570,-1.000,1.000,1.000,0.500,0.176,0.070,1
4.750,1,2,-0.948,0.934,1.179,0.033,-0.073,0.501,-1.000,1.000,1.000,0.500,0.198,0.001,1
4.800,1,2,-0.953,0.937,1.193,0.037,0.012,0.481,-1.000,1.000,1.000,0.500,0.209,0.019,1
4.850,1,2,-0.954,0.935,1.165,0.014,-0.001,0.479,-1.000,1.000,1.000,0.500,0.183,0.021,1
4.900,1,2,-0.952,0.929,1.167,0.048,-0.043,0.491,-1.000,1.000,1.000,0.500,0.188,0.009,1
4.950,1,2,-0.948,0.920,1.160,0.003,-0.008,0.490,-1.000,1.000,1.000,0.500,0.187,0.010,1
5.000,1,2,-0.946,0.910,1.152,-0.020,0.018,0.504,-1.000,1.000,1.000,0.500,0.184,0.004,1
5.050,1,2,-0.947,0.911,1.136,-0.035,0.019,0.565,-1.000,1.000,1.000,0.500,0.171,0.065,1
5.100,1,2,-0.948,0.927,1.145,0.044,0.015,0.579,-1.000,1.000,1.000,0.500,0.171,0.079,1
5.150,1,2,-0.946,0.944,1.137,0.035,-0.006,0.513,-1.000,1.000,1.000,0.500,0.157,0.013,1
5.200,1,2,-0.937,0.950,1.162,0.023,-0.033,0.478,-1.000,1.000,1.000,0.500,0.181,0.022,1
5.250,1,2,-0.934,0.946,1.168,0.004,-0.012,0.492,-1.000,1.000,1.000,0.500,0.189,0.008,1
5.300,1,2,-0.932,0.940,1.157,0.004,-0.007,0.494,-1.000,1.000,1.000,0.500,0.181,0.006,1
5.350,1,2,-0.931,0.931,1.156,-0.005,-0.007,0.489,-1.000,1.000,1.000,0.500,0.184,0.011,1
5.400,1,2,-0.931,0.920,1.161,-0.005,-0.009,0.495,-1.000,1.000,1.000,0.500,0.193,0.005,1
5.450,1,2,-0.937,0.909,1.166,0.025,0.014,0.503,-1.000,1.000,1.000,0.500,0.199,0.003,1
5.500,1,2,-0.943,0.901,1.153,-0.001,0.001,0.490,-1.000,1.000,1.000,0.500,0.191,0.010,1
5.550,1,2,-0.946,0.896,1.165,-0.021,-0.022,0.504,-1.000,1.000,1.000,0.500,0.203,0.004,1
5.600,1,2,-0.954,0.894,1.161,-0.008,0.013,0.497,-1.000,1.000,1.000,0.500,0.198,0.003,1
5.650,1,2,-0.955,0.895,1.160,0.005,-0.002,0.496,-1.000,1.000,1.000,0.500,0.196,0.004,1
5.700,1,2,-0.954,0.896,1.173,0.011,0.001,0.485,-1.000,1.000,1.000,0.500,0.207,0.015,1
5.750,1,2,-0.951,0.896,1.180,-0.001,-0.003,0.480,-1.000,1.000,1.000,0.500,0.213,0.020,1
5.800,1,2,-0.949,0.896,1.182,-0.012,-0.010,0.481,-1.000,1.000,1.000,0.500,0.216,0.019,1
5.850,1,2,-0.945,0.895,1.185,0.012,-0.032,0.491,-1.000,1.000,1.000,0.500,0.220,0.009,1
5.900,1,2,-0.945,0.895,1.159,-0.030,0.011,0.532,-1.000,1.000,1.000,0.500,0.198,0.032,1
5.950,1,2,-0.945,0.909,1.152,-0.023,0.006,0.577,-1.000,1.000,1.000,0.500,0.185,0.077,1
6.000,1,2,-0.946,0.934,1.164,0.029,0.018,0.557,-1.000,1.000,1.000,0.500,0.184,0.057,1
6.050,1,2,-0.940,0.952,1.163,0.040,-0.024,0.497,-1.000,1.000,1.000,0.500,0.180,0.003,1
6.100,1,2,-0.933,0.954,1.179,0.032,-0.033,0.471,-1.000,1.000,1.000,0.500,0.196,0.029,1
6.150,2,3,-0.906,0.907,1.230,1.014,-0.089,0.273,2.000,-1.500,2.000,1.000,3.851,0.727,0
6.200,2,3,-0.765,0.504,1.418,0.189,0.116,0.287,2.000,-1.500,2.000,1.000,3.464,0.713,0
6.250,2,3,-0.526,-0.044,1.765,-0.009,-0.065,0.504,2.000,-1.500,2.000,1.000,2.925,0.496,0
6.300,2,3,-0.270,-0.604,1.840,-0.364,-0.004,0.959,2.000,-1.500,2.000,1.000,2.446,0.041,0
6.350,2,3,-0.005,-1.191,1.683,0.694,-0.505,1.152,2.000,-1.500,2.000,1.000,2.054,0.152,0
6.400,2,3,0.413,-2.023,1.652,-0.039,-0.123,1.080,2.000,-1.500,2.000,1.000,1.707,0.080,0
6.450,2,3,0.803,-2.872,1.648,-0.391,0.039,0.966,2.000,-1.500,2.000,1.000,1.854,0.034,0
6.500,2,3,1.063,-3.566,1.742,-0.216,0.294,0.901,2.000,-1.500,2.000,1.000,2.283,0.099,0
6.550,2,3,1.252,-4.047,1.950,-0.230,0.543,0.763,2.000,-1.500,2.000,1.000,2.655,0.237,0
6.600,2,3,1.443,-4.191,2.285,-0.392,0.531,0.603,2.000,-1.500,2.000,1.000,2.763,0.397,0
6.650,2,3,1.650,-4.038,2.630,-0.411,0.369,0.703,2.000,-1.500,2.000,1.000,2.638,0.297,0
6.700,2,3,1.854,-3.774,2.758,-0.279,0.168,0.775,2.000,-1.500,2.000,1.000,2.402,0.225,0
6.750,2,3,2.033,-3.454,2.662,-0.170,-0.050,0.870,2.000,-1.500,2.000,1.000,2.063,0.130,0
6.800,2,3,2.156,-3.100,2.475,-0.173,-0.048,0.902,2.000,-1.500,2.000,1.000,1.676,0.098,0
6.850,2,3,2.212,-2.737,2.333,-0.122,-0.060,0.911,2.000,-1.500,2.000,1.000,1.298,0.089,0
6.900,2,3,2.212,-2.385,2.237,-0.014,-0.132,0.923,2.000,-1.500,2.000,1.000,0.940,0.077,0
6.950,2,3,2.182,-2.066,2.142,0.038,-0.103,0.929,2.000,-1.500,2.000,1.000,0.612,0.071,0
7.000,2,3,2.135,-1.798,2.082,0.060,-0.134,0.934,2.000,-1.500,2.000,1.000,0.337,0.066,0
7.050,2,3,2.078,-1.591,2.054,0.090,-0.111,0.940,2.000,-1.500,2.000,1.000,0.131,0.060,1
7.100,2,3,2.025,-1.445,2.054,0.090,-0.104,0.953,2.000,-1.500,2.000,1.000,0.081,0.047,1
7.150,2,3,1.981,-1.352,2.051,0.110,-0.076,0.967,2.000,-1.500,2.000,1.000,0.158,0.033,1
7.200,2,3,1.952,-1.304,2.037,0.081,-0.052,0.985,2.000,-1.500,2.000,1.000,0.205,0.015,1
7.250,2,3,1.940,-1.291,2.029,0.069,-0.037,1.001,2.000,-1.500,2.000,1.000,0.220,0.001,1
7.300,2,3,1.941,-1.300,2.000,0.049,-0.026,1.000,2.000,-1.500,2.000,1.000,0.209,0.000,1
7.350,2,3,1.952,-1.327,1.980,0.018,-0.013,1.015,2.000,-1.500,2.000,1.000,0.180,0.015,1
7.400,2,3,1.966,-1.362,1.960,0.009,0.003,1.028,2.000,-1.500,2.000,1.000,0.147,0.028,1
7.450,2,3,1.983,-1.399,1.950,0.019,0.009,1.028,2.000,-1.500,2.000,1.000,0.114,0.028,1
7.500,2,3,2.002,-1.436,1.941,-0.014,0.019,1.026,2.000,-1.500,2.000,1.000,0.087,0.026,1
7.550,2,3,2.020,-1.467,1.935,-0.013,0.017,1.030,2.000,-1.500,2.000,1.000,0.075,0.030,1
7.600,2,3,2.036,-1.489,1.933,-0.015,0.016,1.026,2.000,-1.500,2.000,1.000,0.077,0.026,1
7.650,2,3,2.049,-1.503,1.927,-0.024,-0.000,1.014,2.000,-1.500,2.000,1.000,0.088,0.014,1
7.700,2,3,2.058,-1.512,1.936,-0.011,0.005,1.013,2.000,-1.500,2.000,1.000,0.087,0.013,1
7.750,2,3,2.064,-1.515,1.944,-0.011,0.006,1.008,2.000,-1.500,2.000,1.000,0.086,0.008,1
7.800,2,3,2.068,-1.516,1.930,-0.007,-0.004,1.002,2.000,-1.500,2.000,1.000,0.099,0.002,1
7.850,2,3,2.071,-1.515,1.930,0.008,-0.007,0.987,2.000,-1.500,2.000,1.000,0.101,0.013,1
7.900,2,3,2.074,-1.515,1.937,-0.012,0.001,1.003,2.000,-1.500,2.000,1.000,0.098,0.003,1
7.950,2,3,2.073,-1.511,1.948,0.009,-0.007,1.006,2.000,-1.500,2.000,1.000,0.091,0.006,1
8.000,2,3,2.071,-1.510,1.946,0.001,-0.002,0.998,2.000,-1.500,2.000,1.000,0.090,0.002,1
8.050,2,3,2.068,-1.509,1.959,-0.004,0.001,1.004,2.000,-1.500,2.000,1.000,0.080,0.004,1
8.100,2,3,2.064,-1.508,1.938,-0.001,-0.001,0.999,2.000,-1.500,2.000,1.000,0.090,0.001,1
8.150,2,3,2.061,-1.505,1.953,0.011,-0.005,0.995,2.000,-1.500,2.000,1.000,0.077,0.005,1
8.200,2,3,2.058,-1.502,1.929,-0.008,-0.001,1.006,2.000,-1.500,2.000,1.000,0.092,0.006,1
8.250,2,3,2.053,-1.495,1.934,0.004,-0.005,1.006,2.000,-1.500,2.000,1.000,0.085,0.006,1
8.300,2,3,2.049,-1.488,1.933,-0.002,-0.005,1.006,2.000,-1.500,2.000,1.000,0.084,0.006,1
8.350,2,3,2.045,-1.482,1.931,0.005,-0.006,1.005,2.000,-1.500,2.000,1.000,0.084,0.005,1
8.400,2,3,2.042,-1.476,1.937,0.004,-0.004,1.006,2.000,-1.500,2.000,1.000,0.079,0.006,1
8.450,2,3,2.039,-1.472,1.928,0.004,-0.006,1.006,2.000,-1.500,2.000,1.000,0.086,0.006,1
8.500,2,3,2.037,-1.469,1.943,-0.001,-0.004,1.006,2.000,-1.500,2.000,1.000,0.075,0.006,1
8.550,2,3,2.036,-1.468,1.927,0.002,-0.004,1.007,2.000,-1.500,2.000,1.000,0.088,0.007,1
8.600,2,3,2.036,-1.467,1.946,0.011,-0.006,1.008,2.000,-1.500,2.000,1.000,0.073,0.008,1
8.650,2,3,2.036,-1.467,1.926,-0.001,-0.004,1.009,2.000,-1.500,2.000,1.000,0.089,0.009,1
8.700,2,3,2.037,-1.468,1.938,0.007,-0.006,1.009,2.000,-1.500,2.000,1.000,0.079,0.009,1
8.750,2,3,2.038,-1.469,1.926,-0.001,-0.002,1.009,2.000,-1.500,2.000,1.000,0.088,0.009,1
8.800,2,3,2.038,-1.470,1.931,0.003,-0.005,1.009,2.000,-1.500,2.000,1.000,0.085,0.009,1
8.850,2,3,2.040,-1.471,1.928,-0.003,-0.004,1.009,2.000,-1.500,2.000,1.000,0.087,0.009,1
8.900,2,3,2.040,-1.473,1.926,0.001,-0.004,1.009,2.000,-1.500,2.000,1.000,0.089,0.009,1
8.950,2,3,2.041,-1.474,1.932,-0.001,-0.001,1.008,2.000,-1.500,2.000,1.000,0.084,0.008,1
9.000,2,3,2.042,-1.474,1.922,-0.001,-0.004,1.008,2.000,-1.500,2.000,1.000,0.092,0.008,1
9.050,3,4,1.984,-1.478,1.917,-0.991,-0.492,1.366,-2.000,-1.500,1.800,1.500,3.986,0.134,0
9.100,3,4,1.540,-1.508,1.922,-1.076,0.134,1.503,-2.000,-1.500,1.800,1.500,3.542,0.003,0
9.150,3,4,0.673,-1.398,2.022,-0.257,0.486,1.446,-2.000,-1.500,1.800,1.500,2.684,0.054,0
9.200,3,4,-0.331,-1.122,2.092,0.167,0.527,1.781,-2.000,-1.500,1.800,1.500,1.736,0.281,0
9.250,3,4,-1.396,-0.614,2.062,0.610,1.003,1.932,-2.000,-1.500,1.800,1.500,1.104,0.432,0
9.300,3,4,-2.399,0.154,1.876,0.469,0.399,1.727,-2.000,-1.500,1.800,1.500,1.703,0.227,0
9.350,3,4,-3.063,1.111,1.844,0.886,-0.124,1.765,-2.000,-1.500,1.800,1.500,2.820,0.265,0
9.400,3,4,-3.161,2.025,1.928,1.615,-0.781,0.416,-2.000,-1.500,1.800,1.500,3.713,1.084,0
9.450,3,4,-3.066,2.455,1.804,0.686,-1.270,0.190,-2.000,-1.500,1.800,1.500,4.096,1.310,0
9.500,3,4,-3.075,2.430,1.449,0.793,-1.249,1.420,-2.000,-1.500,1.800,1.500,4.090,0.080,0
9.550,3,4,-2.832,1.866,0.936,0.047,-0.820,0.784,-2.000,-1.500,1.800,1.500,3.573,0.716,0
9.600,3,4,-2.871,0.804,0.425,-0.439,-0.463,0.424,-2.000,-1.500,1.800,1.500,2.821,1.076,0
9.650,3,4,-0.015,0.006,1.021,-0.471,-0.810,0.358,-2.000,-1.500,1.800,1.500,2.611,1.142,0
9.700,3,4,-0.257,-0.063,1.080,-0.308,-0.117,1.235,-2.000,-1.500,1.800,1.500,2.371,0.265,0
9.750,3,4,-0.661,-0.228,1.302,-0.278,-0.031,1.467,-2.000,-1.500,1.800,1.500,1.913,0.033,0
9.800,3,4,-1.154,-0.360,1.451,-0.097,0.118,1.582,-2.000,-1.500,1.800,1.500,1.461,0.082,0
9.850,3,4,-1.684,-0.446,1.547,0.004,0.130,1.627,-2.000,-1.500,1.800,1.500,1.129,0.127,0
9.900,3,4,-2.200,-0.482,1.648,0.155,0.079,1.622,-2.000,-1.500,1.800,1.500,1.048,0.122,0
9.950,3,4,-2.658,-0.484,1.754,0.219,0.011,1.571,-2.000,-1.500,1.800,1.500,1.211,0.071,0
10.000,3,4,-3.018,-0.480,1.897,0.270,-0.033,1.521,-2.000,-1.500,1.800,1.500,1.444,0.021,0
10.050,3,4,-3.269,-0.498,2.038,0.327,-0.075,1.477,-2.000,-1.500,1.800,1.500,1.635,0.023,0
10.100,3,4,-3.404,-0.552,2.143,0.338,-0.096,1.485,-2.000,-1.500,1.800,1.500,1.728,0.015,0
10.150,3,4,-3.423,-0.647,2.196,0.283,-0.112,1.488,-2.000,-1.500,1.800,1.500,1.706,0.012,0
10.200,3,4,-3.349,-0.786,2.187,0.241,-0.122,1.500,-2.000,-1.500,1.800,1.500,1.574,0.000,0
10.250,3,4,-3.196,-0.963,2.134,0.190,-0.105,1.519,-2.000,-1.500,1.800,1.500,1.353,0.019,0
10.300,3,4,-2.979,-1.177,2.067,0.135,-0.104,1.515,-2.000,-1.500,1.800,1.500,1.064,0.015,0
10.350,3,4,-2.718,-1.422,1.980,0.070,-0.031,1.510,-2.000,-1.500,1.800,1.500,0.744,0.010,0
10.400,3,4,-2.436,-1.676,1.903,-0.030,0.018,1.499,-2.000,-1.500,1.800,1.500,0.481,0.001,0
10.450,3,4,-2.172,-1.914,1.842,-0.132,0.091,1.494,-2.000,-1.500,1.800,1.500,0.450,0.006,0
10.500,3,4,-1.961,-2.102,1.813,-0.179,0.185,1.485,-2.000,-1.500,1.800,1.500,0.603,0.015,0
10.550,3,4,-1.821,-2.205,1.806,-0.199,0.238,1.485,-2.000,-1.500,1.800,1.500,0.727,0.015,0
10.600,3,4,-1.753,-2.200,1.830,-0.140,0.187,1.465,-2.000,-1.500,1.800,1.500,0.743,0.035,0
10.650,3,4,-1.733,-2.117,1.845,-0.083,0.115,1.456,-2.000,-1.500,1.800,1.500,0.674,0.044,0
10.700,3,4,-1.743,-1.988,1.840,-0.063,0.059,1.464,-2.000,-1.500,1.800,1.500,0.553,0.036,0
10.750,3,4,-1.774,-1.835,1.835,-0.041,-0.012,1.475,-2.000,-1.500,1.800,1.500,0.406,0.025,0
10.800,3,4,-1.815,-1.681,1.838,0.006,-0.066,1.493,-2.000,-1.500,1.800,1.500,0.261,0.007,1
10.850,3,4,-1.860,-1.545,1.824,0.020,-0.073,1.497,-2.000,-1.500,1.800,1.500,0.149,0.003,1
10.900,3,4,-1.904,-1.439,1.813,0.016,-0.088,1.506,-2.000,-1.500,1.800,1.500,0.114,0.006,1
10.950,3,4,-1.945,-1.368,1.807,0.013,-0.093,1.511,-2.000,-1.500,1.800,1.500,0.143,0.011,1
11.000,3,4,-1.981,-1.334,1.800,0.007,-0.082,1.508,-2.000,-1.500,1.800,1.500,0.167,0.008,1
11.050,3,4,-2.013,-1.332,1.798,0.001,-0.054,1.513,-2.000,-1.500,1.800,1.500,0.169,0.013,1
11.100,3,4,-2.045,-1.346,1.783,-0.006,-0.026,1.533,-2.000,-1.500,1.800,1.500,0.161,0.033,1
11.150,3,4,-2.078,-1.370,1.800,-0.004,-0.018,1.531,-2.000,-1.500,1.800,1.500,0.151,0.031,1
11.200,3,4,-2.103,-1.402,1.789,0.029,0.002,1.514,-2.000,-1.500,1.800,1.500,0.143,0.014,1
11.250,3,4,-2.123,-1.434,1.765,0.016,0.007,1.507,-2.000,-1.500,1.800,1.500,0.144,0.007,1
11.300,3,4,-2.136,-1.466,1.767,0.018,0.009,1.499,-2.000,-1.500,1.800,1.500,0.144,0.001,1
11.350,3,4,-2.143,-1.498,1.759,0.018,0.020,1.491,-2.000,-1.500,1.800,1.500,0.149,0.009,1
11.400,3,4,-2.143,-1.527,1.755,0.001,0.030,1.495,-2.000,-1.500,1.800,1.500,0.153,0.005,1
11.450,3,4,-2.139,-1.544,1.742,0.007,0.039,1.495,-2.000,-1.500,1.800,1.500,0.157,0.005,1
11.500,3,4,-2.132,-1.550,1.753,-0.000,0.021,1.503,-2.000,-1.500,1.800,1.500,0.149,0.003,1
11.550,3,4,-2.118,-1.552,1.769,0.016,-0.002,1.480,-2.000,-1.500,1.800,1.500,0.132,0.020,1
11.600,3,4,-2.097,-1.557,1.764,-0.000,0.036,1.480,-2.000,-1.500,1.800,1.500,0.118,0.020,1
11.650,3,4,-2.073,-1.559,1.746,-0.017,0.012,1.484,-2.000,-1.500,1.800,1.500,0.108,0.016,1
11.700,3,4,-2.056,-1.554,1.757,-0.021,0.012,1.505,-2.000,-1.500,1.800,1.500,0.088,0.005,1
11.750,3,4,-2.040,-1.548,1.767,-0.006,-0.001,1.484,-2.000,-1.500,1.800,1.500,0.071,0.016,1
11.800,3,4,-2.029,-1.543,1.779,0.009,0.006,1.500,-2.000,-1.500,1.800,1.500,0.056,0.000,1
11.850,3,4,-2.023,-1.536,1.749,-0.022,0.001,1.499,-2.000,-1.500,1.800,1.500,0.066,0.001,1
11.900,3,4,-2.024,-1.527,1.752,-0.015,-0.003,1.509,-2.000,-1.500,1.800,1.500,0.060,0.009,1
11.950,3,4,-2.030,-1.518,1.785,-0.014,-0.011,1.499,-2.000,-1.500,1.800,1.500,0.038,0.001,1
12.000,3,4,-2.032,-1.516,1.767,-0.011,-0.004,1.492,-2.000,-1.500,1.800,1.500,0.049,0.008,1
12.050,3,4,-2.039,-1.513,1.779,-0.012,0.004,1.511,-2.000,-1.500,1.800,1.500,0.046,0.011,1
12.100,3,4,-2.047,-1.509,1.759,-0.007,-0.001,1.503,-2.000,-1.500,1.800,1.500,0.063,0.003,1
12.150,3,4,-2.056,-1.505,1.759,-0.001,-0.003,1.509,-2.000,-1.500,1.800,1.500,0.070,0.009,1
12.200,3,4,-2.066,-1.500,1.770,0.009,-0.017,1.503,-2.000,-1.500,1.800,1.500,0.073,0.003,1
12.250,3,4,-2.074,-1.497,1.758,0.003,-0.005,1.505,-2.000,-1.500,1.800,1.500,0.085,0.005,1
12.300,3,4,-2.080,-1.494,1.778,0.056,-0.015,1.509,-2.000,-1.500,1.800,1.500,0.084,0.009,1
12.350,3,4,-2.085,-1.492,1.749,-0.004,-0.001,1.509,-2.000,-1.500,1.800,1.500,0.099,0.009,1
12.400,3,4,-2.089,-1.490,1.751,0.001,-0.005,1.514,-2.000,-1.500,1.800,1.500,0.102,0.014,1
12.450,3,4,-2.094,-1.488,1.764,0.013,-0.019,1.505,-2.000,-1.500,1.800,1.500,0.101,0.005,1
12.500,3,4,-2.095,-1.488,1.754,0.003,-0.006,1.505,-2.000,-1.500,1.800,1.500,0.106,0.005,1
12.550,3,4,-2.094,-1.488,1.765,0.026,-0.028,1.501,-2.000,-1.500,1.800,1.500,0.101,0.001,1
12.600,3,4,-2.090,-1.491,1.746,-0.002,-0.004,1.499,-2.000,-1.500,1.800,1.500,0.105,0.001,1
12.650,3,4,-2.087,-1.492,1.765,-0.007,0.001,1.511,-2.000,-1.500,1.800,1.500,0.094,0.011,1
12.700,3,4,-2.083,-1.495,1.745,-0.004,-0.002,1.500,-2.000,-1.500,1.800,1.500,0.100,0.000,1
12.750,3,4,-2.079,-1.497,1.753,-0.005,-0.001,1.507,-2.000,-1.500,1.800,1.500,0.093,0.007,1
12.800,4,5,-2.077,-1.498,1.748,-0.024,0.043,1.489,0.000,2.500,1.000,-1.000,4.567,2.489,0
12.850,4,5,-1.976,-1.369,1.654,-0.023,-0.157,-0.890,0.000,2.500,1.000,-1.000,4.393,0.110,0
12.900,4,5,-1.736,-0.961,1.345,1.079,-1.159,-1.760,0.000,2.500,1.000,-1.000,3.887,0.760,0
12.950,4,5,-1.702,-0.096,0.909,0.098,-1.345,-0.104,0.000,2.500,1.000,-1.000,3.105,0.896,0
13.000,4,5,-1.843,0.874,0.314,2.071,0.340,2.885,0.000,2.500,1.000,-1.000,2.552,2.399,0
13.050,4,5,0.025,0.052,1.031,-0.716,-0.011,-0.163,0.000,2.500,1.000,-1.000,2.449,0.837,0
13.100,4,5,0.065,0.386,1.203,-0.348,-0.399,-0.555,0.000,2.500,1.000,-1.000,2.124,0.445,0
13.150,4,5,0.041,0.912,1.407,0.013,-0.309,-0.703,0.000,2.500,1.000,-1.000,1.640,0.297,0
13.200,4,5,-0.019,1.454,1.391,0.034,-0.128,-0.755,0.000,2.500,1.000,-1.000,1.117,0.245,0
13.250,4,5,-0.133,1.990,1.340,0.153,0.051,-0.807,0.000,2.500,1.000,-1.000,0.627,0.193,0
13.300,4,5,-0.276,2.457,1.306,0.158,0.165,-0.904,0.000,2.500,1.000,-1.000,0.414,0.096,0
13.350,4,5,-0.424,2.817,1.308,0.062,0.244,-1.006,0.000,2.500,1.000,-1.000,0.612,0.006,0
13.400,4,5,-0.542,3.083,1.305,-0.037,0.269,-1.062,0.000,2.500,1.000,-1.000,0.852,0.062,0
13.450,4,5,-0.588,3.249,1.337,-0.054,0.335,-1.099,0.000,2.500,1.000,-1.000,1.010,0.099,0
13.500,4,5,-0.558,3.303,1.372,-0.032,0.293,-1.097,0.000,2.500,1.000,-1.000,1.046,0.097,0
13.550,4,5,-0.475,3.272,1.342,0.056,0.155,-1.094,0.000,2.500,1.000,-1.000,0.969,0.094,0
13.600,4,5,-0.373,3.180,1.273,0.002,0.094,-1.100,0.000,2.500,1.000,-1.000,0.822,0.100,0
13.650,4,5,-0.261,3.059,1.162,0.024,0.010,-1.093,0.000,2.500,1.000,-1.000,0.638,0.093,0
13.700,4,5,-0.159,2.929,1.080,0.066,-0.052,-1.089,0.000,2.500,1.000,-1.000,0.465,0.089,0
13.750,4,5,-0.093,2.802,1.031,0.086,-0.063,-1.082,0.000,2.500,1.000,-1.000,0.318,0.082,0
13.800,4,5,-0.066,2.677,1.017,0.001,-0.008,-1.051,0.000,2.500,1.000,-1.000,0.190,0.051,1
13.850,4,5,-0.050,2.554,0.962,0.037,-0.078,-1.026,0.000,2.500,1.000,-1.000,0.083,0.026,1
13.900,4,5,-0.055,2.445,0.913,-0.007,-0.053,-1.024,0.000,2.500,1.000,-1.000,0.116,0.024,1
13.950,4,5,-0.071,2.355,0.902,-0.034,-0.056,-1.012,0.000,2.500,1.000,-1.000,0.189,0.012,1
14.000,4,5,-0.087,2.290,0.927,-0.040,-0.074,-0.989,0.000,2.500,1.000,-1.000,0.239,0.011,1
14.050,4,5,-0.104,2.251,0.934,-0.049,-0.064,-0.985,0.000,2.500,1.000,-1.000,0.278,0.015,1
14.100,4,5,-0.115,2.238,0.922,-0.012,-0.059,-0.987,0.000,2.500,1.000,-1.000,0.296,0.013,1
14.150,4,5,-0.126,2.247,0.946,-0.051,-0.034,-0.989,0.000,2.500,1.000,-1.000,0.288,0.011,1
14.200,4,5,-0.132,2.274,0.974,-0.022,-0.029,-0.987,0.000,2.500,1.000,-1.000,0.263,0.013,1
14.250,4,5,-0.137,2.313,0.994,-0.014,-0.016,-0.999,0.000,2.500,1.000,-1.000,0.232,0.001,1
14.300,4,5,-0.141,2.357,1.016,-0.033,-0.003,-0.995,0.000,2.500,1.000,-1.000,0.201,0.005,1
14.350,4,5,-0.137,2.402,1.039,-0.004,0.010,-1.011,0.000,2.500,1.000,-1.000,0.173,0.011,1
14.400,4,5,-0.131,2.446,1.041,-0.018,0.023,-0.974,0.000,2.500,1.000,-1.000,0.147,0.026,1
14.450,4,5,-0.111,2.484,1.052,-0.031,0.033,-0.956,0.000,2.500,1.000,-1.000,0.124,0.044,1
14.500,4,5,-0.084,2.514,1.035,0.045,0.025,-0.991,0.000,2.500,1.000,-1.000,0.092,0.009,1
14.550,4,5,-0.068,2.526,1.038,0.021,0.025,-1.017,0.000,2.500,1.000,-1.000,0.082,0.017,1
14.600,4,5,-0.059,2.524,1.054,0.020,0.001,-0.992,0.000,2.500,1.000,-1.000,0.084,0.008,1
14.650,4,5,-0.054,2.517,1.036,0.014,0.016,-0.990,0.000,2.500,1.000,-1.000,0.067,0.010,1
14.700,4,5,-0.052,2.499,1.029,0.042,-0.024,-0.995,0.000,2.500,1.000,-1.000,0.060,0.005,1
14.750,4,5,-0.065,2.476,1.033,-0.020,0.016,-0.989,0.000,2.500,1.000,-1.000,0.077,0.011,1
14.800,4,5,-0.073,2.453,1.029,-0.039,-0.000,-0.979,0.000,2.500,1.000,-1.000,0.092,0.021,1
14.850,4,5,-0.076,2.431,0.990,0.016,-0.033,-0.973,0.000,2.500,1.000,-1.000,0.103,0.027,1
14.900,4,5,-0.089,2.415,0.987,0.002,-0.033,-0.971,0.000,2.500,1.000,-1.000,0.124,0.029,1
14.950,4,5,-0.110,2.405,1.008,-0.051,0.008,-0.966,0.000,2.500,1.000,-1.000,0.146,0.034,1
15.000,4,5,-0.123,2.402,1.023,-0.032,-0.004,-0.981,0.000,2.500,1.000,-1.000,0.159,0.019,1
15.050,4,5,-0.127,2.402,1.033,-0.019,-0.010,-0.982,0.000,2.500,1.000,-1.000,0.164,0.018,1
15.100,4,5,-0.129,2.410,1.056,-0.022,-0.006,-0.968,0.000,2.500,1.000,-1.000,0.167,0.032,1
15.150,4,5,-0.125,2.426,1.048,0.014,-0.007,-0.977,0.000,2.500,1.000,-1.000,0.153,0.023,1
15.200,4,5,-0.124,2.438,1.049,-0.014,0.016,-0.993,0.000,2.500,1.000,-1.000,0.147,0.007,1
15.250,4,5,-0.121,2.447,1.031,0.021,0.003,-0.999,0.000,2.500,1.000,-1.000,0.135,0.001,1
15.300,4,5,-0.116,2.448,1.028,-0.016,0.015,-1.007,0.000,2.500,1.000,-1.000,0.130,0.007,1
15.350,4,5,-0.106,2.446,1.027,0.023,-0.026,-0.986,0.000,2.500,1.000,-1.000,0.122,0.014,1
15.400,4,5,-0.100,2.443,1.013,0.026,-0.028,-0.989,0.000,2.500,1.000,-1.000,0.116,0.011,1
15.450,4,5,-0.104,2.439,1.035,-0.009,-0.012,-0.992,0.000,2.500,1.000,-1.000,0.125,0.008,1
15.500,4,5,-0.108,2.437,1.004,-0.005,-0.004,-0.979,0.000,2.500,1.000,-1.000,0.125,0.021,1
15.550,4,5,-0.112,2.435,0.998,0.008,-0.025,-0.972,0.000,2.500,1.000,-1.000,0.129,0.028,1
15.600,4,5,-0.123,2.436,1.018,-0.039,0.011,-0.961,0.000,2.500,1.000,-1.000,0.140,0.039,1
15.650,4,5,-0.130,2.435,1.015,-0.007,0.001,-0.985,0.000,2.500,1.000,-1.000,0.146,0.015,1
15.700,4,5,-0.133,2.433,1.030,-0.015,-0.007,-0.984,0.000,2.500,1.000,-1.000,0.152,0.016,1
15.750,4,5,-0.129,2.432,1.024,-0.019,0.005,-0.987,0.000,2.500,1.000,-1.000,0.148,0.013,1
15.800,5,6,-0.106,2.374,1.101,-0.240,0.798,-1.104,1.500,-2.500,2.200,-0.500,5.248,0.604,0
15.850,5,6,0.098,2.040,1.326,-0.205,0.451,-1.266,1.500,-2.500,2.200,-0.500,4.831,0.766,0
15.900,5,6,0.446,1.522,1.697,-0.450,0.130,-1.461,1.500,-2.500,2.200,-0.500,4.188,0.961,0
15.950,5,6,0.940,0.934,1.988,-0.687,-0.156,-0.866,1.500,-2.500,2.200,-0.500,3.486,0.366,0
16.000,5,6,1.481,0.368,2.014,0.690,-0.296,-0.592,1.500,-2.500,2.200,-0.500,2.874,0.092,0
16.050,5,6,1.792,-0.296,2.034,0.254,-0.072,-0.632,1.500,-2.500,2.200,-0.500,2.230,0.132,0
16.100,5,6,1.937,-1.001,2.054,-0.455,-0.420,-0.576,1.500,-2.500,2.200,-0.500,1.568,0.076,0
16.150,5,6,2.018,-1.652,1.900,0.252,-0.316,-0.417,1.500,-2.500,2.200,-0.500,1.038,0.083,0
16.200,5,6,1.908,-2.318,1.881,-0.040,-0.122,-0.380,1.500,-2.500,2.200,-0.500,0.549,0.120,0
16.250,5,6,1.752,-2.935,1.844,-0.225,-0.123,-0.346,1.500,-2.500,2.200,-0.500,0.616,0.154,0
16.300,5,6,1.579,-3.426,1.882,-0.385,-0.082,-0.301,1.500,-2.500,2.200,-0.500,0.982,0.199,0
16.350,5,6,1.430,-3.734,1.990,-0.345,-0.010,-0.322,1.500,-2.500,2.200,-0.500,1.253,0.178,0
16.400,5,6,1.326,-3.861,2.123,-0.410,-0.055,-0.370,1.500,-2.500,2.200,-0.500,1.374,0.130,0
16.450,5,6,1.260,-3.829,2.247,-0.306,-0.106,-0.407,1.500,-2.500,2.200,-0.500,1.351,0.093,0
16.500,5,6,1.211,-3.671,2.332,-0.234,-0.133,-0.451,1.500,-2.500,2.200,-0.500,1.214,0.049,0
16.550,5,6,1.152,-3.429,2.351,-0.107,-0.114,-0.459,1.500,-2.500,2.200,-0.500,1.003,0.041,0
16.600,5,6,1.075,-3.132,2.352,-0.035,-0.053,-0.461,1.500,-2.500,2.200,-0.500,0.777,0.039,0
16.650,5,6,0.989,-2.818,2.340,0.010,0.023,-0.477,1.500,-2.500,2.200,-0.500,0.618,0.023,0
16.700,5,6,0.909,-2.516,2.349,0.051,0.085,-0.509,1.500,-2.500,2.200,-0.500,0.610,0.009,0
16.750,5,6,0.849,-2.251,2.363,0.057,0.137,-0.549,1.500,-2.500,2.200,-0.500,0.715,0.049,0
16.800,5,6,0.825,-2.038,2.390,0.046,0.176,-0.583,1.500,-2.500,2.200,-0.500,0.839,0.083,0
16.850,5,6,0.848,-1.880,2.409,0.066,0.206,-0.613,1.500,-2.500,2.200,-0.500,0.923,0.113,0
16.900,5,6,0.923,-1.790,2.426,0.063,0.206,-0.638,1.500,-2.500,2.200,-0.500,0.942,0.138,0
16.950,5,6,1.044,-1.766,2.411,0.082,0.163,-0.633,1.500,-2.500,2.200,-0.500,0.890,0.133,0
17.000,5,6,1.192,-1.797,2.358,0.101,0.092,-0.605,1.500,-2.500,2.200,-0.500,0.784,0.105,0
17.050,5,6,1.343,-1.875,2.274,0.127,0.032,-0.571,1.500,-2.500,2.200,-0.500,0.649,0.071,0
17.100,5,6,1.475,-1.990,2.218,0.013,-0.093,-0.553,1.500,-2.500,2.200,-0.500,0.511,0.053,0
17.150,5,6,1.574,-2.112,2.174,0.086,-0.019,-0.505,1.500,-2.500,2.200,-0.500,0.396,0.005,0
17.200,5,6,1.644,-2.238,2.136,-0.083,-0.086,-0.468,1.500,-2.500,2.200,-0.500,0.306,0.032,0
17.250,5,6,1.686,-2.359,2.118,0.061,-0.059,-0.441,1.500,-2.500,2.200,-0.500,0.248,0.059,1
17.300,5,6,1.704,-2.468,2.125,-0.071,-0.091,-0.425,1.500,-2.500,2.200,-0.500,0.220,0.075,1
17.350,5,6,1.702,-2.559,2.123,-0.007,-0.067,-0.414,1.500,-2.500,2.200,-0.500,0.224,0.086,1
17.400,5,6,1.680,-2.629,2.119,-0.085,-0.076,-0.413,1.500,-2.500,2.200,-0.500,0.236,0.087,1
17.450,5,6,1.646,-2.672,2.118,-0.040,-0.053,-0.421,1.500,-2.500,2.200,-0.500,0.240,0.079,1
17.500,5,6,1.600,-2.685,2.114,-0.072,-0.056,-0.430,1.500,-2.500,2.200,-0.500,0.227,0.070,1
17.550,5,6,1.548,-2.668,2.135,-0.059,-0.042,-0.447,1.500,-2.500,2.200,-0.500,0.187,0.053,1
17.600,5,6,1.491,-2.627,2.145,-0.030,-0.022,-0.469,1.500,-2.500,2.200,-0.500,0.139,0.031,1
17.650,5,6,1.434,-2.571,2.147,-0.039,0.000,-0.476,1.500,-2.500,2.200,-0.500,0.110,0.024,1
17.700,5,6,1.385,-2.502,2.158,-0.010,0.014,-0.489,1.500,-2.500,2.200,-0.500,0.122,0.011,1
17.750,5,6,1.344,-2.431,2.163,-0.005,0.029,-0.501,1.500,-2.500,2.200,-0.500,0.174,0.001,1
17.800,5,6,1.315,-2.363,2.177,0.004,0.043,-0.516,1.500,-2.500,2.200,-0.500,0.231,0.016,1
17.850,5,6,1.300,-2.307,2.181,0.017,0.053,-0.526,1.500,-2.500,2.200,-0.500,0.279,0.026,1
17.900,5,6,1.299,-2.266,2.191,0.013,0.051,-0.531,1.500,-2.500,2.200,-0.500,0.308,0.031,0
17.950,5,6,1.315,-2.243,2.192,0.027,0.043,-0.533,1.500,-2.500,2.200,-0.500,0.317,0.033,0
18.000,5,6,1.342,-2.237,2.188,0.031,0.035,-0.530,1.500,-2.500,2.200,-0.500,0.307,0.030,0
18.050,5,6,1.379,-2.246,2.179,0.032,0.023,-0.524,1.500,-2.500,2.200,-0.500,0.282,0.024,1
18.100,5,6,1.418,-2.268,2.163,0.002,0.008,-0.511,1.500,-2.500,2.200,-0.500,0.248,0.011,1
18.150,5,6,1.456,-2.302,2.141,0.020,0.003,-0.498,1.500,-2.500,2.200,-0.500,0.211,0.002,1
18.200,5,6,1.491,-2.342,2.129,-0.005,-0.023,-0.487,1.500,-2.500,2.200,-0.500,0.174,0.013,1
18.250,5,6,1.519,-2.378,2.137,0.003,-0.024,-0.490,1.500,-2.500,2.200,-0.500,0.138,0.010,1
18.300,5,6,1.537,-2.411,2.129,0.002,-0.029,-0.472,1.500,-2.500,2.200,-0.500,0.120,0.028,1
18.350,5,6,1.546,-2.440,2.128,-0.036,-0.034,-0.463,1.500,-2.500,2.200,-0.500,0.104,0.037,1
18.400,5,6,1.548,-2.464,2.129,0.013,-0.041,-0.467,1.500,-2.500,2.200,-0.500,0.093,0.033,1
18.450,5,6,1.541,-2.481,2.120,-0.014,-0.034,-0.468,1.500,-2.500,2.200,-0.500,0.092,0.032,1
18.500,5,6,1.526,-2.488,2.128,-0.024,-0.026,-0.474,1.500,-2.500,2.200,-0.500,0.077,0.026,1
18.550,5,6,1.506,-2.486,2.130,0.018,-0.009,-0.476,1.500,-2.500,2.200,-0.500,0.071,0.024,1
18.600,5,6,1.483,-2.477,2.145,-0.013,-0.006,-0.481,1.500,-2.500,2.200,-0.500,0.062,0.019,1
18.650,5,6,1.461,-2.462,2.151,-0.026,0.004,-0.487,1.500,-2.500,2.200,-0.500,0.074,0.013,1
18.700,5,6,1.441,-2.441,2.157,-0.007,0.003,-0.492,1.500,-2.500,2.200,-0.500,0.094,0.008,1
18.750,5,6,1.425,-2.420,2.141,-0.006,0.017,-0.495,1.500,-2.500,2.200,-0.500,0.125,0.005,1
18.800,5,6,1.414,-2.402,2.143,0.015,0.011,-0.497,1.500,-2.500,2.200,-0.500,0.143,0.003,1
18.850,5,6,1.409,-2.385,2.145,0.016,0.019,-0.500,1.500,-2.500,2.200,-0.500,0.156,0.000,1
18.900,5,6,1.409,-2.373,2.137,-0.006,0.005,-0.505,1.500,-2.500,2.200,-0.500,0.168,0.005,1
18.950,5,6,1.411,-2.363,2.148,0.025,0.022,-0.506,1.500,-2.500,2.200,-0.500,0.171,0.006,1
19.000,5,6,1.417,-2.359,2.150,0.009,0.006,-0.505,1.500,-2.500,2.200,-0.500,0.171,0.005,1
19.050,5,6,1.425,-2.358,2.152,0.008,0.009,-0.505,1.500,-2.500,2.200,-0.500,0.167,0.005,1
19.100,5,6,1.436,-2.362,2.158,-0.029,0.015,-0.504,1.500,-2.500,2.200,-0.500,0.157,0.004,1
19.150,5,6,1.451,-2.371,2.143,0.002,0.004,-0.496,1.500,-2.500,2.200,-0.500,0.150,0.004,1
19.200,5,6,1.466,-2.382,2.137,-0.002,-0.007,-0.488,1.500,-2.500,2.200,-0.500,0.138,0.012,1
19.250,5,6,1.478,-2.394,2.134,0.025,-0.003,-0.485,1.500,-2.500,2.200,-0.500,0.127,0.015,1
19.300,5,6,1.489,-2.406,2.129,0.000,-0.023,-0.482,1.500,-2.500,2.200,-0.500,0.119,0.018,1
19.350,5,6,1.496,-2.416,2.127,-0.000,-0.012,-0.485,1.500,-2.500,2.200,-0.500,0.112,0.015,1
19.400,5,6,1.497,-2.421,2.138,0.026,-0.009,-0.483,1.500,-2.500,2.200,-0.500,0.101,0.017,1
19.450,5,6,1.493,-2.425,2.133,-0.002,-0.016,-0.486,1.500,-2.500,2.200,-0.500,0.100,0.014,1
19.500,5,6,1.486,-2.427,2.134,0.003,0.003,-0.485,1.500,-2.500,2.200,-0.500,0.099,0.015,1
19.550,5,6,1.478,-2.428,2.131,-0.002,-0.001,-0.486,1.500,-2.500,2.200,-0.500,0.102,0.014,1
19.600,5,6,1.471,-2.426,2.140,0.011,-0.001,-0.488,1.500,-2.500,2.200,-0.500,0.099,0.012,1
19.650,5,6,1.463,-2.422,2.143,0.002,-0.002,-0.490,1.500,-2.500,2.200,-0.500,0.103,0.010,1
19.700,5,6,1.456,-2.416,2.150,0.011,-0.001,-0.493,1.500,-2.500,2.200,-0.500,0.107,0.007,1
19.750,5,6,1.449,-2.409,2.146,0.001,0.005,-0.489,1.500,-2.500,2.200,-0.500,0.117,0.011,1
19.800,5,6,1.443,-2.403,2.136,0.002,0.006,-0.493,1.500,-2.500,2.200,-0.500,0.130,0.007,1
19.850,5,6,1.440,-2.398,2.145,-0.005,-0.004,-0.497,1.500,-2.500,2.200,-0.500,0.131,0.003,1
19.900,5,6,1.438,-2.393,2.151,0.007,-0.001,-0.499,1.500,-2.500,2.200,-0.500,0.133,0.001,1
19.950,5,6,1.438,-2.388,2.153,0.013,0.010,-0.498,1.500,-2.500,2.200,-0.500,0.136,0.002,1
20.000,5,6,1.440,-2.386,2.152,0.004,0.006,-0.498,1.500,-2.500,2.200,-0.500,0.137,0.002,1
20.050,6,7,1.435,-2.366,2.119,-1.615,-0.668,0.582,-1.500,2.000,1.400,0.800,5.310,0.218,0
20.100,6,7,1.209,-2.106,1.908,-0.800,0.652,0.904,-1.500,2.000,1.400,0.800,4.945,0.104,0
20.150,6,7,0.833,-1.609,1.682,0.452,1.083,1.293,-1.500,2.000,1.400,0.800,4.307,0.493,0
20.200,6,7,0.579,-0.807,1.506,-0.603,0.406,0.868,-1.500,2.000,1.400,0.800,3.495,0.068,0
20.250,6,7,0.312,0.179,1.450,-0.463,0.253,0.740,-1.500,2.000,1.400,0.800,2.569,0.060,0
20.300,6,7,0.078,1.295,1.506,0.067,0.664,0.915,-1.500,2.000,1.400,0.800,1.732,0.115,0
20.350,6,7,-0.095,2.454,1.460,0.027,0.221,1.105,-1.500,2.000,1.400,0.800,1.478,0.305,0
20.400,6,7,-0.182,3.621,1.447,0.378,-0.128,1.066,-1.500,2.000,1.400,0.800,2.089,0.266,0
20.450,6,7,-0.133,4.514,1.675,0.491,-0.703,0.842,-1.500,2.000,1.400,0.800,2.874,0.042,0
20.500,6,7,-0.116,4.808,2.072,0.182,-0.801,0.699,-1.500,2.000,1.400,0.800,3.202,0.101,0
20.550,6,7,-0.260,4.713,2.429,0.110,-0.605,0.891,-1.500,2.000,1.400,0.800,3.156,0.091,0
20.600,6,7,-0.452,4.533,2.543,-0.032,-0.485,0.981,-1.500,2.000,1.400,0.800,2.970,0.181,0
20.650,6,7,-0.707,4.265,2.475,-0.031,-0.315,1.040,-1.500,2.000,1.400,0.800,2.630,0.240,0
20.700,6,7,-1.014,3.945,2.251,-0.197,-0.128,1.090,-1.500,2.000,1.400,0.800,2.178,0.290,0
20.750,6,7,-1.381,3.596,1.966,-0.156,0.043,1.124,-1.500,2.000,1.400,0.800,1.698,0.324,0
20.800,6,7,-1.800,3.268,1.753,0.006,0.149,1.111,-1.500,2.000,1.400,0.800,1.350,0.311,0
20.850,6,7,-2.195,3.001,1.647,0.125,0.214,1.019,-1.500,2.000,1.400,0.800,1.243,0.219,0
20.900,6,7,-2.491,2.810,1.642,0.140,0.273,0.879,-1.500,2.000,1.400,0.800,1.303,0.079,0
20.950,6,7,-2.649,2.671,1.708,0.180,0.262,0.735,-1.500,2.000,1.400,0.800,1.366,0.065,0
21.000,6,7,-2.686,2.554,1.740,0.161,0.233,0.674,-1.500,2.000,1.400,0.800,1.352,0.126,0
21.050,6,7,-2.626,2.444,1.719,0.141,0.163,0.685,-1.500,2.000,1.400,0.800,1.251,0.115,0
21.100,6,7,-2.495,2.329,1.656,0.097,0.048,0.700,-1.500,2.000,1.400,0.800,1.079,0.100,0
21.150,6,7,-2.325,2.200,1.580,0.045,-0.006,0.711,-1.500,2.000,1.400,0.800,0.868,0.089,0
21.200,6,7,-2.145,2.058,1.497,-0.029,-0.019,0.714,-1.500,2.000,1.400,0.800,0.655,0.086,0
21.250,6,7,-1.975,1.916,1.438,-0.065,-0.007,0.711,-1.500,2.000,1.400,0.800,0.484,0.089,0
21.300,6,7,-1.828,1.791,1.392,-0.114,-0.002,0.715,-1.500,2.000,1.400,0.800,0.389,0.085,0
21.350,6,7,-1.711,1.700,1.354,-0.121,0.002,0.737,-1.500,2.000,1.400,0.800,0.370,0.063,0
21.400,6,7,-1.626,1.648,1.326,-0.096,0.032,0.755,-1.500,2.000,1.400,0.800,0.382,0.045,0
21.450,6,7,-1.562,1.637,1.334,-0.090,0.035,0.807,-1.500,2.000,1.400,0.800,0.375,0.007,0
21.500,6,7,-1.515,1.665,1.374,-0.082,0.025,0.853,-1.500,2.000,1.400,0.800,0.337,0.053,0
21.550,6,7,-1.483,1.726,1.439,-0.042,-0.005,0.869,-1.500,2.000,1.400,0.800,0.277,0.069,1
21.600,6,7,-1.460,1.798,1.494,0.041,-0.015,0.807,-1.500,2.000,1.400,0.800,0.226,0.007,1
21.650,6,7,-1.433,1.864,1.545,0.044,-0.037,0.783,-1.500,2.000,1.400,0.800,0.210,0.017,1
21.700,6,7,-1.406,1.908,1.568,0.007,-0.049,0.777,-1.500,2.000,1.400,0.800,0.214,0.023,1
21.750,6,7,-1.384,1.936,1.555,-0.009,-0.040,0.801,-1.500,2.000,1.400,0.800,0.203,0.001,1
21.800,6,7,-1.374,1.955,1.549,-0.010,-0.029,0.809,-1.500,2.000,1.400,0.800,0.201,0.009,1
21.850,6,7,-1.375,1.972,1.548,0.030,-0.023,0.827,-1.500,2.000,1.400,0.800,0.196,0.027,1
21.900,6,7,-1.382,1.987,1.531,-0.011,-0.010,0.825,-1.500,2.000,1.400,0.800,0.177,0.025,1
21.950,6,7,-1.396,2.002,1.542,-0.013,-0.039,0.827,-1.500,2.000,1.400,0.800,0.176,0.027,1
22.000,6,7,-1.417,2.009,1.522,-0.022,0.011,0.827,-1.500,2.000,1.400,0.800,0.148,0.027,1
22.050,6,7,-1.439,2.026,1.511,-0.027,0.010,0.859,-1.500,2.000,1.400,0.800,0.130,0.059,1
22.100,6,7,-1.461,2.046,1.517,0.019,-0.022,0.804,-1.500,2.000,1.400,0.800,0.132,0.004,1
22.150,6,7,-1.478,2.054,1.542,0.017,-0.027,0.797,-1.500,2.000,1.400,0.800,0.154,0.003,1
22.200,6,7,-1.491,2.056,1.553,-0.010,0.003,0.805,-1.500,2.000,1.400,0.800,0.163,0.005,1
22.250,6,7,-1.505,2.052,1.513,-0.019,0.012,0.809,-1.500,2.000,1.400,0.800,0.124,0.009,1
22.300,6,7,-1.518,2.055,1.481,-0.010,0.012,0.841,-1.500,2.000,1.400,0.800,0.100,0.041,1
22.350,6,7,-1.528,2.067,1.482,-0.001,0.006,0.855,-1.500,2.000,1.400,0.800,0.110,0.055,1
22.400,6,7,-1.534,2.083,1.508,0.094,-0.059,0.833,-1.500,2.000,1.400,0.800,0.140,0.033,1
22.450,6,7,-1.532,2.089,1.519,0.023,-0.015,0.818,-1.500,2.000,1.400,0.800,0.152,0.018,1
22.500,6,7,-1.526,2.082,1.511,0.034,-0.019,0.778,-1.500,2.000,1.400,0.800,0.140,0.022,1
22.550,6,7,-1.520,2.069,1.503,0.001,-0.012,0.793,-1.500,2.000,1.400,0.800,0.125,0.007,1
22.600,6,7,-1.517,2.046,1.512,-0.013,-0.043,0.796,-1.500,2.000,1.400,0.800,0.122,0.004,1
22.650,6,7,-1.520,2.024,1.481,-0.038,0.015,0.827,-1.500,2.000,1.400,0.800,0.087,0.027,1
22.700,6,7,-1.528,2.019,1.479,-0.002,0.017,0.838,-1.500,2.000,1.400,0.800,0.086,0.038,1
22.750,6,7,-1.533,2.025,1.508,0.018,-0.066,0.839,-1.500,2.000,1.400,0.800,0.116,0.039,1
22.800,6,7,-1.538,2.022,1.531,0.035,-0.044,0.800,-1.500,2.000,1.400,0.800,0.139,0.000,1
22.850,6,7,-1.538,2.019,1.508,-0.011,0.008,0.824,-1.500,2.000,1.400,0.800,0.116,0.024,1
22.900,6,7,-1.535,2.021,1.509,-0.007,0.000,0.806,-1.500,2.000,1.400,0.800,0.117,0.006,1
22.950,6,7,-1.530,2.015,1.515,-0.077,0.023,0.772,-1.500,2.000,1.400,0.800,0.120,0.028,1
23.000,6,7,-1.530,2.018,1.461,-0.019,0.011,0.811,-1.500,2.000,1.400,0.800,0.070,0.011,1
23.050,6,7,-1.531,2.030,1.413,-0.014,-0.007,0.837,-1.500,2.000,1.400,0.800,0.045,0.037,1
23.100,6,7,-1.529,2.049,1.393,0.031,0.008,0.822,-1.500,2.000,1.400,0.800,0.058,0.022,1
23.150,6,7,-1.515,2.064,1.408,0.027,-0.018,0.816,-1.500,2.000,1.400,0.800,0.066,0.016,1
23.200,6,7,-1.497,2.068,1.452,0.032,-0.092,0.815,-1.500,2.000,1.400,0.800,0.086,0.015,1
23.250,6,7,-1.487,2.058,1.437,0.006,-0.014,0.797,-1.500,2.000,1.400,0.800,0.070,0.003,1
23.300,6,7,-1.480,2.046,1.434,-0.003,-0.011,0.802,-1.500,2.000,1.400,0.800,0.061,0.002,1
23.350,6,7,-1.476,2.034,1.467,-0.007,-0.035,0.819,-1.500,2.000,1.400,0.800,0.079,0.019,1
23.400,6,7,-1.479,2.017,1.472,-0.019,0.005,0.787,-1.500,2.000,1.400,0.800,0.077,0.013,1
23.450,6,7,-1.487,2.006,1.452,-0.037,0.015,0.828,-1.500,2.000,1.400,0.800,0.054,0.028,1
23.500,6,7,-1.499,2.011,1.462,-0.007,0.014,0.845,-1.500,2.000,1.400,0.800,0.063,0.045,1
23.550,7,8,-1.508,2.026,1.494,0.613,-0.032,0.849,2.500,0.000,1.900,0.200,4.510,0.649,0
23.600,7,8,-1.323,1.826,1.428,-0.457,0.407,-0.294,2.500,0.000,1.900,0.200,4.263,0.494,0
23.650,7,8,-0.944,1.561,1.361,-0.241,0.742,-0.565,2.500,0.000,1.900,0.200,3.819,0.765,0
23.700,7,8,-0.299,1.334,1.442,-0.421,0.176,-0.520,2.500,0.000,1.900,0.200,3.134,0.720,0
23.750,7,8,0.531,1.242,1.670,-0.555,0.089,-0.446,2.500,0.000,1.900,0.200,2.339,0.646,0
23.800,7,8,1.375,1.173,1.668,-0.236,-0.196,-0.279,2.500,0.000,1.900,0.200,1.642,0.479,0
23.850,7,8,2.147,1.126,1.499,-0.040,-0.360,-0.145,2.500,0.000,1.900,0.200,1.246,0.345,0
23.900,7,8,2.715,1.102,1.485,0.089,-0.373,-0.112,2.500,0.000,1.900,0.200,1.197,0.312,0
23.950,7,8,3.082,1.060,1.565,0.123,-0.453,-0.035,2.500,0.000,1.900,0.200,1.255,0.235,0
24.000,7,8,3.243,0.972,1.697,0.129,-0.383,0.079,2.500,0.000,1.900,0.200,1.240,0.121,0
24.050,7,8,3.266,0.826,1.812,0.190,-0.216,0.209,2.500,0.000,1.900,0.200,1.130,0.009,0
24.100,7,8,3.218,0.623,1.858,-0.044,-0.214,0.283,2.500,0.000,1.900,0.200,0.952,0.083,0
24.150,7,8,3.124,0.386,1.849,0.043,-0.042,0.327,2.500,0.000,1.900,0.200,0.736,0.127,0
24.200,7,8,2.996,0.143,1.821,-0.051,0.025,0.364,2.500,0.000,1.900,0.200,0.522,0.164,0
24.250,7,8,2.854,-0.065,1.803,-0.181,0.015,0.369,2.500,0.000,1.900,0.200,0.373,0.169,0
24.300,7,8,2.715,-0.210,1.780,-0.169,0.121,0.337,2.500,0.000,1.900,0.200,0.324,0.137,0
24.350,7,8,2.597,-0.276,1.791,-0.132,0.094,0.301,2.500,0.000,1.900,0.200,0.312,0.101,0
24.400,7,8,2.504,-0.283,1.815,-0.073,0.074,0.260,2.500,0.000,1.900,0.200,0.296,0.060,1
24.450,7,8,2.433,-0.251,1.840,-0.040,0.058,0.230,2.500,0.000,1.900,0.200,0.267,0.030,1
24.500,7,8,2.381,-0.196,1.857,-0.014,0.051,0.202,2.500,0.000,1.900,0.200,0.233,0.002,1
24.550,7,8,2.347,-0.131,1.871,0.005,0.041,0.183,2.500,0.000,1.900,0.200,0.204,0.017,1
24.600,7,8,2.327,-0.066,1.876,0.019,0.029,0.171,2.500,0.000,1.900,0.200,0.186,0.029,1
24.650,7,8,2.321,-0.008,1.873,0.031,0.019,0.170,2.500,0.000,1.900,0.200,0.181,0.030,1
24.700,7,8,2.326,0.041,1.874,0.037,0.016,0.166,2.500,0.000,1.900,0.200,0.180,0.034,1
24.750,7,8,2.339,0.078,1.865,0.025,0.011,0.168,2.500,0.000,1.900,0.200,0.182,0.032,1
24.800,7,8,2.358,0.105,1.864,0.024,-0.002,0.175,2.500,0.000,1.900,0.200,0.180,0.025,1
24.850,7,8,2.382,0.120,1.860,0.008,-0.011,0.184,2.500,0.000,1.900,0.200,0.173,0.016,1
24.900,7,8,2.409,0.125,1.855,0.028,-0.008,0.189,2.500,0.000,1.900,0.200,0.161,0.011,1
24.950,7,8,2.436,0.122,1.861,0.034,0.013,0.202,2.500,0.000,1.900,0.200,0.143,0.002,1
25.000,7,8,2.462,0.111,1.856,-0.016,-0.011,0.207,2.500,0.000,1.900,0.200,0.125,0.007,1
25.050,7,8,2.487,0.098,1.848,-0.009,-0.033,0.213,2.500,0.000,1.900,0.200,0.112,0.013,1
25.100,7,8,2.506,0.084,1.849,0.010,-0.016,0.214,2.500,0.000,1.900,0.200,0.098,0.014,1
25.150,7,8,2.520,0.069,1.854,-0.019,-0.013,0.224,2.500,0.000,1.900,0.200,0.085,0.024,1
25.200,7,8,2.530,0.054,1.862,-0.021,-0.031,0.231,2.500,0.000,1.900,0.200,0.072,0.031,1
25.250,7,8,2.533,0.038,1.851,-0.020,-0.022,0.222,2.500,0.000,1.900,0.200,0.070,0.022,1
25.300,7,8,2.531,0.025,1.831,0.007,0.025,0.213,2.500,0.000,1.900,0.200,0.079,0.013,1
25.350,7,8,2.530,0.016,1.845,-0.034,-0.030,0.220,2.500,0.000,1.900,0.200,0.065,0.020,1
25.400,7,8,2.528,0.009,1.840,0.015,0.001,0.220,2.500,0.000,1.900,0.200,0.067,0.020,1
25.450,7,8,2.522,0.003,1.855,-0.029,-0.017,0.226,2.500,0.000,1.900,0.200,0.050,0.026,1
25.500,7,8,2.513,-0.003,1.844,-0.015,0.005,0.224,2.500,0.000,1.900,0.200,0.057,0.024,1
25.550,7,8,2.504,-0.004,1.853,-0.009,-0.002,0.219,2.500,0.000,1.900,0.200,0.047,0.019,1
25.600,7,8,2.495,-0.002,1.849,-0.007,-0.004,0.217,2.500,0.000,1.900,0.200,0.052,0.017,1
25.650,7,8,2.488,0.003,1.837,-0.015,-0.012,0.207,2.500,0.000,1.900,0.200,0.064,0.007,1
25.700,7,8,2.481,0.007,1.849,0.012,0.015,0.206,2.500,0.000,1.900,0.200,0.055,0.006,1
25.750,7,8,2.478,0.011,1.861,-0.013,-0.019,0.213,2.500,0.000,1.900,0.200,0.046,0.013,1
25.800,7,8,2.478,0.015,1.861,0.006,-0.004,0.214,2.500,0.000,1.900,0.200,0.047,0.014,1
25.850,7,8,2.478,0.018,1.853,-0.003,-0.013,0.206,2.500,0.000,1.900,0.200,0.055,0.006,1
25.900,7,8,2.479,0.019,1.857,0.004,-0.005,0.216,2.500,0.000,1.900,0.200,0.052,0.016,1
25.950,7,8,2.479,0.017,1.868,0.017,0.013,0.219,2.500,0.000,1.900,0.200,0.041,0.019,1
26.000,7,8,2.479,0.014,1.874,0.004,-0.007,0.222,2.500,0.000,1.900,0.200,0.036,0.022,1
26.050,7,8,2.480,0.012,1.869,-0.031,-0.008,0.221,2.500,0.000,1.900,0.200,0.039,0.021,1
26.100,7,8,2.484,0.013,1.873,-0.003,0.007,0.221,2.500,0.000,1.900,0.200,0.034,0.021,1
26.150,7,8,2.489,0.016,1.874,0.006,0.015,0.219,2.500,0.000,1.900,0.200,0.032,0.019,1
26.200,7,8,2.493,0.019,1.870,-0.008,-0.009,0.217,2.500,0.000,1.900,0.200,0.036,0.017,1
26.250,7,8,2.494,0.024,1.853,-0.016,-0.017,0.211,2.500,0.000,1.900,0.200,0.053,0.011,1
26.300,7,8,2.495,0.027,1.861,0.034,0.013,0.213,2.500,0.000,1.900,0.200,0.047,0.013,1
26.350,7,8,2.496,0.027,1.861,-0.007,-0.004,0.213,2.500,0.000,1.900,0.200,0.048,0.013,1
26.400,8,9,2.496,0.028,1.856,0.012,-0.010,0.215,-2.500,0.000,2.100,-0.800,5.002,1.015,0
26.450,8,9,2.348,0.045,1.932,0.496,-0.940,-0.263,-2.500,0.000,2.100,-0.800,4.852,0.537,0
26.500,8,9,1.754,0.103,2.045,0.191,-0.498,-0.874,-2.500,0.000,2.100,-0.800,4.256,0.074,0
26.550,8,9,0.803,0.245,2.220,0.240,-0.208,-1.105,-2.500,0.000,2.100,-0.800,3.314,0.305,0
26.600,8,9,-0.342,0.204,2.323,0.306,0.819,-1.163,-2.500,0.000,2.100,-0.800,2.179,0.363,0
26.650,8,9,-1.446,-0.141,2.226,0.107,0.609,-0.750,-2.500,0.000,2.100,-0.800,1.071,0.050,0
26.700,8,9,-2.348,-0.497,1.885,-0.410,0.567,-0.173,-2.500,0.000,2.100,-0.800,0.562,0.627,0
26.750,8,9,-2.865,-0.650,1.653,-0.686,0.273,-0.251,-2.500,0.000,2.100,-0.800,0.870,0.549,0
26.800,8,9,-3.126,-0.525,1.676,-0.178,0.232,-0.704,-2.500,0.000,2.100,-0.800,0.920,0.096,0
26.850,8,9,-3.225,-0.334,1.859,-0.260,0.061,-0.831,-2.500,0.000,2.100,-0.800,0.834,0.031,0
26.900,8,9,-3.242,-0.108,2.016,-0.201,0.079,-0.910,-2.500,0.000,2.100,-0.800,0.755,0.110,0
26.950,8,9,-3.205,0.129,2.110,-0.089,0.109,-0.893,-2.500,0.000,2.100,-0.800,0.716,0.093,0
27.000,8,9,-3.119,0.350,2.176,-0.031,0.113,-0.900,-2.500,0.000,2.100,-0.800,0.715,0.100,0
27.050,8,9,-2.996,0.535,2.213,0.038,0.161,-0.903,-2.500,0.000,2.100,-0.800,0.738,0.103,0
27.100,8,9,-2.847,0.662,2.233,0.049,0.162,-0.933,-2.500,0.000,2.100,-0.800,0.759,0.133,0
27.150,8,9,-2.681,0.728,2.241,0.076,0.132,-0.934,-2.500,0.000,2.100,-0.800,0.763,0.134,0
27.200,8,9,-2.516,0.737,2.223,0.117,0.080,-0.938,-2.500,0.000,2.100,-0.800,0.747,0.138,0
27.250,8,9,-2.371,0.695,2.193,0.154,0.025,-0.927,-2.500,0.000,2.100,-0.800,0.713,0.127,0
27.300,8,9,-2.266,0.609,2.153,0.143,0.003,-0.906,-2.500,0.000,2.100,-0.800,0.655,0.106,0
27.350,8,9,-2.203,0.487,2.118,0.109,-0.030,-0.880,-2.500,0.000,2.100,-0.800,0.571,0.080,0
27.400,8,9,-2.181,0.343,2.083,0.067,-0.027,-0.840,-2.500,0.000,2.100,-0.800,0.469,0.040,0
27.450,8,9,-2.184,0.193,2.044,0.021,-0.050,-0.808,-2.500,0.000,2.100,-0.800,0.374,0.008,0
27.500,8,9,-2.203,0.052,2.010,-0.040,-0.052,-0.783,-2.500,0.000,2.100,-0.800,0.315,0.017,0
27.550,8,9,-2.225,-0.064,1.994,-0.057,-0.074,-0.772,-2.500,0.000,2.100,-0.800,0.302,0.028,0
27.600,8,9,-2.248,-0.145,1.997,-0.066,-0.083,-0.771,-2.500,0.000,2.100,-0.800,0.308,0.029,0
27.650,8,9,-2.269,-0.190,1.995,-0.076,-0.056,-0.778,-2.500,0.000,2.100,-0.800,0.317,0.022,0
27.700,8,9,-2.284,-0.196,2.007,-0.073,-0.061,-0.788,-2.500,0.000,2.100,-0.800,0.306,0.012,0
27.750,8,9,-2.298,-0.166,2.029,-0.057,-0.055,-0.804,-2.500,0.000,2.100,-0.800,0.271,0.004,1
27.800,8,9,-2.309,-0.106,2.055,-0.052,-0.025,-0.817,-2.500,0.000,2.100,-0.800,0.223,0.017,1
27.850,8,9,-2.316,-0.027,2.068,-0.006,-0.018,-0.825,-2.500,0.000,2.100,-0.800,0.188,0.025,1
27.900,8,9,-2.322,0.057,2.061,-0.002,0.011,-0.834,-2.500,0.000,2.100,-0.800,0.191,0.034,1
27.950,8,9,-2.324,0.138,2.081,-0.006,0.021,-0.841,-2.500,0.000,2.100,-0.800,0.225,0.041,1
28.000,8,9,-2.319,0.209,2.095,0.020,0.036,-0.847,-2.500,0.000,2.100,-0.800,0.276,0.047,1
28.050,8,9,-2.309,0.261,2.092,0.049,0.039,-0.850,-2.500,0.000,2.100,-0.800,0.324,0.050,0
28.100,8,9,-2.299,0.290,2.088,0.039,0.046,-0.850,-2.500,0.000,2.100,-0.800,0.353,0.050,0
28.150,8,9,-2.288,0.294,2.091,0.036,0.054,-0.842,-2.500,0.000,2.100,-0.800,0.363,0.042,0
28.200,8,9,-2.275,0.276,2.088,0.032,0.011,-0.839,-2.500,0.000,2.100,-0.800,0.356,0.039,0
28.250,8,9,-2.265,0.241,2.079,0.025,0.014,-0.834,-2.500,0.000,2.100,-0.800,0.338,0.034,0
28.300,8,9,-2.260,0.196,2.065,0.011,-0.008,-0.831,-2.500,0.000,2.100,-0.800,0.312,0.031,0
28.350,8,9,-2.260,0.148,2.053,-0.000,-0.023,-0.827,-2.500,0.000,2.100,-0.800,0.286,0.027,1
28.400,8,9,-2.264,0.103,2.048,0.001,-0.014,-0.818,-2.500,0.000,2.100,-0.800,0.263,0.018,1
28.450,8,9,-2.270,0.064,2.043,-0.010,-0.006,-0.812,-2.500,0.000,2.100,-0.800,0.246,0.012,1
28.500,8,9,-2.275,0.034,2.037,-0.018,-0.036,-0.811,-2.500,0.000,2.100,-0.800,0.236,0.011,1
28.550,8,9,-2.281,0.018,2.040,-0.039,-0.012,-0.817,-2.500,0.000,2.100,-0.800,0.228,0.017,1
28.600,8,9,-2.286,0.015,2.045,-0.027,-0.022,-0.819,-2.500,0.000,2.100,-0.800,0.222,0.019,1
28.650,8,9,-2.289,0.025,2.050,-0.014,-0.020,-0.822,-2.500,0.000,2.100,-0.800,0.219,0.022,1
28.700,8,9,-2.290,0.043,2.056,-0.014,0.011,-0.817,-2.500,0.000,2.100,-0.800,0.219,0.017,1
28.750,8,9,-2.287,0.065,2.063,-0.011,-0.012,-0.823,-2.500,0.000,2.100,-0.800,0.226,0.023,1
28.800,8,9,-2.282,0.089,2.067,0.007,-0.003,-0.827,-2.500,0.000,2.100,-0.800,0.237,0.027,1
28.850,8,9,-2.278,0.113,2.070,0.015,0.005,-0.829,-2.500,0.000,2.100,-0.800,0.250,0.029,1
28.900,8,9,-2.275,0.134,2.075,0.013,0.013,-0.831,-2.500,0.000,2.100,-0.800,0.263,0.031,1
28.950,8,9,-2.271,0.151,2.074,0.024,0.008,-0.833,-2.500,0.000,2.100,-0.800,0.275,0.033,1
29.000,8,9,-2.268,0.161,2.075,0.023,0.017,-0.835,-2.500,0.000,2.100,-0.800,0.283,0.035,1
29.050,8,9,-2.267,0.165,2.075,-0.001,0.021,-0.836,-2.500,0.000,2.100,-0.800,0.287,0.036,1
29.100,8,9,-2.266,0.164,2.074,0.023,0.003,-0.832,-2.500,0.000,2.100,-0.800,0.286,0.032,1
29.150,8,9,-2.268,0.158,2.063,0.012,0.012,-0.830,-2.500,0.000,2.100,-0.800,0.283,0.030,1
29.200,8,9,-2.272,0.148,2.059,-0.001,0.014,-0.826,-2.500,0.000,2.100,-0.800,0.275,0.026,1
29.250,8,9,-2.275,0.135,2.059,0.013,-0.008,-0.820,-2.500,0.000,2.100,-0.800,0.265,0.020,1
29.300,8,9,-2.277,0.121,2.046,-0.005,-0.006,-0.820,-2.500,0.000,2.100,-0.800,0.259,0.020,1
29.350,8,9,-2.279,0.107,2.043,-0.001,0.009,-0.818,-2.500,0.000,2.100,-0.800,0.253,0.018,1
29.400,8,9,-2.278,0.093,2.042,-0.002,-0.020,-0.820,-2.500,0.000,2.100,-0.800,0.247,0.020,1
29.450,8,9,-2.279,0.082,2.044,0.002,-0.005,-0.821,-2.500,0.000,2.100,-0.800,0.242,0.021,1
29.500,8,9,-2.281,0.075,2.044,-0.014,-0.012,-0.822,-2.500,0.000,2.100,-0.800,0.238,0.022,1
29.550,8,9,-2.282,0.073,2.048,-0.016,-0.018,-0.826,-2.500,0.000,2.100,-0.800,0.235,0.026,1
29.600,8,9,-2.284,0.076,2.048,-0.013,-0.003,-0.820,-2.500,0.000,2.100,-0.800,0.235,0.020,1
29.650,8,9,-2.282,0.082,2.053,-0.007,-0.009,-0.826,-2.500,0.000,2.100,-0.800,0.237,0.026,1
29.700,8,9,-2.281,0.089,2.054,-0.009,-0.002,-0.828,-2.500,0.000,2.100,-0.800,0.241,0.028,1
29.750,8,9,-2.280,0.098,2.059,-0.003,0.017,-0.825,-2.500,0.000,2.100,-0.800,0.244,0.025,1
29.800,8,9,-2.280,0.105,2.060,0.009,0.008,-0.829,-2.500,0.000,2.100,-0.800,0.247,0.029,1
29.850,8,9,-2.280,0.112,2.061,-0.004,0.004,-0.831,-2.500,0.000,2.100,-0.800,0.250,0.031,1
29.900,8,9,-2.280,0.119,2.062,0.007,0.014,-0.833,-2.500,0.000,2.100,-0.800,0.253,0.033,1
29.950,8,9,-2.279,0.125,2.060,0.013,0.002,-0.832,-2.500,0.000,2.100,-0.800,0.257,0.032,1
